"zip","city","state","name","address","postalCode","lat","lon"
"30002","Avondale Estates","GA","Tsunami Mixed Martial Arts","225 Laredo Dr Ste A","30030",33.7816771,-84.2688249
"30002","Avondale Estates","GA","Gym Of Stones","Katie Kerr","30030",33.76746732341964,-84.2737431720854
"30002","Avondale Estates","GA","Crossfit East Decatur 2.0","185 Laredo Dr","30030",33.78049087524414,-84.26812744140625
"30002","Avondale Estates","GA","Insane Fitness","not_available","30030",33.773582,-84.273842
"30002","Avondale Estates","GA","Soper Classic Muscle Gym","not_available","30032",33.76372645775276,-84.25593545793379
"30002","Avondale Estates","GA","Decatur Crossing Fitness Center","not_available","not_available",33.781536867604295,-84.2761802855939
"30004","Alpharetta","GA","LA Fitness","5530 Windward Pkwy Ste H","30004",34.088858322455614,-84.26781086750918
"30004","Alpharetta","GA","Life Time Fitness","855 North Point Pkwy","30005",34.0798149,-84.26228379999999
"30004","Alpharetta","GA","Workout Anytime","13800 Highway 9 N","30004",34.11781853833213,-84.27145311477764
"30004","Alpharetta","GA","Emeryfit","13920 Highway 9 N","30004",34.12068557739258,-84.27086639404297
"30004","Alpharetta","GA","Planet Fitness","13071 Hwy 9","30004",34.10128111879165,-84.26898004258105
"30004","Alpharetta","GA","Anytime Fitness","700 Hwy 9","30009",34.09309,-84.28789
"30004","Alpharetta","GA","Atlanta Fitness","6045 Post Rd","30040",34.17996353251184,-84.2177339447747
"30004","Alpharetta","GA","Anytime Fitness","12635 Crabapple Rd","30004",34.089105424574456,-84.34234178406122
"30004","Alpharetta","GA","Stephen Phillips | FITNESS","not_available","30075",34.08230921875106,-84.3559943521793
"30004","Alpharetta","GA","Lifetime Member Services","North Point Pkwy","30022",34.079538672666054,-84.2613196840661
"30004","Alpharetta","GA","Crossfit Alpharetta","27 S Main St","30009",34.074956,-84.294927
"30004","Alpharetta","GA","Anytime Fitness","270 Rucker Rd","30004",34.07882,-84.35668
"30004","Alpharetta","GA","Snap Fitness","488 N Main St","30009",34.088324095817214,-84.29542652457292
"30004","Alpharetta","GA","Shazzy Fitness","12850 Georgia 9, Suite 600-308","30004",34.0962401,-84.27819390000002
"30004","Alpharetta","GA","Webb Bridge Crossing Gym","not_available","30009",34.0748906158162,-84.28282523868936
"30004","Alpharetta","GA","Morris Fitness","not_available","30040",34.20210619786279,-84.22234516455491
"30004","Alpharetta","GA","A Plus Sports Performance Center","160 N Main St Ste A","30009",34.0795314,-84.2948795
"30004","Alpharetta","GA","Jason's Fit Palace","not_available","30004",34.11028151470394,-84.26544960007665
"30004","Alpharetta","GA","Atlanta Fitness","12315 Crabapple Rd","30004",34.08300557066369,-84.35526756584295
"30004","Alpharetta","GA","Kickstart Fitness","12390-b arnold mill rd. Ste 2","30075",34.0833347871405,-84.3590459473846
"30004","Alpharetta","GA","Fieldstone Fitness Center","Elder Field Dr.","30040",34.20781557338445,-84.22182987071616
"30004","Alpharetta","GA","Avalon Bay Fitness Center","18000 Masters Way","30005",34.09369914221097,-84.23374790951476
"30004","Alpharetta","GA","North Park Estates Gym","518 North Park Ln","30004",34.10393142700195,-84.26465606689453
"30005","Alpharetta","GA","Workout Anytime","1485 Peachtree Pkwy","30041",34.124738,-84.16920400000001
"30005","Alpharetta","GA","Life Time Fitness","11555 Johns Creek Pkwy","30097",34.06117829907297,-84.16700298628828
"30005","Alpharetta","GA","The Little Gym of Alpharetta","11585 Jones Bridge Rd Ste 470","30022",34.062866928362155,-84.21310713770953
"30005","Alpharetta","GA","Crossfit PPF","1595 Peachtree Pkwy Ste 104","30041",34.122707206195166,-84.16807125999357
"30005","Alpharetta","GA","Orangetheory Fitness","2615 Peachtree Parkway, Suite 230","30024",34.096414529820656,-84.17432778214699
"30005","Alpharetta","GA","CrossFit Alpharetta","4055 Old Milton Pkwy Ste 10","30005",34.06103262594269,-84.23808159398837
"30005","Alpharetta","GA","Creekstone Clement Gym","2320 S Clement Rd","30041",34.122288,-84.179812
"30005","Alpharetta","GA","Crossfit on the Move","4055 Old Milton Pkwy","30005",34.06011962890625,-84.2429428100586
"30005","Alpharetta","GA","Karstedt Gym","not_available","30041",34.12228248797772,-84.18229481359965
"30005","Alpharetta","GA","KnuckleUp Fitness","5815 Windward Pkwy Ste 100","30005",34.08755500982548,-84.2552713340797
"30005","Alpharetta","GA","LA Fitness","11720 Medlock Bridge Rd Ste 400","30097",34.0662492,-84.1699434
"30005","Alpharetta","GA","Bodyplex Alpharetta","5356 McGinnis Ferry Rd","30005",34.09183670813601,-84.20318329168751
"30005","Alpharetta","GA","Children's Sports Performance","3155 North Point Pkwy Bldg A Ste 200","30005",34.0752367,-84.2611888
"30005","Alpharetta","GA","mckesson fitness ctr","5995 Windward Pkwy Ste 1236","30005",34.08653259277344,-84.2499008178711
"30005","Alpharetta","GA","Ryder Fitness Center","6000 Windward Pkwy","30005",34.091331,-84.24979300000001
"30005","Alpharetta","GA","Addison Place Gym","not_available","30005",34.0641656205911,-84.20812984782775
"30005","Alpharetta","GA","Lifetime Cycle Studio","not_available","30022",34.07950842098463,-84.26134122104031
"30008","Marietta","GA","LA Fitness","3999 Austell Rd Ste 101","30106",33.856591241411834,-84.59842278553027
"30008","Marietta","GA","Orangetheory Fitness","1750 Powder Springs Rd Southwest","30064",33.90442023947377,-84.60645946444892
"30008","Marietta","GA","Gold's Gym","2840 E West Connector Ste 200","30106",33.86723984587846,-84.62534481963796
"30008","Marietta","GA","Gym Of Pride","1119 Travis St SW","30060",33.878814697265625,-84.58679962158203
"30008","Marietta","GA","We Train Atlanta","2222 E West Connector","30106",33.86235046386719,-84.61952209472656
"30008","Marietta","GA","Dab Performance","3045 Austell Rd SW Ste 104","30008",33.8791618347168,-84.58847045898438
"30008","Marietta","GA","Aspire Fitness","1025 East-West Connector","30106",33.85602569580078,-84.58301544189453
"30008","Marietta","GA","Fitness 19 Marietta","1812 Powder Springs Rd SW #1109","30064",33.90053640387697,-84.60674004070484
"30008","Marietta","GA","Dab Performance","3045 Austell Rd SW","30008",33.87915,-84.58847
"30008","Marietta","GA","Fitness Together","1675 Cumberland Pkwy SE","30080",33.8721828460693,-84.5481748580933
"30008","Marietta","GA","V's Fitness","not_available","30064",33.914804187020145,-84.60770900380899
"30008","Marietta","GA","Gym / Fitness","1429 Austell Rd SE","30008",33.917640000000006,-84.549865
"30008","Marietta","GA","Pure Energy Fitness","1115 Powder Springs St Ste I","30064",33.924348678055274,-84.57451433220932
"30008","Marietta","GA","Every Bodies Business","11 Landmark Ct SW","30060",33.880027770996094,-84.55386352539062
"30008","Marietta","GA","American Body Works","2615 E West Connector","30106",33.86332884751832,-84.62234346036676
"30008","Marietta","GA","curves","Powdersprings Rd","30064",33.87109897454962,-84.61849534635236
"30009","Alpharetta","GA","CrossFit North Fulton","700 Hembree Pl","30076",34.059645315718186,-84.31913046723294
"30009","Alpharetta","GA","AMLI @ Milton Park Gym","30000 Mill Creek Ave","30022",34.04933553583003,-84.27881064736418
"30009","Alpharetta","GA","Youfit Health Clubs","935 North Point Dr","30022",34.0518166,-84.282543
"30009","Alpharetta","GA","FITcity Roswell","700 Hembree Pl Ste D","30076",34.05957,-84.3198
"30009","Alpharetta","GA","Amli At Northwinds Fitness Center","32000 Gardner Dr","30009",34.064861247032674,-84.28592259923069
"30009","Alpharetta","GA","Atomic Bodies","3201 jefferson way","30005",34.05045489828587,-84.27897691726685
"30009","Alpharetta","GA","AMLI Northwinds Fitness Center","Gardner Dr","30009",34.06170074159051,-84.28940901328457
"30009","Alpharetta","GA","1165 Sanctuary Gym","1165 Sanctuary Pkwy","30009",34.0452420148667,-84.31178234951078
"30009","Alpharetta","GA","Operation Crossfit","11472 Maxwell Rd Ste C","30009",34.05968155359158,-84.30314243022428
"30009","Alpharetta","GA","Embassy Suites Fitness Center","not_available","30305",34.05051625791457,-84.28240115578116
"30009","Alpharetta","GA","Cox Mansell Gym","3755 Mansell Rd","30022",34.03649317987056,-84.29459594018809
"30011","Auburn","GA","Gym E","not_available","30019",33.99776728190681,-83.90970966995629
"30011","Auburn","GA","Pams Workout World","not_available","30548",34.07561564671931,-83.88244300058425
"30011","Auburn","GA","Crossfit Dacula","360 Franklin Dr","30019",33.987396000000004,-83.889101
"30011","Auburn","GA","Pro Dynamic Nutrition (PDN)","4313 Bond St","30548",34.073699951171875,-83.87532806396484
"30011","Auburn","GA","Body Plex Fitness","3808 Braselton Hwy","30519",34.07065963745117,-83.90106201171875
"30011","Auburn","GA","The Carter Cartel","164-170 Kilcrease Rd","30011",33.968238,-83.819699
"30011","Auburn","GA","Chiico's Gym","not_available","30680",33.96453269211811,-83.81833621004918
"30011","Auburn","GA","Anytime Fitness","1654 Atlanta Hwy","30011",34.00943,-83.85102
"30011","Auburn","GA","Work-out Room","1930 Patrick Rd","30019",34.065358,-83.897149
"30011","Auburn","GA","Gold's Gym","1250 Auburn Rd Ste 300","30019",34.035525042046224,-83.9087645459696
"30011","Auburn","GA","khaos barbell","1340 Duncan Ln","30011",33.96829861384672,-83.82952511536733
"30011","Auburn","GA","Fat Boys Fitness Center","not_available","30011",34.05698013305664,-83.8460693359375
"30011","Auburn","GA","sculpt personal fitness","3685 Braselton Hwy Ste 105","30019",34.0687141418457,-83.90214538574219
"30011","Auburn","GA","Operation Bootcamp","1669 Hamilton Mill Pkwy","30019",34.048149,-83.907146
"30012","Conyers","GA","Be The Change Fitness","not_available","30012",33.66525022583607,-84.02040590767814
"30012","Conyers","GA","siren studios","not_available","30038",33.69236755371094,-84.0879135131836
"30012","Conyers","GA","Mainstreet Gym","1501 Renaissance Dr","30012",33.68009,-83.988219
"30012","Conyers","GA","BodyTech Fitness Center","1343 Business Center Dr SW","30094",33.655037711324134,-84.02307993437161
"30012","Conyers","GA","LA Fitness","1618 Highway 138 SE","30013",33.6657,-83.9925
"30012","Conyers","GA","Be The Change Fitness","1105 West Ave SW Ste A","30012",33.668479919433594,-84.02467346191406
"30012","Conyers","GA","Fit For You, LLC","Conyers","30094",33.66798497150647,-84.01743650458229
"30013","Conyers","GA","Workout Anytime","13015 Brown Bridge Rd, Ste 530","30016",33.576875,-83.965639
"30013","Conyers","GA","Jazzercise, Atl Ga","not_available","30013",33.61538716183013,-83.97505402138243
"30013","Conyers","GA","Home gym","not_available","30016",33.6148596,-83.9233981
"30013","Conyers","GA","Prime Fitness","2202 Salem Rd SE","30013",33.631893157958984,-83.97811889648438
"30013","Conyers","GA","Conyers Fit Body Boot Camp","1820 Highway 20 SE Ste 204-208","30013",33.64225,-84.013861
"30013","Conyers","GA","Vertical Image","3565 GA-20","30013",33.57435278718914,-83.9982455631251
"30013","Conyers","GA","Fit Candy","1413 Iris Drive SE, Conyers, GA 30013","30013",33.6485481262207,-83.99813079833984
"30013","Conyers","GA","Adam's Gym","Sears Rd","30016",33.57604271,-83.94195204
"30014","Covington","GA","Planet Fitness","3173B Hwy 278 NE","30014",33.604349,-83.857662
"30014","Covington","GA","Alcovy Fitness + Wellness","not_available","30014",33.61616741234652,-83.84191789239104
"30014","Covington","GA","CrossFit UnYielding","92 Piper Dr","30014",33.57096193970109,-83.85194778442383
"30014","Covington","GA","Weight Training","not_available","30052",33.75439956594009,-83.87199336782022
"30014","Covington","GA","24/7 Fitness","10160-10176 Carlin Dr","30014",33.570809706182025,-83.8519678095882
"30014","Covington","GA","RIP:60 HQ","39-79 S Links Dr","30014",33.57028663158417,-83.84391188621521
"30014","Covington","GA","MMA Boxing & Kickboxing","4111A","30014",33.603196924902996,-83.86793006980386
"30014","Covington","GA","Gym","not_available","30054",33.68492126464844,-83.87478637695312
"30016","Covington","GA","Ola High School Basketball Gym","not_available","30252",33.445864955099566,-84.04450403340849
"30017","Grayson","GA","Orangetheory Fitness","1250 Scenic Hwy","30045",33.899501967419,-84.00489296613117
"30017","Grayson","GA","Choe's Hapkido Martial Arts Lawrenceville, Snellville & Grayson","1365 Grayson Highway","30045",33.913164,-83.970935
"30017","Grayson","GA","Pure Barre","1350 Scenic Hwy N Ste 808","30078",33.898084999999995,-84.002882
"30017","Grayson","GA","Riff's Gym","grayson manor","not_available",33.86002403290076,-83.9276343088527
"30017","Grayson","GA","Bodyplex","2445 Moon Rd","30017",33.88658,-83.947319
"30017","Grayson","GA","Fit One Personal Training Facility","1845 Grayson Hwy, 600","30017",33.898948,-83.9626392
"30017","Grayson","GA","Crunch Fitness - Snellville","1175 Scenic Highway South","30045",33.9046763,-84.0047613
"30017","Grayson","GA","iLoveKickboxing - Grayson, GA","1365 Grayson Hwy Ste 111","30045",33.91299057006836,-83.97084045410156
"30017","Grayson","GA","Workout Anytime Grayson-Loganville","2715 Loganville Hwy, Ste 710","30052",33.87960307938293,-83.93876885387505
"30017","Grayson","GA","Little Gym Of Snellville","1250 Scenic Hwy Ste 1248","30045",33.89963505151047,-84.00471704792845
"30017","Grayson","GA","Gold's Gym","2135 Main St E","30078",33.85813903808594,-84.00375366210938
"30017","Grayson","GA","Xtreme Fitness & Chiropractic","not_available","30017",33.893835,-83.954829
"30017","Grayson","GA","Fitness 19 Grayson","1121 Grayson Hwy T01","30045",33.92004345209941,-83.9727622854623
"30019","Dacula","GA","Anytime Fitness","2240 Hamilton Creek Parkway Ste 500","30019",34.07462,-83.91027
"30019","Dacula","GA","Xtreme Whitt Fitness","258 Rabbit Hill Rd","30019",33.93281315900078,-83.90876255564498
"30019","Dacula","GA","Orangetheory Fitness","2463 Hamilton Mill Pkwy","30019",34.07377243041992,-83.91568756103516
"30019","Dacula","GA","Bodyplex","not_available","30519",33.9239902935029,-83.83744936125449
"30019","Dacula","GA","Fitness 19","587 Dacula Rd","30019",34.00160598754883,-83.91070556640625
"30019","Dacula","GA","Anytime Fitness","720 Dacula Rd Ste 3A","30019",34.0029,-83.913
"30019","Dacula","GA","Team Octopus Dacula","1342 Auburn Rd","30019",34.037538,-83.91107667
"30021","Clarkston","GA","Lucky's tourture chamber","1485 Harbour Oaks Rd","30084",33.824806213378906,-84.21817779541016
"30022","Alpharetta","GA","Orangetheory Fitness","5270 Peachtree Pkwy Ste 105","30092",33.976831505445226,-84.21625112959164
"30022","Alpharetta","GA","Hard Exercise Works - Roswell","8560 Holcomb Bridge Road","30022",33.9865571,-84.273391
"30022","Alpharetta","GA","Jazzercise Alpharetta Northpoint Fitness Center","10525 Old Alabama Connector Rd","30022",34.03273938868653,-84.29336533627368
"30022","Alpharetta","GA","IMPACT Training LLC","1575 Old Alabama Rd Ste 105","30076",34.02121513406174,-84.3152197605032
"30022","Alpharetta","GA","Anytime Fitness","9945 Jones Bridge Rd","30022",34.02611,-84.25
"30022","Alpharetta","GA","Crunch Fitness - Johns Creek","6000 Medlock Bridge Rd","30022",34.03116266298531,-84.188439317791
"30022","Alpharetta","GA","Falls Of Autry Mill Clubhouse Gym","Old alabama roaf","not_available",34.02145152783536,-84.24243743637697
"30022","Alpharetta","GA","Orangetheory Fitness","8465 Holcomb Bridge Rd","30022",33.988089139095365,-84.27185975317595
"30022","Alpharetta","GA","Fiserv Fitness Center","Fiserv Campus","not_available",33.999982347373006,-84.22596278767368
"30022","Alpharetta","GA","Zumba Dance Party","Saratoga Dr","30022",34.00217575081232,-84.27735767381785
"30022","Alpharetta","GA","Stax Elite Training","9800 Medlock Bridge Rd","30097",34.0203142,-84.19048829999997
"30022","Alpharetta","GA","Anytime Fitness","8465 Holcomb Brg Rd","30022",33.98782,-84.27021
"30024","Suwanee","GA","Anytime Fitness","2615 Peachtree Industrial Blvd","30097",34.02393,-84.1396
"30024","Suwanee","GA","Old Atlanta Recreational Center","810 Nichols Rd, Suwanee, GA 30024","30024",34.10761091438662,-84.1425688802018
"30024","Suwanee","GA","LA Fitness","6025 Cumming Hwy","30518",34.12252611772583,-84.07818576133862
"30024","Suwanee","GA","LA Fitness","3455 Peachtree Industrial Blvd","30096",34.006436420946535,-84.17201523229406
"30024","Suwanee","GA","Orangetheory Fitness","5885 Cumming Hwy","30518",34.11822219587416,-84.07493993639946
"30024","Suwanee","GA","Georgia Fitness of North Gwinnett","245 Peachtree Industrial Blvd Ste 100","30518",34.069643057541455,-84.06822562445814
"30024","Suwanee","GA","Amli @ Mcginnis Ferry: Health Club","not_available","30024",34.04886763402991,-84.0848990057798
"30024","Suwanee","GA","Sugar Hill Jazzercise","4536 Georgia Highway 20","30518",34.09965189727769,-84.02139902114868
"30024","Suwanee","GA","New Gym","20 Level Creek Rd","30024",34.08641815185547,-84.07019805908203
"30024","Suwanee","GA","Body Construction","2785 Buford Hwy","30096",34.007358,-84.134099
"30024","Suwanee","GA","Turnedup Fitness","1175 Buford Hwy 117","30024",34.036242,-84.086724
"30024","Suwanee","GA","Lil' Kickers","2850 Old Atlanta Rd","30041",34.116790771484375,-84.15577697753906
"30024","Suwanee","GA","Prestige Jags Cheer & Tumble","300 Brogdon Rd","30024",34.06384785,-84.06486953
"30024","Suwanee","GA","Joe's Gym","1516 Old Peachtree Rd","30097",34.01227458333334,-84.095372
"30024","Suwanee","GA","Zumba Fitness by Choes","3020 Old Atlanta Rd","30041",34.113853454589844,-84.15515899658203
"30024","Suwanee","GA","Anytime Fitness in Buford","1328 Buford Hwy","30518",34.090954,-84.0191838
"30024","Suwanee","GA","elements Suwanee","1300 Peachtree Industrial Blvd Ste 2203","30024",34.0419807434082,-84.0949478149414
"30025","Social Circle","GA","Wyldlife Gym","not_available","30663",33.62257373855976,-83.60694291268909
"30028","Cumming","GA","Central Park","2300 Keith Bridge Rd","30040",34.24542589972708,-84.1026654743282
"30028","Cumming","GA","TNT Cheer","Keith Bridge Road","not_available",34.251848910297035,-84.05720486348078
"30028","Cumming","GA","Action Cheer and Tumble","5335 Lake Pointe Center Dr","30041",34.251548767089844,-84.05728912353516
"30028","Cumming","GA","Anytime Fitness","3545 Rowe Lane","30041",34.2594,-84.06906
"30028","Cumming","GA","Workout Anytime","2655 Freedom Pkwy, Ste 2627","30041",34.249968,-84.091654
"30028","Cumming","GA","The Gym","1 Cunningham Pt","30040",34.23442077636719,-84.16123962402344
"30028","Cumming","GA","Bounce Athletic Club","6120 GA 400N Suite A","30028",34.31570281138781,-84.06281900880315
"30028","Cumming","GA","Church Of The Good Shepherd Gym","Holtzclaw Rd","30041",34.25254765535832,-84.07035703652637
"30030","Decatur","GA","LA Fitness","1496 Church St","30030",33.79151382077446,-84.28664396380577
"30030","Decatur","GA","Fitwit Oakhurst","630 E Lake Dr","30030",33.760280154640995,-84.30833156118706
"30030","Decatur","GA","Intown Stars Gymnastics","2935 N Decatur Rd Ste B","30033",33.79327271824599,-84.27191540555725
"30030","Decatur","GA","DeKalb Medical Wellness Center","2665 North Decatur Rd","30033",33.791547535780175,-84.28330770216229
"30030","Decatur","GA","CrossFit Decatur","701 Church St","30030",33.778577933392306,-84.29438194350564
"30030","Decatur","GA","Coutyard at Marriott Gym","not_available","30339",33.776805136517204,-84.29648567623576
"30030","Decatur","GA","Snap Fitness","137 S McDonough St","30030",33.76830440247676,-84.29674731336358
"30030","Decatur","GA","Pure Barre","415 Church St","30030",33.7748304,-84.2947603
"30030","Decatur","GA","The Sweatbox","731 E College Ave Ste B","30030",33.77394946435397,-84.28362215302819
"30030","Decatur","GA","Orangetheory Fitness","319 W Ponce de Leon Ave","30030",33.77566335070964,-84.3004516519506
"30030","Decatur","GA","Fitness Center at Courtyard by Marriott Atlanta","130 Clairemont Ave","30030",33.776769,-84.297324
"30030","Decatur","GA","Talley Street Lofts Fitness Center","2630 Talley St","30030",33.77064514160156,-84.28251647949219
"30030","Decatur","GA","Intown Stars Gymnastics- Decatur","2935 N Decatur Rd","30033",33.79304885864258,-84.27161407470703
"30030","Decatur","GA","Pinnacle Fitness Center, Decatur","141 Sams St Ste B1","30030",33.77264,-84.28312
"30030","Decatur","GA","Decatur Boxing Club","137 New St","30030",33.77189782726876,-84.28514328938789
"30030","Decatur","GA","Druid Hills Golf Club Fitness Center","Ponce de leon","30306",33.78270330646318,-84.31814566351761
"30030","Decatur","GA","E L Smitness","Sycamore Dr","30030",33.77840655097179,-84.28231375963828
"30030","Decatur","GA","COREBODY Decatur","533 W Howard Ave","30030",33.76808290935195,-84.30410056132686
"30030","Decatur","GA","Clarity Fitness","1 W Court Sq Ste 100","30030",33.775127989122794,-84.29710007957792
"30030","Decatur","GA","FitWit Headquarters","138 New St","30030",33.77212905883789,-84.28411102294922
"30032","Decatur","GA","Atlanta Sports Complex","2581 Gresham Rd SE, Atlanta GA 30316","30316",33.71272187147416,-84.31173800620111
"30032","Decatur","GA","The Workout Room","AJ Joint","30032",33.7363897400373,-84.28504868384431
"30032","Decatur","GA","Ians Rec Center","kelly lake","30034",33.7169049462095,-84.2810062119189
"30033","Decatur","GA","LA Fitness","2880 N Druid Hills Rd NE","30329",33.81804083906394,-84.3108689385189
"30033","Decatur","GA","Workout Anytime Decatur","2836 Lavista Rd","30033",33.82544994099179,-84.29032559251823
"30033","Decatur","GA","Camden Gym","not_available","30329",33.838181757818354,-84.31513665250307
"30033","Decatur","GA","2924 Clairmont","2924 Clairmont Rd NE","30329",33.84164588559373,-84.31761749039251
"30033","Decatur","GA","Down Under","Council Bluff","30345",33.83055530129123,-84.30540756927094
"30033","Decatur","GA","Dekalb gym","not_available","30033",33.80044855212286,-84.26351546064973
"30033","Decatur","GA","Ladies workout express","2865 north druid hills road","30329",33.816322326660156,-84.3113784790039
"30033","Decatur","GA","The Rack Athletic Performance Center","1824 Briarwood Industrial Ct NE","30329",33.840916,-84.321275
"30033","Decatur","GA","Ladies Workout Express","2865 N Druid Hills Rd NE","30329",33.81683494695699,-84.31246527268948
"30033","Decatur","GA","Pure Barre Druid Hills","2951 N Druid Hills Rd NE","30329",33.81418167746522,-84.31167314064373
"30033","Decatur","GA","RC & GET PULSED FITNEZ","2050 Lawrenceville Hwy","30033",33.808583345518336,-84.27894633972022
"30033","Decatur","GA","Clairmont Fitness Center","1575 Clairmont Rd","30033",33.8008962132502,-84.30820842254919
"30034","Decatur","GA","Ladies Only Total Fitness","4816 Flat Shoals Pkwy","30034",33.68230056762695,-84.23120880126953
"30034","Decatur","GA","Planet Fitness","2460 Wesley Chapel Rd","30035",33.715645984280876,-84.21235360680515
"30034","Decatur","GA","Beulah Community Family Life Center","2340 Clifton Springs Rd, Decatur, GA 30034","30034",33.69778129781872,-84.29434040649637
"30034","Decatur","GA","Hope Fitness Center","not_available","30034",33.68442028989363,-84.23801308722933
"30034","Decatur","GA","Anytime Fitness","4760 Flat Shoals Pkwy.","30034",33.68116,-84.2268
"30034","Decatur","GA","Build A Beast HQ(Cardio Level)","River rd.","30032",33.67420345743757,-84.28271173893985
"30034","Decatur","GA","Total Body","not_available","30035",33.715635,-84.212019
"30034","Decatur","GA","The Dungeon","4073 Kingship Dr","30294",33.660359,-84.22609399999999
"30034","Decatur","GA","Get in Shape Boot Camp - Hope Fitness","4650 Flat Shoals Pkwy","30034",33.686073303222656,-84.23401641845703
"30034","Decatur","GA","Holmes' Gym","3877 Leprechaun Ct","30034",33.70885798069287,-84.23418809585266
"30035","Decatur","GA","LA Fitness","6088 Covington Hwy","30035",33.72463426095918,-84.16880844342954
"30035","Decatur","GA","Taddas Fitness Camp","2615 Park Central Blvd","30035",33.7104061643355,-84.1737819460387
"30035","Decatur","GA","Latik Fitness Studio","4018 Emerald Lake Dr","30035",33.71990203857422,-84.22513580322266
"30035","Decatur","GA","Ladies Only Total Fitness","6132 Covington Hwy","30058",33.724151611328125,-84.16636657714844
"30038","Lithonia","GA","Before & After Fitness Center","8052 Mall Pkwy #203","30038",33.694427490234375,-84.09644317626953
"30038","Lithonia","GA","Wesley Kensington Gym","100 Kensington Cir","30038",33.680674107119295,-84.0998035958206
"30038","Lithonia","GA","THESUPERTRAINER/BODY BEAUTIFUL PERSONAL TRAINING, LLC","5711 Hunters Chase Ct","30038",33.684327,-84.15693399999999
"30038","Lithonia","GA","Pro Fit","7342 Stonecrest Concourse","30038",33.695945739746094,-84.09192657470703
"30039","Snellville","GA","Crossfit Iconz","2073 Westside Ct Ste A","30078",33.847078299176815,-84.05237166554677
"30039","Snellville","GA","Workout Anytime","3035 Scenic Hwy S, Ste 1","30039",33.82403817866149,-84.03257822215093
"30039","Snellville","GA","Fitness 19","3555 Centerville Hwy Ste 104","30039",33.80197761945104,-84.04370504606642
"30039","Snellville","GA","The Bodymill","Casa Hardison","not_available",33.79020309448242,-84.02130889892578
"30040","Cumming","GA","LA Fitness","540 Lakeland Plz","30040",34.18513725643256,-84.14402305921321
"30040","Cumming","GA","Fowler Park Recreation Center","4110 Carolene Way","30040",34.147435976010435,-84.2105026285358
"30040","Cumming","GA","Planet Fitness","131 Merchants Sq","30040",34.187196,-84.146379
"30040","Cumming","GA","Cinema Room","Windermere Pkwy","30041",34.132677,-84.123098
"30040","Cumming","GA","PPF Crossfit","1240 Oak Industrial Ln Ste B","30041",34.158198999999996,-84.15491999999999
"30040","Cumming","GA","Anytime Fitness","515 Sawnee Corners Blvd Suite 400","30040",34.21748,-84.15247
"30040","Cumming","GA","Century Windermere Gym","3100 Preston Pointe Way","30041",34.131080627441406,-84.1109390258789
"30040","Cumming","GA","Atlanta Fitness","3775 Windermere Pkwy","30041",34.1332452,-84.1229049
"30040","Cumming","GA","Xtreme Sports Training","390 Winkler Dr","30004",34.137521,-84.238338
"30040","Cumming","GA","The dungeon","Weybridge Drive","30040",34.181908919208105,-84.25015087833413
"30040","Cumming","GA","Jeb's Gym","Bentwood Dr","not_available",34.13529,-84.097673
"30040","Cumming","GA","American Body Works","5456 Bethelview Rd","30040",34.17240905761719,-84.1889419555664
"30040","Cumming","GA","Twisters Cheer Academy","1180 Samples Industrial Dr","30041",34.161332845687866,-84.15551916666666
"30043","Lawrenceville","GA","Life Time Fitness","1823 N Brown Rd","30043",33.984247,-84.081498
"30043","Lawrenceville","GA","Gold's Gym","860 Duluth Hwy Ste 1100","30043",33.965242869332485,-84.02144009090307
"30043","Lawrenceville","GA","Anytime Fitness","1475 Buford Dr Ste 400","30043",34.00458,-83.98661
"30043","Lawrenceville","GA","Bodyetch Fitness","629 Airport Rd Ste K","30046",33.980985,-83.971447
"30043","Lawrenceville","GA","Insanity Workout Zone","Sweat St","30519",34.03879292725095,-83.96112658508493
"30043","Lawrenceville","GA","5375 Sugarloaf Gym","5375 Sugarloaf Pkwy","30043",33.96831512451172,-84.06514739990234
"30043","Lawrenceville","GA","Jackson Township Training","not_available","30043",33.96919884,-84.04735637
"30043","Lawrenceville","GA","Youfit Health Clubs","2855 Lawrenceville Suwanee Rd #500","30024",34.02618135466137,-84.04312759637838
"30043","Lawrenceville","GA","Gym @ Suwanee Station","1525 Station Center Blvd","30024",34.039699,-84.091265
"30043","Lawrenceville","GA","Fitness Builders 4 Life LLC","1200 River Overlook Dr","30043",33.97223022538161,-84.02461582613321
"30043","Lawrenceville","GA","Gym","1555 Old Peachtree Rd NW","30024",34.012672424316406,-84.09073638916016
"30043","Lawrenceville","GA","Century Riverside Fitness Center","1000 Duluth Hwy","30043",33.966373443603516,-84.03060913085938
"30043","Lawrenceville","GA","Amli @ Mcginnis Gym","4021 McGinnis Ferry Rd","30024",34.047031,-84.084998
"30043","Lawrenceville","GA","The Gym","500 Tree Creek Pkwy","30043",33.974571502608,-84.00901946501513
"30043","Lawrenceville","GA","C3 Fitness","1065 Walther Blvd","30043",33.973827820142446,-84.01639321206451
"30043","Lawrenceville","GA","Leavitt Group Fitness Room","2397 Huntcrest Way","30043",33.999683000000005,-84.06524399999999
"30043","Lawrenceville","GA","The Factory Training Facility","2505 Newpoint Pkwy","30043",33.971318789189894,-84.08690982991575
"30044","Lawrenceville","GA","LA Fitness","1625 Pleasant Hill Rd Ste 245","30096",33.94469541172844,-84.12619015539734
"30044","Lawrenceville","GA","Anytime Fitness","3153 Sugarloaf Pkwy #106","30045",33.92138,-84.0086
"30044","Lawrenceville","GA","Fit In Personal Training","4281 Wayside Ct SW","30047",33.890645,-84.115587
"30044","Lawrenceville","GA","JG Crossfit","not_available","30045",33.95232391357422,-84.04820251464844
"30044","Lawrenceville","GA","Marriott Residence Inn -Fitness Center","1760 Pineland Rd","30096",33.946458942064396,-84.13279202807412
"30044","Lawrenceville","GA","Trualliance Fitness","3555 Gwinnett Place Dr Ste 104","30096",33.956695556640625,-84.13096618652344
"30044","Lawrenceville","GA","Run Hard Play Hard Sports Performance","4281 Wayside Ct SW, Lilburn, GA 30047","30047",33.890724182128906,-84.11572265625
"30044","Lawrenceville","GA","Fitness 19","Five forks trickum road","not_available",33.901356383714365,-84.02245059355168
"30044","Lawrenceville","GA","The Torture Chamber","Casteel Ct.","30047",33.920098011074984,-84.11913796901874
"30044","Lawrenceville","GA","Kim's Gym","not_available","30044",33.95133393458224,-84.05195661119095
"30044","Lawrenceville","GA","Trap","not_available","30096",33.940067291259766,-84.1322250366211
"30044","Lawrenceville","GA","Athletes Elite Performance","not_available","30047",33.890620883973966,-84.11538500825071
"30044","Lawrenceville","GA","Home Gym","Twilight View","30044",33.89188999124661,-84.0402560665066
"30044","Lawrenceville","GA","Century Sugarloaf Fitness Center","1595 Old Norcross Rd","30046",33.954377008624945,-84.04724982670949
"30044","Lawrenceville","GA","Choe's HapKiDo Martial Arts, Karate, Kickboxing Duluth GA","1630 Pleasant Hill Road, Suite 210","30096",33.947612,-84.123201
"30044","Lawrenceville","GA","Crossfit Hyperformance","not_available","30078",33.88056564331055,-84.04723358154297
"30044","Lawrenceville","GA","Recreation ATL","754 Beaver Ruin Rd NW","30047",33.91197243546894,-84.13186433060504
"30044","Lawrenceville","GA","140 MGM Personal Training Studio","2486 Lawrenceville Hwy Ste 140","30044",33.92506408691406,-84.06487274169922
"30044","Lawrenceville","GA","Knockout Crossfit","3315 Sugarloaf Pkwy Ste 7","30044",33.921407075095985,-84.01321164788853
"30044","Lawrenceville","GA","Fit Body Boot Camp","Sugarloaf Parkway","30044",33.92577464753028,-84.01838180732598
"30044","Lawrenceville","GA","Just Fitness 4 U Express","3130 Sugarloaf Pkwy","30045",33.919980541395134,-84.00719984954095
"30044","Lawrenceville","GA","Brand Fitness Center","1255 Lakes Pkwy","30043",33.962871,-84.040814
"30045","Lawrenceville","GA","LA Fitness","600 Gwinnett Dr","30045",33.9409448,-83.9848775
"30045","Lawrenceville","GA","Ten Oaks Fitness Center","405 Philip Blvd","30046",33.969848999999996,-84.009156
"30045","Lawrenceville","GA","Just Fitness 4 U","1575 hwy 39","30044",33.927952,-84.001178
"30046","Lawrenceville","GA","Fit Body Boot Camp Sugarloaf","3370 Sugarloaf Pkwy","30044",33.9211801,-84.01774639999996
"30046","Lawrenceville","GA","Burn Boot Camp","798 Lawrenceville Suwanee Rd","30043",33.9663934,-84.0242603
"30047","Lilburn","GA","LA Fitness","5295 Stone Mountain Hwy","30087",33.82450783432329,-84.11463503522789
"30047","Lilburn","GA","Snap Fitness","375 Rockbridge Rd NW Ste 148","30047",33.883520416263316,-84.16366752891861
"30047","Lilburn","GA","Mountain Park Fitness","5385 Five Forks Trickum Rd","30087",33.84231997034949,-84.13038704431001
"30047","Lilburn","GA","Orangetheory Fitness","1227 Rockbridge Rd","30087",33.84040066046865,-84.13242095080443
"30047","Lilburn","GA","Fitness 19 Lilburn","4045 Five Forks Trickum Rd SW","30047",33.870329835021685,-84.09161702082828
"30047","Lilburn","GA","Gym at home","1405","30093",33.921397266970686,-84.14541244480908
"30047","Lilburn","GA","Termei Family Gym","86 Bailey Dr SW","30047",33.877691,-84.140411
"30047","Lilburn","GA","GIS Crossfit","1813 Pounds Rd","30087",33.82720947265625,-84.1221923828125
"30047","Lilburn","GA","Wholly Fit","5345 Five Forks Trickum Rd SW","30047",33.843113,-84.12952800000001
"30047","Lilburn","GA","Fit4U","2133 Lavista Executive Park Drive","30084",33.84663786876579,-84.11042022403753
"30047","Lilburn","GA","D Renards","not_available","30083",33.805583,-84.170399
"30047","Lilburn","GA","Action Fitness","4915 Lawrenceville Hwy NW","30047",33.891876220703125,-84.14260864257812
"30047","Lilburn","GA","Mountain park fitness","not_available","30087",33.82264849516516,-84.13207048683537
"30047","Lilburn","GA","Burn Boot Camp","1825 Rockbridge Rd","30087",33.82458,-84.12603
"30047","Lilburn","GA","Yay 4 Fitness","754 Beaver Ruin Road","30047",33.91194576,-84.13122541
"30052","Loganville","GA","Body By George","3540 Hwy. #78","30052",33.84048564737233,-83.90303636600159
"30052","Loganville","GA","Anytime Fitness","4060 Atlanta Hwy Ste 1232","30052",33.8471,-83.91106
"30052","Loganville","GA","Loganville Family Fitness","214 Jimnet Ln","30052",33.84602355957031,-83.91470336914062
"30052","Loganville","GA","Georgia Strike Zone Baseball & Softball Academy","2329 US-78 B","30052",33.82849,-83.8269399
"30052","Loganville","GA","Snap Fitness","4743 Atlanta Hwy","30052",33.83211056986997,-83.88501810743168
"30052","Loganville","GA","Simmons Fitness Center","not_available","30655",33.76542597674327,-83.80657013041288
"30052","Loganville","GA","Choe's HapKiDo Karate & Kickboxing","1004 Karlee Blvd, Suite 1","30052",33.794876,-83.863852
"30052","Loganville","GA","Gold's Gym","1090 Regency Plaza Blvd","30253",33.85547998321802,-83.97715190465671
"30052","Loganville","GA","Barn","Loganville Christian Academy","not_available",33.798379783606464,-83.86298128277679
"30055","Mansfield","GA","Slayer Dungeon","Founders Grove","not_available",33.437562,-83.670449
"30058","Lithonia","GA","Lucious Sanders Recreation Center","2484 Bruce St","30058",33.71418762207031,-84.09832763671875
"30058","Lithonia","GA","LA Fitness","6746 Covington Hwy Ste 103","30058",33.717674255371094,-84.14288330078125
"30060","Marietta","GA","Planet Fitness","3315 S Cobb Dr SE","30080",33.87358053235258,-84.52868746314107
"30060","Marietta","GA","Planet Fitness","1355 Roswell Rd, Ste 210","30062",33.952203999999995,-84.512293
"30060","Marietta","GA","Workout Anytime","800 Whitlock Ave NW","30064",33.95285587282344,-84.57771414675284
"30060","Marietta","GA","Giving Tree Yoga","1295 W Spring St SE Ste 120","30080",33.8844139,-84.5163419
"30060","Marietta","GA","Karma Fitness Studio","not_available","30080",33.884341382637515,-84.51596444491604
"30060","Marietta","GA","Workout Anytime Eastlake - Marietta","2211 Roswell Rd","30062",33.97034168110731,-84.49020549699833
"30060","Marietta","GA","Globo Gym","not_available","30060",33.936289,-84.539928
"30060","Marietta","GA","Woodpointe Fitness Center","1001 Burnt Hickory Rd NW","30064",33.95524215698242,-84.58390808105469
"30060","Marietta","GA","BAM Fitness and Nutrition","1775 Hawthorne Avenue SE","30080",33.949143,-84.49441999999999
"30060","Marietta","GA","Streamline Fitness","not_available","30067",33.938822378127554,-84.51193702309362
"30060","Marietta","GA","Step It Up Fitness Gym","Smyrna","30101",33.88744664256117,-84.52577463744628
"30060","Marietta","GA","Gym @ Aventine at Vinings","3385 Atlanta Rd SE","30080",33.87065887451172,-84.49169158935547
"30060","Marietta","GA","The Body Bar Group Fitness Studio","3246 Atlanta Rd SE Ste G","30080",33.874220819159824,-84.50175178591383
"30060","Marietta","GA","Pinnacle Fitness Center, Smyrna","1185 Concord Rd, Suite A","30080",33.877529,-84.5185957
"30060","Marietta","GA","IronHouse Fitness","2652 S Cobb Dr SE Ste G","30080",33.888587951660156,-84.53712463378906
"30060","Marietta","GA","Parkway Place Gym","1802 Parkway Pl","30067",33.938428356097994,-84.50310526681186
"30060","Marietta","GA","Marietta Mill Lofts Gym","319 Atlanta St SE","30060",33.947269,-84.547077
"30062","Marietta","GA","LA Fitness","1185 Ernest W Barrett Pkwy NW","30144",34.00008173264998,-84.58389013631236
"30062","Marietta","GA","LA Fitness","2550 Sandy Plains Rd","30066",34.01152405838652,-84.49365624011763
"30062","Marietta","GA","X3 Sports - North Marietta","700 Sandy Plains Rd Ste A13","30066",33.99637985229492,-84.52875518798828
"30062","Marietta","GA","LA Fitness","4400 Roswell Rd Ste 126","30062",33.98529862212838,-84.42280020378182
"30062","Marietta","GA","Workout Anytime","2465 Chastain Meadows Pkwy, Ste 105","30066",34.0149361440925,-84.55500116480565
"30062","Marietta","GA","Walton High School Gym","1590 Bill Murdock Rd","30062",33.99000930786133,-84.43987274169922
"30062","Marietta","GA","Student Recreation Center","1000 Chastain Rd NW","30144",34.03760290393649,-84.58198617328917
"30062","Marietta","GA","Women's Premier Fitness","4961 Lower Roswell Rd Ste A","30068",33.966220187381694,-84.40661720062027
"30062","Marietta","GA","Insanity Time!","not_available","30066",33.995255,-84.542947
"30062","Marietta","GA","Poplar Place Gym","3900 George Busbee Pkwy NW","30144",34.04644775390625,-84.57682037353516
"30062","Marietta","GA","Minister Of Muscle LLC","2986 Johnson Ferry Rd #128(Backside of building)","30062",34.0216064453125,-84.42631530761719
"30062","Marietta","GA","Life Quest Fitness","2911 George Busbee Pkwy NW Ste 50","30144",34.02435045682382,-84.56915312579834
"30062","Marietta","GA","Personal Training by Marius Voster","not_available","30068",33.966264,-84.405043
"30062","Marietta","GA","barre3 East Cobb","4475 Roswell Rd","30062",33.950131539988085,-84.41186268152397
"30062","Marietta","GA","Owls Nest","3220 Busbee Dr NW","30144",34.029884435471516,-84.56993585189748
"30062","Marietta","GA","TownPark Fitness Center","not_available","30144",34.04012490882947,-84.5671681259942
"30062","Marietta","GA","Milstead Gym","3355 George Busbee Pkwy NW","30144",34.033004999999996,-84.57051899999999
"30062","Marietta","GA","Home Gym","3339 Keenland Rd","30062",34.036768,-84.453683
"30062","Marietta","GA","Compound Fitness","3822 Roswell Rd Ste 101","30062",33.9774937,-84.440364
"30062","Marietta","GA","The Mill at Chastain Gym","3350 George Busbee Pkwy NW","30144",34.035404205322266,-84.56876373291016
"30064","Marietta","GA","Sessions Loft Gym","445 N Sessions St NW","30060",33.96218490600586,-84.5542221069336
"30064","Marietta","GA","Pure Barre","3600 Dallas Hwy SW Ste 310","30064",33.95516560421602,-84.65665235714721
"30064","Marietta","GA","City Fit","800 Whitlock Ave NW #109","30064",33.95289774038811,-84.57753485304656
"30064","Marietta","GA","The Brumby Gym","111 N Marietta Pkwy NE","30060",33.95882034301758,-84.55142974853516
"30064","Marietta","GA","Burn Boot Camp Marietta, GA","1000 Whitlock Ave Suite 150 & 160","30064",33.9533347,-84.5813353
"30066","Marietta","GA","Arylessence Exercise Room","1091 Lake Dr","30066",34.06723403930664,-84.51866912841797
"30066","Marietta","GA","Baseball Performance","838 Jamerson Rd","30066",34.067745208740234,-84.52546119689941
"30066","Marietta","GA","Fit & Fabulous Body Wraps","2501 E Piedmont Rd #142","30062",34.01126480102539,-84.49121856689453
"30066","Marietta","GA","Studio two LTF MB","not_available","30188",34.07276062336249,-84.42869591600211
"30066","Marietta","GA","Embassy Suites Fitness Center","620 Chastain Rd NW","30144",34.038073196302435,-84.56933729759523
"30066","Marietta","GA","Alta At Glenridge Springs Gym","not_available","30062",33.97833,-84.47656
"30066","Marietta","GA","Shiloh Valley Overlook","2100 Shiloh Valley Dr NW","30144",34.0026219,-84.5660926
"30066","Marietta","GA","Atlanta Extreme Warrior","3154 Johnson Ferry Rd Ste 100","30062",34.026193,-84.42381775
"30066","Marietta","GA","Cosmos Fitness - Marietta","2765 Sandy Plains Rd","30066",34.0174143,-84.49278165
"30066","Marietta","GA","One To One Health Centers","700 Sandy Plains Rd","30066",33.996362,-84.52880400000001
"30066","Marietta","GA","Ultimate Karate and Fitness","2745 Sandy Plains Rd","30066",34.0175655314669,-84.49265093452908
"30066","Marietta","GA","SwingAway Training Center","1395 Cobb Pkwy N Ste I","30062",33.98472595214844,-84.56825256347656
"30066","Marietta","GA","TD Athletics","1470 Williams Dr Ste A","30066",33.99670283777567,-84.53433928387821
"30066","Marietta","GA","Z's Gym","Get Swole","30066",34.05887554601561,-84.46069813264431
"30066","Marietta","GA","Cobb Atlanta Volleyball & Fitness","1880 W Oak Pkwy Ste 218","30062",33.992514,-84.522302
"30067","Marietta","GA","Windy Hill Athletic Club","135 Interstate North  Parkway NW","30339",33.90327761041239,-84.4669077124323
"30067","Marietta","GA","LA Fitness","1453 Terrell Mill Rd SE Ste 145","30067",33.91620195892601,-84.4677614833816
"30067","Marietta","GA","5660 Northside Gym","not_available","30328",33.91022822535722,-84.43152059275187
"30067","Marietta","GA","Barrington Mill Gym","1560 Terrell Mill Rd SE","30067",33.91249084472656,-84.47367858886719
"30067","Marietta","GA","The Villas of East Cobb","1049 Powers Ferry Rd","30067",33.92545678,-84.4684886
"30067","Marietta","GA","Wildwood Athletic Club","2300 Windy Ridge Plwy","30339",33.906529643419006,-84.45956550108988
"30067","Marietta","GA","X3 Sports - Marietta","2343 Windy Hill Rd SE","30067",33.90425982427382,-84.48606491088867
"30067","Marietta","GA","Village Fitness","1275 Powers Ferry Rd SE","30067",33.92019361112556,-84.46602860540021
"30067","Marietta","GA","aFit Bodywork","1360 Powers Ferry Rd SE Ste C400","30067",33.91856002807617,-84.46858978271484
"30067","Marietta","GA","Parkwood Place Gym","1250 Parkwood Cir SE","30339",33.902727,-84.460973
"30067","Marietta","GA","Flats at Riverwalk Gym","Atlanta Ga","30339",33.907016485854705,-84.46173525980626
"30067","Marietta","GA","Fitness Together","5575 New Northside Dr #150","30339",33.907487805819194,-84.42903414908793
"30068","Marietta","GA","Iron Clutch Fitness","1570 holcomb bridge rd suite 410","30076",33.97755885,-84.39137676
"30068","Marietta","GA","Legends Elite","4696 Johnson Ferry Road, Suite 650","30067",33.96440912487704,-84.41475062675364
"30068","Marietta","GA","Silver Creek Fitness Center","910-1014 Summit Forest Dr","30068",33.952328034663076,-84.4879649146093
"30068","Marietta","GA","CrossFit East Cobb","4696 Lower Roswell Rd Ste 700","30068",33.96441733606664,-84.41481217990693
"30068","Marietta","GA","Coffee's Gym","1800 Lower Roswell Rd, Marietta, GA 30068","30068",33.950928000000005,-84.498974
"30068","Marietta","GA","Lipscomb Gym @ Wheeler High School","375 Holt Rd NE","30068",33.95903015136719,-84.48006439208984
"30068","Marietta","GA","Fitness Together - East Cobb","1000 Johnson Ferry Rd","30068",33.97205607311119,-84.4127403435339
"30068","Marietta","GA","Curves","2211 Roswell Rd","30328",33.970706939697266,-84.48966217041016
"30068","Marietta","GA","Life Quest Fitness","4930 Davidson Rd NE","30068",33.96485562095942,-84.40778994031284
"30068","Marietta","GA","Gym","4226 Kessler Ridge Dr","30062",33.995684000000004,-84.426538
"30068","Marietta","GA","Anytime Fitness","4880 Lower Roswell Rd Ste 520","30068",33.963685999999996,-84.40811500000001
"30071","Norcross","GA","LA Fitness","6131 Peachtree Pkwy","30092",33.95168706596564,-84.23633120172845
"30071","Norcross","GA","Home Gym","Jimmy Carter Blvd.","30092",33.946165051160484,-84.24275124401376
"30071","Norcross","GA","Hilton gym","5993 Peachtree Industrial Blvd","30092",33.9527473449707,-84.22969055175781
"30071","Norcross","GA","Oakbrook North Fitness Center","not_available","30093",33.919603,-84.185682
"30071","Norcross","GA","Waykins fitness center","not_available","30071",33.91964340209961,-84.21766662597656
"30071","Norcross","GA","The Gym","Ashley Club Circle","30092",33.94859642663072,-84.25889724475566
"30071","Norcross","GA","Fitness Tri","4870 Peachtree Industrial Blvd","30071",33.9682519961014,-84.19376258051678
"30071","Norcross","GA","Fitness Together - Norcross","4790 Peachtree Industrial Blvd Ste 108","30071",33.969252000000004,-84.191024
"30071","Norcross","GA","Golds Gym Roswell","holcomb bridge rd.","30076",33.96798617353481,-84.25862466624358
"30071","Norcross","GA","American Bodyworks","Norcross, Georgia","30092",33.953972,-84.220835
"30071","Norcross","GA","LA Fitness","5050 Jimmy Carter Blvd","30093",33.91398703626946,-84.19967654921427
"30071","Norcross","GA","The Gym","3100 River Exchange Dr","30092",33.96921157836914,-84.26399993896484
"30071","Norcross","GA","Youfit Health Clubs","6000 Singleton Rd Ste 321","30093",33.90504120116938,-84.19811636209482
"30071","Norcross","GA","Parkside Vista Gym","2305 Global Forum Blvd","30340",33.91632042617358,-84.25135568017015
"30071","Norcross","GA","Golightly Fit","2685 Langford Rd #900","30071",33.951623,-84.20070600000001
"30071","Norcross","GA","The Dungeon (Gym in the basement of Waterford)","5555 Triangle Pkwy","30092",33.972354888916016,-84.2232666015625
"30071","Norcross","GA","Curves Again LLC","2730 N Berkeley Lake Rd NW","30096",33.973978,-84.159944
"30071","Norcross","GA","Curves","not_available","30092",33.976538,-84.22291856666668
"30071","Norcross","GA","tipping point crossfit","6191 Atlantic Blvd","30071",33.942370000000004,-84.231841
"30071","Norcross","GA","Extreme Performance Training Systems / ECF Gym","6689 Peachtree Industrial Blvd","30092",33.93938064575195,-84.25149536132812
"30075","Roswell","GA","LA Fitness","1045 Woodstock Rd","30075",34.06316862771818,-84.39180628156677
"30075","Roswell","GA","Reserve of Dunwoody Fitness Center","not_available","30350",33.999875832062635,-84.33862671809392
"30075","Roswell","GA","Anytime Fitness","9420 Willeo Rd","30075",34.01106,-84.37505
"30075","Roswell","GA","Waller Park Gym","250 Oak Street","not_available",34.02013391137751,-84.3536360319512
"30075","Roswell","GA","Sports Fitness Experience","925 Woodstock Rd Ste 102","30075",34.0626073,-84.3884128
"30075","Roswell","GA","The Gym","1500 Huntcliff Village Ct","30350",33.99879455566406,-84.35311889648438
"30075","Roswell","GA","Hydromassage @ Planet Fitness","not_available","30076",34.042568,-84.341698
"30075","Roswell","GA","A Step Ahead PT","930 Woodstock Rd Ste 310","30075",34.061180114746094,-84.38970184326172
"30075","Roswell","GA","River Ridge Gym","9040 Roswell Rd, Atlanta, GA 30350","30350",34.00103759765625,-84.35136413574219
"30075","Roswell","GA","Just Fitness 4U","5000 Commerce Pkwy","30076",34.0386608339822,-84.34026510154196
"30075","Roswell","GA","THE MAX Challenge of Roswell","10779 Alpharetta Hwy, 200","30076",34.0423284,-84.3396397
"30075","Roswell","GA","Fit2DMax - Roswell GA Personal Training","408 S Atlanta St #155","30075",34.00939178466797,-84.3615951538086
"30075","Roswell","GA","Gym @ The Lodge","9401 Roberts Dr","30350",34.00620632645867,-84.33677956953358
"30075","Roswell","GA","Pure Barre","1155 Woodstock Rd Ste 705","30075",34.0631664,-84.399225
"30075","Roswell","GA","CoreMatters","1144 Canton St","30075",34.02993,-84.36194
"30075","Roswell","GA","American Bodyworks","12010 Etris Rd Ste 150","30075",34.07370759606733,-84.3612709140922
"30076","Roswell","GA","LA Fitness","1475 Holcomb Bridge Rd Ste 189","30076",34.01875558635869,-84.31705482409123
"30076","Roswell","GA","Kimberly Clark Health Center","1400 Holcomb Bridge Road","30076",34.023944837886404,-84.31800694146497
"30076","Roswell","GA","CoT Dead Souls FC","Woodcliff Dr","30350",33.977698,-84.354701
"30076","Roswell","GA","The Pointe at Canyon Ridge Gym","8350 Roswell Rd","30350",33.98395538330078,-84.3542251586914
"30078","Snellville","GA","Planet Fitness","2420 Wisteria Dr SW","30078",33.85709495277604,-84.01009170046999
"30078","Snellville","GA","LA Fitness","2279 Pinehurst Rd","30078",33.87338081240567,-84.0125926469057
"30078","Snellville","GA","South Gwinnett High School","2288 Main St E","30078",33.853943092791425,-84.0097008728873
"30078","Snellville","GA","South Gwinnett Gym","South Gwinnett","30078",33.85373665039356,-84.00779548896082
"30078","Snellville","GA","Force Cheer Gym","2005 McGee Rd","30078",33.857940276289256,-84.03879967920389
"30078","Snellville","GA","Just Fitness 4U Snellville","2314 Henry Clower Blvd","30078",33.8545677080764,-84.02323062746461
"30080","Smyrna","GA","Orangetheory Fitness Smyrna","4495 W Village Way SE","30080",33.8445658,-84.4904276
"30080","Smyrna","GA","LA Fitness","2995 Cobb Pkwy SE","30339",33.88199363803423,-84.45852749557181
"30080","Smyrna","GA","Titanz Fitness & Nutrition","1834 S Cobb Industrial Blvd SE","30082",33.82714195489567,-84.49600409647817
"30080","Smyrna","GA","World Gym Smyrna-Vinings","4425 S Cobb Dr SE","30080",33.84660223427784,-84.5024755932376
"30080","Smyrna","GA","The gym","Vinings","30339",33.87627862167629,-84.47265930206926
"30080","Smyrna","GA","Workout Anytime","3100 Highlands Pkwy SE","30082",33.827587362295866,-84.49478243350556
"30080","Smyrna","GA","Pure Barre Vinings","4300 Paces Ferry Rd SE Ste 476","30339",33.8648322,-84.4664365
"30080","Smyrna","GA","Snap Fitness 24/7","3621 Vinings Slope SE","30339",33.86526530147956,-84.47264349290555
"30080","Smyrna","GA","900 Circle 75 Parkway","900 Circle 75 Pkwy SE","30339",33.887408360419585,-84.46797990998641
"30080","Smyrna","GA","West Village Clubhouse","4500 West Village Pl SE","30080",33.842428281844235,-84.49186204562515
"30080","Smyrna","GA","OPT Wellness","2997 Cumberland Blvd SE","30339",33.8817023975363,-84.4744289798664
"30080","Smyrna","GA","Riverwood 100 Gym","3350 Riverwood Pkwy SE","30339",33.878027,-84.458257
"30080","Smyrna","GA","The Views Gym","Pinhurst Dr","not_available",33.871352885066656,-84.4651953897986
"30080","Smyrna","GA","Crossfit Smyrna","5292 Oakdale Rd SE","30082",33.824646376588674,-84.49718478989463
"30082","Smyrna","GA","Magnolia Vinings Pool","2151 Cumberland Pkwy SE","30339",33.852046966552734,-84.48292541503906
"30082","Smyrna","GA","CrossFit 285","4620 S Atlanta Rd SE Ste C","30339",33.840273891252274,-84.4851444686184
"30082","Smyrna","GA","Fitness Together - Ivy Walk Vinings","Ivy Walk","not_available",33.84907,-84.493016
"30082","Smyrna","GA","The Body Firm Atlanta","3630 Oakdale Road","30080",33.84675221435487,-84.4943368434906
"30082","Smyrna","GA","Anytime Fitness","4875 Floyd Rd SW","30126",33.83583,-84.57508
"30083","Stone Mountain","GA","Kfed","forest path","30084",33.780115842819214,-84.173551
"30083","Stone Mountain","GA","D Reynards","Stone mountain-lithonia rd","not_available",33.79114,-84.165159
"30084","Tucker","GA","LA Fitness","1990 W Exchange Pl","30084",33.8423244859861,-84.24619558289736
"30084","Tucker","GA","Ava Gym","2200 Parklake Dr NE","30345",33.8505234535522,-84.24949367515134
"30084","Tucker","GA","Operation Boot Camp","3042 Flowers Rd S","30341",33.871800123947295,-84.26427017223324
"30084","Tucker","GA","Crossfit Tucker","2066 Weems Rd Bldg D","30084",33.844608306884766,-84.25090789794922
"30084","Tucker","GA","Cosmic Energy Fitness","4800 Briarcliff Rd NE Ste 250","30345",33.850020882595416,-84.25547192214522
"30084","Tucker","GA","Residency at Northlake Gym","not_available","30345",33.8507017186407,-84.24795712295247
"30084","Tucker","GA","Crossfit Tucker","2316 Main Street, Suite B","30084",33.853002787769164,-84.21440541744232
"30084","Tucker","GA","Oakwood apt gym","Jimmy Carter 1801","30093",33.8719490349257,-84.18975094698362
"30084","Tucker","GA","RockHard Fitness Gym","4369 Hugh Howell Rd","30084",33.85071563720703,-84.20953369140625
"30084","Tucker","GA","Curves","4410 Hugh Howell Rd # C-1","30084",33.85215746670138,-84.20691220493532
"30084","Tucker","GA","The GYM",".","30345",33.850754924643375,-84.24799313041196
"30084","Tucker","GA","Rock Hard Fitness","not_available","30084",33.8506891608285,-84.20933813546996
"30084","Tucker","GA","InclusiF Fitness","4401 Hugh Howell Rd","30084",33.85063171386719,-84.20945739746094
"30084","Tucker","GA","Alderwood At The Lake Gym","3200-3202 Quails Lake Village Ln","30093",33.888389700000005,-84.19597053750002
"30084","Tucker","GA","Aviara Oaks Fitness Center","not_available","30341",33.883439898490906,-84.25772943333334
"30092","Peachtree Corners","GA","Snap Fitness","4941 S Old Peachtree Rd","30092",33.968528747558594,-84.19561004638672
"30092","Peachtree Corners","GA","Anytime Fitness","3435 Medlock Bdg Rd","30092",33.969341,-84.208704
"30093","Norcross","GA","Parkway Vista Apartments","not_available","30340",33.9041838875274,-84.23671897986992
"30093","Norcross","GA","Ballys","Jimmy Carter","not_available",33.897083,-84.200401
"30093","Norcross","GA","Best Friend Park Gym/Badminton Courts","6224 Jimmy Carter Blvd","30071",33.9277004499914,-84.22091966818232
"30094","Conyers","GA","The Ridge Fitness Spot","not_available","30094",33.601082,-84.090824
"30096","Duluth","GA","The Reserve Gym","not_available","30097",33.992330520685776,-84.09778730793106
"30096","Duluth","GA","Evolve Fitness by Drey","3931 Peachtree Industrial Blvd","30096",33.98651885986328,-84.17151641845703
"30096","Duluth","GA","CrossFit JagLion","2005 Boggs Rd","30096",33.969711,-84.096746
"30097","Duluth","GA","Mad Mare CrossFit","10305 Medlock Bridge Rd Ste B4","30097",34.0322259,-84.18513469999999
"30097","Duluth","GA","Boot Camp","10305 Medlock Bridge Rd","30097",34.03231,-84.185958
"30097","Duluth","GA","24 Hour Fitness","4955 Tanners Spring Dr","30022",34.04593276977539,-84.21492004394531
"30101","Acworth","GA","Aligned Living","5340 Brookstone Dr NW Ste 112","30101",33.998627,-84.707874
"30101","Acworth","GA","iLoveKickboxing - Kennesaw, GA","2774 Cobb Parkway N, Suite 105","30152",34.02291,-84.62379
"30101","Acworth","GA","LifeQuest Fitness","3362 Acworth Summit Blvd NW","30101",34.03760730834191,-84.67734332399971
"30101","Acworth","GA","Brim Gym","not_available","30152",34.0026741027832,-84.65971374511719
"30101","Acworth","GA","Gym De Zilla","not_available","30101",34.06853060508035,-84.64952634907583
"30101","Acworth","GA","JAW'S Gym","The Blue Basement","30144",34.037835672238984,-84.60964660412158
"30101","Acworth","GA","We Are III","1600 Kennesaw Due West Rd Ste 401","30152",33.9926943217416,-84.62780181240163
"30101","Acworth","GA","Fortitude-Crossfit","4401 Baker Grove Rd NW","30101",34.06350326538086,-84.65017700195312
"30101","Acworth","GA","CrossFit Addiction","3250 Heritage Dr NW","30144",34.042852,-84.613196
"30101","Acworth","GA","CrossFit Allatoona","1305 Cedarcrest Rd Ste 123","30132",34.0220832824707,-84.7722396850586
"30101","Acworth","GA","Smith's Martial Arts Academy","1600 Kennesaw Due West Rd NW Ste 307","30152",33.99284270271454,-84.627721290213
"30101","Acworth","GA","Hybrid Impact Fitness","3425 Old 41 Hwy NW #630","30144",34.03873542544014,-84.65068754416865
"30101","Acworth","GA","Supreme K Fitness","3055 N Main St NW","30144",34.0289437,-84.62733300000002
"30101","Acworth","GA","Escalade Indoor Climbing Gym","3694 Kennesaw S Industrial Dr NW","30144",34.043744000000004,-84.614731
"30101","Acworth","GA","The Underground Gym","Picketts Ridge Ln","30101",34.05004599,-84.74204247
"30101","Acworth","GA","American Bodyworks","2851 Cobb Pkwy NW #109","30152",34.021854400634766,-84.62667083740234
"30101","Acworth","GA","Kennesaw Fit Body Boot Camp","3102 Loring Rd NW Ste 110","30152",34.030866025922286,-84.66137236316929
"30101","Acworth","GA","Walden Ridge Gym","3091 Cobb Pkwy NW","30152",34.028544000000004,-84.653699
"30101","Acworth","GA","Ellison Lake Gym","Ellison Lakes Dr","not_available",34.00057881307454,-84.60886881106349
"30102","Acworth","GA","LA Fitness","2060 Eagle Dr","30189",34.11284005840252,-84.56424298857438
"30102","Acworth","GA","Fitness 19","6424 Bells Ferry Rd #112","30189",34.11289844656064,-84.58066665882622
"30102","Acworth","GA","Structured Fitness","5558 Bells Ferry Rd","30102",34.085772,-84.574324
"30102","Acworth","GA","art & ree gym","2313 Westview Ct","30102",34.105402000000005,-84.622555
"30102","Acworth","GA","Superior Fitness","5505 Bells Ferry Rd","30102",34.08526568255869,-84.57642235194265
"30102","Acworth","GA","La Fitness","Town Lake","30101",34.110011936273935,-84.66311711827336
"30102","Acworth","GA","Brooke Mill Gym","101 Downsby Lane","30189",34.080346282740614,-84.55449936328334
"30102","Acworth","GA","R2 Total Fitness 24/7","1025 Rose Creek Dr Ste 740","30189",34.1270817,-84.5733118
"30102","Acworth","GA","Iron Clad K-9 Academy","not_available","30189",34.103807138729294,-84.57883158475602
"30102","Acworth","GA","Pure Barre","2295 Towne Lake Pkwy Ste 152","30189",34.1131541,-84.5549649
"30102","Acworth","GA","Orangetheory Fitness","200 Parkbrooke Dr","30189",34.1118245,-84.5586783
"30102","Acworth","GA","Your Body Fitness","2639 Hickory Grove Rd NW Ste 140","30101",34.065041254455934,-84.62486374417472
"30102","Acworth","GA","Axcess Fitness","2535 Hickory Grove Rd NW","30101",34.06488277067302,-84.62356879161003
"30102","Acworth","GA","Orangetheory Fitness","4391 Acworth Dallas Rd NW","30101",34.06122970581055,-84.72493743896484
"30102","Acworth","GA","Dr. Kortney Training","525 Industrial Dr","30189",34.089465999999994,-84.558437
"30103","Adairsville","GA","Workout Anytime Calhoun","Belmont Drive","30701",34.447688696497444,-84.9407958984375
"30103","Adairsville","GA","A-ville Gym","not_available","30103",34.316546,-84.942063
"30106","Austell","GA","Planet Fitness","5590 Mableton Pkwy","30126",33.81733336420943,-84.57991574889928
"30106","Austell","GA","Champion Performance Training","not_available","30168",33.813879934368096,-84.63355196241349
"30106","Austell","GA","DWT Studios","Mulberry St.","not_available",33.81284645942175,-84.63279053739001
"30106","Austell","GA","P90X with Tony!","not_available","30106",33.84658630804748,-84.60034144016772
"30106","Austell","GA","Amor Fitness and Nutrition","5900 Maxham Rd","30168",33.81111069622646,-84.61975788140177
"30106","Austell","GA","Amor Fitness & Nutrition, LLC","5900 Maxham Rd #3, Austell, GA 30168","30168",33.81100082397461,-84.61997985839844
"30107","Ball Ground","GA","Anytime Fitness","8016 Cumming Hwy Ste 301","30115",34.25262,-84.35872
"30107","Ball Ground","GA","gym Gp","not_available","30143",34.39988856479377,-84.37523554370543
"30107","Ball Ground","GA","Anytime Fitness","110 Bluffs Pkwy","30114",34.25679,-84.48173
"30107","Ball Ground","GA","gym","not_available","30107",34.32255935668945,-84.40110778808594
"30107","Ball Ground","GA","PV Gym","not_available","30114",34.28613806755724,-84.45711475749118
"30107","Ball Ground","GA","TruFitness","10150 Ball Ground Hwy","30107",34.35429235188978,-84.37841640928687
"30114","Canton","GA","Onelife Fitness - Holly Springs","4512 Holly Springs Pkwy","30115",34.14840299881058,-84.5132946968078
"30114","Canton","GA","Orangetheory Fitness","3640 Marietta Hwy","30114",34.1973665868305,-84.5092146033129
"30114","Canton","GA","Anytime Fitness","3753 Marietta Hwy #125","30114",34.19452,-84.5084
"30114","Canton","GA","CrossFit Canton","857 Hickory Flat Hwy","30115",34.22365604347051,-84.48073162689391
"30114","Canton","GA","Elite ATA Martial Arts / Formerly Canton South ATA Martial Arts","3422 Sixes Road #110","30114",34.17391973728377,-84.54867571730726
"30114","Canton","GA","Beat Time Sports Center","5101 Old Highway 5","30115",34.142391204833984,-84.50824737548828
"30114","Canton","GA","Source4 Fitness","6884 Hickory Flat Hwy","30188",34.168156,-84.414553
"30114","Canton","GA","Planet Fitness","2243 Cumming Hwy, Ste 108","30115",34.239296,-84.45405500000001
"30114","Canton","GA","Head Over Heels","755 Ash St","30114",34.18045418516147,-84.50879240776413
"30114","Canton","GA","360 Tumble And Gymnastics","110 Prominence Point Pkwy","30114",34.191974,-84.51136
"30114","Canton","GA","CrossFit Cherokee","2050 Cumming Hwy","30115",34.23427383514675,-84.45257380497281
"30114","Canton","GA","The Gym","not_available","30115",34.173910496012724,-84.4782853396716
"30114","Canton","GA","Elite Krav Maga and Fitness","3422 Sixes Road #109","30114",34.173824310302734,-84.54845428466797
"30114","Canton","GA","Workout Anytime","6232 Old Highway 5","30188",34.129697232690184,-84.49932038784027
"30114","Canton","GA","Anytime Fitness","6776 Hickory Flat Hwy","30115",34.17164,-84.41612
"30114","Canton","GA","BodyPlex Fitness","Riverstone Pkwy","30114",34.245536,-84.48565185070038
"30114","Canton","GA","American Bodyworks 24/7 Fitness","5947 Holly Springs Parkway","30188",34.13666389999999,-84.50005519999999
"30115","Canton","GA","American Body Works","5947 Holly Springs Pkwy #305","30188",34.234477209404766,-84.4525985029488
"30115","Canton","GA","Superior Healthclub Milton","980 Birmingham Rd Ste 811","30004",34.16607138017651,-84.33933549142856
"30115","Canton","GA","Colonial Grand Gym","Shiloh Road","30115",34.1866,-84.49429
"30115","Canton","GA","CrossFit Yin Yang","535 Riverstone Pkwy Ste 205","30114",34.24515151977539,-84.48365020751953
"30115","Canton","GA","River Park Gym","141 River Park Xing","30188",34.139084999999994,-84.511545
"30115","Canton","GA","KAIO FIIT","2864 E Cherokee Dr Ste D","30115",34.17403831830579,-84.41855960251615
"30116","Carrollton","GA","Onelife Fitness - Carrollton Gym","812 S Park St Ste 12","30117",33.5661387,-85.0756658
"30116","Carrollton","GA","Mandeville Loft Fitness Center","361 Lovvorn Rd","30117",33.57898712158203,-85.08908081054688
"30116","Carrollton","GA","Sportsplex Health & Athletic Club","106 Somerset Pl","30116",33.596439020495296,-85.03911348425297
"30116","Carrollton","GA","Crossfit Carrollton","not_available","30117",33.599207,-85.09493
"30116","Carrollton","GA","The Grove","912 Lovvorn Rd","30117",33.57920053931379,-85.1026403846149
"30116","Carrollton","GA","Sportsplex","Somerset place","30117",33.59660260203722,-85.03930882111729
"30116","Carrollton","GA","Club Fitness","830 Maple St","30117",33.57403635978699,-85.0847686
"30116","Carrollton","GA","Tanner Medical Center/Carrollton Walking Trail","705 Dixie St","30117",33.56957244873047,-85.0740737915039
"30116","Carrollton","GA","Zumba Class","Lakeshore Park","30117",33.599958124944365,-85.06027976105378
"30116","Carrollton","GA","The Tread","Old Harper Road","30116",33.51307843862795,-85.02997645443448
"30116","Carrollton","GA","Folds Gym","not_available","30116",33.537931,-85.062664
"30116","Carrollton","GA","East Carrollton Gym","North Lakeshore Dr","30117",33.58736886426497,-85.04492441281592
"30116","Carrollton","GA","Miss DREA'S Muscle Maker","702-706 Birkdale Blvd","30116",33.569448916666666,-85.03117025
"30120","Cartersville","GA","Cair Plus","not_available","30120",34.1698353556868,-84.79348293850626
"30120","Cartersville","GA","Fitness Center @ Hilton Garden Inn Cartersville","24 Liberty Dr","30121",34.16790603568462,-84.7815010537068
"30120","Cartersville","GA","Golds Gym","Henderson drive","30120",34.15289073736135,-84.8165528171542
"30120","Cartersville","GA","Bodyplex Fitness of Cartersville","25 Collins Dr","30120",34.19254683674389,-84.79341688372513
"30120","Cartersville","GA","Workout Anytime","608 E Main St","30121",34.17049,-84.78388
"30120","Cartersville","GA","Avonlea Fitness Center","950 E Main St","30121",34.176055908203125,-84.77271270751953
"30120","Cartersville","GA","New Crossfit Adrenaline Box","790 West Ave","30120",34.157894134521484,-84.81428527832031
"30120","Cartersville","GA","Devilrays","199 Hickory Ln","30120",34.190135,-84.789697
"30120","Cartersville","GA","Anytime Fitness","790 Euharlee Rd","30120",34.1489143371582,-84.90471649169922
"30120","Cartersville","GA","Lani's Fitness","12 S Erwin St","30120",34.16537857055664,-84.79663848876953
"30120","Cartersville","GA","Anytime Fitness","10 Slopes Dr.","30120",34.19544627,-84.79648802
"30120","Cartersville","GA","Boot Camp with LeNette","330 N. Erwin Street","30120",34.176006503027956,-84.8063691889873
"30122","Lithia Springs","GA","LS Gym","not_available","30122",33.79379064441421,-84.6556953244316
"30122","Lithia Springs","GA","Century Sweetwater Fitness Center","1100 Preston Landing Cir","30122",33.7686767578125,-84.61382293701172
"30122","Lithia Springs","GA","Elevated Fitness","965 Forest Knoll Ct","30122",33.74677658081055,-84.60585021972656
"30125","Cedartown","GA","Planet Fitness","770 N Main St","30125",34.025562,-85.248106
"30125","Cedartown","GA","Arencibia Gym","not_available","30125",34.044973,-85.257657
"30125","Cedartown","GA","Fat Busters","not_available","30173",34.13825174363055,-85.14091485235949
"30125","Cedartown","GA","Advance Rehabilatation","1108 north main stree","30125",34.03498894648396,-85.24346815391425
"30125","Cedartown","GA","Studio Fitness 24/7","224 Main St","30125",34.01244123883132,-85.2550726563013
"30125","Cedartown","GA","Advance Rehabilitation","Main street","30125",34.020251,-85.248207
"30126","Mableton","GA","Stiles Mini Gym","not_available","30126",33.795019,-84.567627
"30126","Mableton","GA","Calibre Lake Gym","not_available","30082",33.83381180001058,-84.49478702824071
"30126","Mableton","GA","Boot Camp Revolution","Nickajack Park","not_available",33.817136,-84.506494
"30126","Mableton","GA","Baby Gorillas Basement Workout Shaq","5522 Stoneybrook Ct SE","30126",33.818825,-84.516351
"30126","Mableton","GA","Lee's Basement Gym","508 vinings","30126",33.8005113671678,-84.54190461139548
"30126","Mableton","GA","24 Hour Workout","South cobb dr","30082",33.83124666276606,-84.4949099665071
"30126","Mableton","GA","Burn Boot Camp","3150 Highlands Pkwy SE","30082",33.82692,-84.49592
"30127","Powder Springs","GA","Top Flight Athletics","3403 Florence Cir","30127",33.87048,-84.701093
"30127","Powder Springs","GA","American Bodyworks","5886 Wendy Bagwell Pkwy Ste 107","30141",33.88267048614809,-84.73141007042085
"30127","Powder Springs","GA","Sculptures Fitness","6525 Hiram Douglasville Hwy","30134",33.79926681518555,-84.75592803955078
"30127","Powder Springs","GA","Workout Anytime","4400 Brownsville Rd","30127",33.84591347522311,-84.69805257964401
"30127","Powder Springs","GA","IQ Fitness","45 Darbys Crossing Dr","30141",33.9049072265625,-84.7486572265625
"30127","Powder Springs","GA","Xtreme Fitness","3893-3897 Georgia 120 Connector","30141",33.87017336108711,-84.76632083762277
"30127","Powder Springs","GA","Hammy's Heslth And Fitness","not_available","30127",33.805294,-84.73805
"30127","Powder Springs","GA","Workout Anytime Florence","922 Cox Creek Pkwy","35630",33.895953789483386,-84.7616803158102
"30127","Powder Springs","GA","Top Flight Athletics","4400 Brownsville Rd Ste 300","30127",33.84612221081051,-84.6980775120663
"30127","Powder Springs","GA","CrossFit IV","3220 Hopeland Industrial Blvd","30127",33.87468338012695,-84.70088195800781
"30127","Powder Springs","GA","Universal fitness","5886 Wendy Bagwell Pkwy","30141",33.882331,-84.731406
"30127","Powder Springs","GA","Required Fitness","3931 Mary Eliza Trce NW","30064",33.966713352899305,-84.6665318828345
"30127","Powder Springs","GA","Maxt3","5087 Dallas Hwy #100","30127",33.94093704223633,-84.70014953613281
"30127","Powder Springs","GA","Workout Anytime Princeton","200 S. Beauchamp Blvd. Ste 106","75407",33.93525827779914,-84.7261305521558
"30127","Powder Springs","GA","CROSSFIT 92","1655 Hiram-Douglasville Hwy.","not_available",33.86845179644332,-84.76413625842424
"30132","Dallas","GA","Tapout Fitness Dallas","55 E Paulding Dr Ste 108","30157",33.9577896,-84.7870614
"30132","Dallas","GA","TNT Cardio Kickboxing","107 Village Walk","30132",33.91252517700195,-84.83869934082031
"30132","Dallas","GA","The Space of Perpetual Pumps, Pains, Gains & Glory","not_available","30157",33.903349911742325,-84.81260199538328
"30132","Dallas","GA","Uchi Gym","not_available","30132",33.983009338378906,-84.80379486083984
"30132","Dallas","GA","Body Plex","not_available","30141",33.911443636124744,-84.77448709385962
"30132","Dallas","GA","Workout Anytime","92 Highland Pavilion Way","30141",33.90167762063911,-84.77375588831968
"30132","Dallas","GA","Anytime Fitness","2483 Cedarcrest Rd","30101",34.03725,-84.77472
"30132","Dallas","GA","Momentum Fitness","10175 Dallas Acworth Hwy","30132",34.027844239751936,-84.74357234755426
"30132","Dallas","GA","BodyPlex","76 Highland Pavilion Ct Ste 161","30141",33.89973,-84.770933
"30134","Douglasville","GA","Gold's Gym","8741 Hospital Dr","30134",33.7437521147139,-84.73277388461423
"30134","Douglasville","GA","LA Fitness","3020 Chapel Hill Rd","30135",33.724622028501834,-84.73198167499488
"30134","Douglasville","GA","Youfit Health Clubs","9559 Georgia Hwy 5, #401","30135",33.7234083,-84.7642582
"30134","Douglasville","GA","World Class 24 Hour Gym And Tanning","2046 Fairburn Rd","30135",33.75019664520775,-84.70957550427563
"30134","Douglasville","GA","American Bodyworks","4336 Ridge Rd","30134",33.814204945053454,-84.81894828619947
"30134","Douglasville","GA","The Highland Gym","not_available","30135",33.74641418457031,-84.71707153320312
"30134","Douglasville","GA","Motivational Fitness","7580 Owl Creek Dr","30134",33.7462437,-84.776123
"30134","Douglasville","GA","Orangetheory Fitness","2750 Chapel Hill Rd","30135",33.73102100808627,-84.7361860703148
"30134","Douglasville","GA","Madhouse Gym","5848 Bankhead Hwy","30134",33.761653900146484,-84.72589874267578
"30134","Douglasville","GA","Ray's Gym","33 Inverness Ct","30141",33.830997467041016,-84.8249740600586
"30134","Douglasville","GA","Workout Anytime","4900 Stewart Mill Rd","30135",33.724001785347845,-84.7356686918476
"30134","Douglasville","GA","primary fitness","not_available","30134",33.778849780927395,-84.74795266695298
"30134","Douglasville","GA","Beast Mode Gym","Domination Station","30134",33.798488,-84.788849
"30135","Douglasville","GA","Gold's Gym","4600 Legend Pl","30135",33.721108272835366,-84.7246472512812
"30135","Douglasville","GA","anneewakee trails workout","not_available","30213",33.68341463355571,-84.67955096856765
"30135","Douglasville","GA","CrossFit Douglasville","4040 Chapel Hill Rd Ste D","30135",33.69675085921776,-84.71480228939353
"30135","Douglasville","GA","Knuckleup Fitness","4040 Chapel Hill Rd","30135",33.71736832,-84.77290297
"30135","Douglasville","GA","Home gym!","not_available","30342",33.69997354557512,-84.70879139903205
"30135","Douglasville","GA","P90X Fitness Workout Room","5410 Mill Valley Dr","30135",33.70553970336914,-84.75225067138672
"30135","Douglasville","GA","Arcadia's Rockin' Gym","5150 Thompson Rd","30213",33.613119,-84.607023
"30135","Douglasville","GA","Boundary Water Aquatic Exercise Center","5000 Georgia Highway 92","30349",33.63536122448733,-84.66421523778504
"30135","Douglasville","GA","Golds Gym","Chapel Hill Road","30135",33.70046779097009,-84.71614510582403
"30135","Douglasville","GA","Tributary Village Activity Center","3240 Bakewell St","30135",33.71321965133871,-84.64457354297721
"30135","Douglasville","GA","Dangerous Curvez Fitness","3220","30331",33.611706843402864,-84.60956480700389
"30141","Hiram","GA","My Gym","waters Rd","30141",33.84012361379268,-84.7904813331107
"30143","Jasper","GA","Anytime Fitness","1101 Old Philadelphia Rd","30143",34.47358322143555,-84.46128845214844
"30143","Jasper","GA","Jasper Fitness","On The Side Of 515","30143",34.5013764219203,-84.43843359958169
"30143","Jasper","GA","bodyplex","hwy 515 suite 594","30143a",34.468971801143475,-84.45694256821808
"30143","Jasper","GA","BodyPlex","594 Noah Dr","30143",34.46913,-84.456918
"30144","Kennesaw","GA","LA Fitness","4200 Wade Green Rd NW Ste 300","30144",34.05573244111856,-84.59063878538738
"30144","Kennesaw","GA","Youfit Health Clubs","3895 Cherokee St NW #100","30144",34.048766,-84.6004525
"30144","Kennesaw","GA","Curves","3600 Cherokee St NW","30144",34.041872,-84.60186
"30144","Kennesaw","GA","North Georgia Barbell","kennesaw, ga","not_available",34.003059,-84.604752
"30149","Mount Berry","GA","Harbin Clinic Vitality Center","504 Redmond Rd NW","30165",34.279148179074554,-85.19556990885012
"30152","Kennesaw","GA","Pure Barre","1615 Ridenour Blvd NW Ste 205","30152",33.994623818402424,-84.5922615999591
"30152","Kennesaw","GA","Georgia Chrome Star","2070 Attic Pkwy NW Ste 102","30152",34.003475189208984,-84.60436248779297
"30152","Kennesaw","GA","Operation Boot Camp","3140 Old Hwy 41","30144",34.032575,-84.631126
"30153","Rockmart","GA","Body Vision 24/7","not_available","30153",33.99869213898367,-85.04943947243774
"30157","Dallas","GA","Toadali Fit Gym","2985 Villa Rica Hwy Ste H","30157",33.868289947509766,-84.83847045898438
"30161","Rome","GA","Planet Fitness","2507 Redmond Circle NW","30165",34.273454270603374,-85.22776446441804
"30161","Rome","GA","Rome Health Spa","not_available","30161",34.2463493347168,-85.16938018798828
"30161","Rome","GA","FIT365","not_available","30165",34.31823660705393,-85.17357938701834
"30161","Rome","GA","Velocity Fitness In Motion 515 Plaza Pl","515 Plaza Pl","not_available",34.24688848888655,-85.16801201385968
"30161","Rome","GA","Rome Athletic Club","10 John Davenport Dr NW","30165",34.26892196703986,-85.18185145168083
"30161","Rome","GA","YMCA","810 E 2nd Ave SW","30161",34.24214307053783,-85.16452200714329
"30161","Rome","GA","Revolution Fitness @ The Edge","113A Armstrong St NW","30165",34.27057246346384,-85.19647050266533
"30161","Rome","GA","Pro Performance","314 E 1st Ave","30161",34.25156021118164,-85.1747817993164
"30161","Rome","GA","SCBC Upward","Chulio Rd","30161",34.19968734021272,-85.09190372778745
"30161","Rome","GA","Workout Anytime","132 Hicks Dr SE","30161",34.254871310221304,-85.16088081347576
"30176","Tallapoosa","GA","The Fridge","not_available","30176",33.75954603510671,-85.29316819465905
"30179","Temple","GA","Personal Fitness","Rocky Branch Rd, Villa Rica, GA 30180","30180",33.72004223556191,-84.95341347058198
"30179","Temple","GA","Sta-Fit & Tan","104 W Perennial Dr","30179",33.72268779288935,-85.02878688097155
"30179","Temple","GA","Toe2Toe Fitness","not_available","30180",33.748646,-84.932378
"30179","Temple","GA","CrossFit Boiler Room","753 Industrial Blvd","30180",33.73891067504883,-84.93760681152344
"30179","Temple","GA","New Life Fitness For Women","119 S Candler St","30180",33.731459,-84.9203360080719
"30179","Temple","GA","Defkon 1 Fitness","901 S Carroll Rd","30180",33.71495720056778,-84.93632270246889
"30180","Villa Rica","GA","American Bodyworks","2416 Conners Rd","30180",33.73198563581701,-84.89477168958183
"30188","Woodstock","GA","Life Time Fitness","14200 Alabama Rd NE","30188",34.0803036,-84.4545134
"30188","Woodstock","GA","Life Time Fitness","14200 Hwy 92","30188",34.080536,-84.450809
"30188","Woodstock","GA","Lifetime Fitness Child Center","14200 Highway 92","30188",34.08042526245117,-84.45457458496094
"30188","Woodstock","GA","Alta Ridgewalk Gym","1 Elena Way","30188",34.117191314697266,-84.52103424072266
"30188","Woodstock","GA","River Ridge High School","400 Arnold Mill Rd","30188",34.116107279096326,-84.48109315877598
"30188","Woodstock","GA","NASM OnPoint Academy","110 Londonderry Court","30188",34.0852755,-84.50542279999999
"30188","Woodstock","GA","Curves","9550 Main St","30188",34.087249755859375,-84.52001953125
"30188","Woodstock","GA","Emerge Fitness at Owl Crossfit","8690 Main St","30188",34.0996325506146,-84.52001979790256
"30188","Woodstock","GA","The Gym","501 Willow Creek Ln","30188",34.083545,-84.48910699999999
"30188","Woodstock","GA","Bell Woodstock Gym","1 Sycamore Ln","30188",34.086124420166016,-84.48414611816406
"30188","Woodstock","GA","Rhythm And Fitness Studio","4796 Canton Rd","30066",34.068477630615234,-84.52081298828125
"30189","Woodstock","GA","Towne Lake Hts Gym","Buckhead Crossing","30189",34.10938358893653,-84.5413876616115
"30189","Woodstock","GA","CrossFit Etowah","8811 Highway 92","30189",34.08775,-84.542742
"30189","Woodstock","GA","Home Gym","Towne Lake Hills Drive South","30189",34.103543069946305,-84.55041646957397
"30189","Woodstock","GA","Anytime Fitness","2340 Towne Lake Pkwy","30189",34.1132,-84.55261
"30189","Woodstock","GA","Crossfit Bridgemill","Sixes Rd","30114",34.17478566148767,-84.54868083500284
"30204","Barnesville","GA","Anytime Fitness","816 College Dr","30204",33.03389,-84.15346
"30206","Concord","GA","La Salle De Sports","pedenville rd","30206",33.12940905,-84.4628643
"30213","Fairburn","GA","LA Fitness","6385 Old National Hwy","30349",33.580046556508194,-84.47173665350338
"30213","Fairburn","GA","LA Fitness","3755 Carmia Dr SW Ste 700","30331",33.656840044622896,-84.50830230084745
"30213","Fairburn","GA","20BOOTCAMP Fitness Training/Bootcamp","4255 Will Lee Road, College Park, GA 30349","30349",33.63181686401367,-84.52748107910156
"30213","Fairburn","GA","Workout Anytime","4737 Jonesboro Rd, Ste 50","30291",33.57093705489705,-84.54063605531678
"30213","Fairburn","GA","Body By Inches 24 Hr. Fitness Center","6703 Shannon Pkwy Ste 3","30291",33.5728512,-84.5402822
"30213","Fairburn","GA","Jill Miller Fitness Studio","99 Inman Street","not_available",33.575555,-84.561072
"30213","Fairburn","GA","Fit 4 Life","not_available","30291",33.56916544142068,-84.53681505660788
"30213","Fairburn","GA","Body By Inches","Shannon pkwy","not_available",33.58448511518901,-84.52937880243918
"30213","Fairburn","GA","Cambridge Faire Apartments - Fitness Center","900 Meadow Glen Pkwy","30213",33.536607000000004,-84.581861
"30213","Fairburn","GA","Welcome All Fitness Center","not_available","30349",33.64381366674736,-84.50819601737291
"30213","Fairburn","GA","WellFit You Personal Training","2410 Crest Ridge Dr","30344",33.661468505859375,-84.50084686279297
"30213","Fairburn","GA","The Gym At 2 Doors Down","5721 Sable Way","30349",33.60137939453125,-84.49472045898438
"30213","Fairburn","GA","WCCI Body Sculpting Center","2500 Burdett Rd","30349",33.59486770629883,-84.47190856933594
"30214","Fayetteville","GA","Ultimate fitness","922 Highway 85 S","30215",33.42668529966499,-84.45844841115323
"30214","Fayetteville","GA","Piedmont Wellness Center","200 J Arthur Rank Ave","30214",33.4707336,-84.5079574
"30214","Fayetteville","GA","Curves","1988 Highway 54 W Ste A","30269",33.42721176147461,-84.55644989013672
"30214","Fayetteville","GA","Crossfit Kickstart","205 Industrial Way","30215",33.44364929199219,-84.4417724609375
"30214","Fayetteville","GA","Results Fitness","535 Glynn St S","30214",33.43877729765831,-84.45577482832208
"30214","Fayetteville","GA","Maximum Output","not_available","30215",33.44797134399414,-84.47388458251953
"30214","Fayetteville","GA","Next Level Fitness","1262 Georgia 138","not_available",33.54960117720243,-84.42998101074807
"30214","Fayetteville","GA","Piedmont Fayette Rehab & Fitness Center","1250 Georgia Hwy 54","30214",33.450178,-84.508434
"30214","Fayetteville","GA","T&F Personal Training","not_available","30214",33.455440521240234,-84.4552993774414
"30214","Fayetteville","GA","Legacy Image Allstars","283 Highway 138 SW","30274",33.54338836669922,-84.40001678466797
"30214","Fayetteville","GA","IBEATALL Sports","1550 Senoia Rd","30290",33.48884963989258,-84.57798767089844
"30214","Fayetteville","GA","Fitness USA","725 Lanier Ave E","30214",33.45032264190316,-84.43776369094849
"30214","Fayetteville","GA","Pose Wellness","Banks Station 205 Banks Road","not_available",33.468376452433134,-84.44222688674927
"30214","Fayetteville","GA","World Gym","931 Glynn St N","30214",33.464565320481135,-84.4484875095602
"30214","Fayetteville","GA","Youfit Health Clubs","7531 GA-85","30274",33.549028,-84.416992
"30214","Fayetteville","GA","Maximum Capacity Crossfit","137 Bethea Rd Ste 705","30214",33.50221633911133,-84.45169067382812
"30214","Fayetteville","GA","Legacy Image Cheer gym","283 Highway 138 SW Ste C","30274",33.54338836669922,-84.40001678466797
"30214","Fayetteville","GA","Youfit","7531 Highway 85","30296",33.548851728408124,-84.41649482074767
"30215","Fayetteville","GA","World Gym","Hwy 74 Hwy 54","30269",33.369100340411585,-84.54599910077086
"30215","Fayetteville","GA","Heritage Point Club House.","Heritage Point Pkwy","30276",33.326877,-84.544841
"30215","Fayetteville","GA","Crossfit Good Life","827 Highway 74 S Ste 201","30269",33.34388373471584,-84.54372167587279
"30223","Griffin","GA","911 fitness","3350 Georgia 155, Locust Grove, GA 30248","30248",33.34247970581055,-84.17780303955078
"30223","Griffin","GA","Planet Fitness","1207 W Taylor St","30223",33.24839462270085,-84.28273397514344
"30223","Griffin","GA","Club Fitness","521 N Expressway","30223",33.25702200180932,-84.29004419239452
"30223","Griffin","GA","Tuck's Gym","360 Hamilton Blvd","30224",33.23847961425781,-84.2462387084961
"30223","Griffin","GA","Racquethause","1447 N Expressway","30223",33.27273862,-84.291602
"30223","Griffin","GA","Curves","120 Taylor St","not_available",33.246985042958485,-84.26403485893714
"30223","Griffin","GA","Muscle World Gym","Tanger blvd","not_available",33.34635491671565,-84.12100405195628
"30223","Griffin","GA","Rn Fitness","456 W Solomon St","30223",33.24840545654297,-84.2699203491211
"30224","Griffin","GA","T & T Bootcamp","not_available","30224",33.21619500374285,-84.25231712237694
"30228","Hampton","GA","Anytime Fitness","11191 Tara Blvd","30228",33.4487,-84.32696
"30228","Hampton","GA","CAO ELITE ALL STARS","not_available","30238",33.48368984149477,-84.34078382790166
"30228","Hampton","GA","destiny fitness","not_available","30253",33.472900390625,-84.21849822998047
"30228","Hampton","GA","Burnette Karate & Gym","3118 Jodeco Rd","30253",33.48297296633633,-84.21262109638094
"30228","Hampton","GA","Workout Anytime","10341 Tara Blvd","30236",33.472164,-84.338365
"30228","Hampton","GA","Snap Fitness 24-7","Tara Blvd","30228",33.4466076561428,-84.32618852941069
"30228","Hampton","GA","Second wind-Crossfit","Andover Cir.","30252",33.463935266105445,-84.25913896427825
"30228","Hampton","GA","NV AllStars","not_available","30228",33.387659,-84.282436
"30230","Hogansville","GA","CHS Large Gym","not_available","30241",33.08390808105469,-84.98966979980469
"30233","Jackson","GA","Oxygen Fitness Studio","24 S Mulberry St","30233",33.29514385,-83.96632196666667
"30233","Jackson","GA","The Gym","139 Crown Forest Dr","30252",33.432478,-84.08784
"30233","Jackson","GA","Health Fitness USA","401-535 Georgia 36","30233",33.304606622675266,-83.96024145879048
"30233","Jackson","GA","Pro Fit Pumping Iron Gym","60-62 Old Jackson Rd","30252",33.427320523472936,-84.0978997758329
"30236","Jonesboro","GA","LA Fitness","7057 Mount Zion Cir","30260",33.564708852979045,-84.32967212992736
"30236","Jonesboro","GA","Body Talk Fitness","7420 Davidson Cir E","30281",33.552562,-84.264179
"30236","Jonesboro","GA","The Gym","102 Carrington Park","30236",33.554373999999996,-84.303428
"30236","Jonesboro","GA","in hades aka sauna","not_available","30260",33.566505432128906,-84.32694244384766
"30236","Jonesboro","GA","700 Calories A Day","not_available","30273",33.59599685668945,-84.26973724365234
"30236","Jonesboro","GA","bodies unlimited","not_available","30274",33.58244323730469,-84.39383697509766
"30236","Jonesboro","GA","Carrington Park Apartments Gym","100 Carrington Park","30236",33.554373999999996,-84.303428
"30236","Jonesboro","GA","The Exercise Room","Hannover Parkway","30281",33.55497,-84.274263
"30236","Jonesboro","GA","Century Lake Fitness Center","100 Chaselake Dr","30236",33.55550765991211,-84.35887908935547
"30236","Jonesboro","GA","Muscle Beach Fitness","2300 Highway 138 E","30236",33.52762985229492,-84.31343841552734
"30236","Jonesboro","GA","Snap Fitness","1005 Brentwood Pkwy","30281",33.52693521636921,-84.26730868446963
"30236","Jonesboro","GA","PRBC Gym","9701 Poston Rd","30238",33.494393,-84.361888
"30236","Jonesboro","GA","Workout Anytime","3658 Highway 138 SE","30281",33.55185952405977,-84.27217887361506
"30236","Jonesboro","GA","CrossFit Bear Strength","9396 S Main St","30236",33.49899673461914,-84.3436279296875
"30236","Jonesboro","GA","Curves Jonesboro","9434 S Main St #1400","30236",33.498523,-84.342815
"30240","Lagrange","GA","Planet Fitness","118 Commerce Ave","30241",33.04798923711856,-85.02601097207904
"30240","Lagrange","GA","The Gym","Long Cane Rd","30240",32.95874485790546,-85.1271223402024
"30240","Lagrange","GA","Body Control Pilate Studio","220 Main St,","30240",33.036415100097656,-85.03166198730469
"30240","Lagrange","GA","KMMG Fitness Center","not_available","31833",32.91714752117575,-85.12074917296195
"30240","Lagrange","GA","gym","3206 West Point Rd","30240",33.01251983642578,-85.1072006225586
"30240","Lagrange","GA","Trevor Workout Center","not_available","30240",33.038662,-85.044355
"30240","Lagrange","GA","CrossFit LaGrange","100 Corporate Plaza Dr","30241",33.04240798950195,-85.0289077758789
"30240","Lagrange","GA","Towne Fitness","124 Main St Ste C","30240",33.037817772494876,-85.03152645751173
"30241","Lagrange","GA","United Cheerleading of LaGrange","202 S Davis Rd","30241",33.04912185668945,-84.98542022705078
"30248","Locust Grove","GA","Workout Anytime","2694 Highway 155","30248",33.36653028936122,-84.18105307394275
"30248","Locust Grove","GA","Anytime Fitness","2168 Hwy 20 W","30253",33.41299,-84.20266
"30248","Locust Grove","GA","CrossFit Clash","not_available","30248",33.36647568223997,-84.18093530796217
"30248","Locust Grove","GA","Crossfit Locust Grove","116 Park 42 Dr Ste D","30248",33.37546920776367,-84.12397003173828
"30252","Mcdonough","GA","Union Grove High School","120 E Lake Rd","30252",33.50609448460909,-84.13489475600068
"30252","Mcdonough","GA","Curves For Women","311 Olde Town Way","30252",33.431433818852035,-84.13743142089153
"30252","Mcdonough","GA","Home gym","570 Pleasant Grove Rd","30252",33.54532467898457,-84.12040608692887
"30252","Mcdonough","GA","Orangetheory Fitness","1663 Georgia 20","30252",33.477616,-84.1013622
"30252","Mcdonough","GA","Fitness:1440 McDonough","294 Racetrack Rd","30252",33.430391,-84.1346155
"30252","Mcdonough","GA","Fitness USA","390 Highway 155 S","30253",33.4197900428295,-84.15270314707035
"30253","Mcdonough","GA","LA Fitness","95 Foster Dr","30253",33.463813808852976,-84.20841731491659
"30253","Mcdonough","GA","Gold's Gym","250 Business Center Dr","30281",33.51108384692751,-84.20994183019023
"30253","Mcdonough","GA","John Grall Memorial Weightroom","166 Holly Smith Dr, McDonough, GA 30253","30253",33.42938995361328,-84.15697479248047
"30253","Mcdonough","GA","Sundance Creek Gym","Flowers Creek Dr","30253",33.44338816203818,-84.16883228783922
"30253","Mcdonough","GA","Workout Anytime","287 Jonesboro Rd","30253",33.45283804862812,-84.16791200637817
"30253","Mcdonough","GA","Atlanta Weight Loss & Wellness Associates","1445 Rock Quarry Rd","30281",33.51341,-84.23059
"30253","Mcdonough","GA","Independent Athletics","241 McDonough Pkwy","30253",33.4386415,-84.1673562
"30253","Mcdonough","GA","Anytime Iron","not_available","30281",33.48923398649251,-84.23144283724453
"30253","Mcdonough","GA","Workout Anytime Hudson Bridge / Spivey","1760 Hudson Bridge Rd","30281",33.50160640691358,-84.24461347827332
"30253","Mcdonough","GA","McDonough ATA Black Belt Academy","1332 McDonough Place","30253",33.45104828514289,-84.16709929704666
"30253","Mcdonough","GA","CrossFit Pulse","860 Dailey Mill Rd","30253",33.479007461848916,-84.18182232846742
"30259","Moreland","GA","Eliptical","not_available","30277",33.27575362,-84.67195412
"30260","Morrow","GA","Muscle World","4917 Jonesboro Rd","30297",33.619258880615234,-84.35257720947266
"30263","Newnan","GA","Atlanta Fitness","460 Newnan Crossing Byp","30263",33.384446645332915,-84.76405141577453
"30263","Newnan","GA","Orangetheory Fitness","1731 Newnan Crossing Blvd E","30265",33.37823202314544,-84.75282955288324
"30263","Newnan","GA","Polar Gym","Private Driveway, Newnan, GA 30277","30277",33.44788740964914,-84.7833040054708
"30263","Newnan","GA","Onelife Fitness","19 Millard Farmer Ind Blvd Ste A","30263",33.3974795,-84.7627084
"30263","Newnan","GA","the gym","not_available","30265",33.40043295053443,-84.73206384851318
"30263","Newnan","GA","Da House (treadmill)","129 Huntington Ct","30265",33.358009338378906,-84.70793914794922
"30263","Newnan","GA","Old Gym - Newnan HS","190 Lagrange St","30263",33.36410689629359,-84.81150453295393
"30263","Newnan","GA","Georgia Heat","137 Bledsoe Rd","30265",33.4017750729936,-84.75755286581862
"30263","Newnan","GA","Bodies Unlimited Personal Training Studios","35 Lake Ridge Dr","30263",33.40731974050343,-84.78253027069394
"30263","Newnan","GA","Atlanta Fitness Sports Club Sauna","Newnan Crossing","30263",33.38699302679465,-84.76264908175641
"30263","Newnan","GA","Calumet's Gym","21 Riva Ridge Ln","30263",33.405471999999996,-84.764707
"30263","Newnan","GA","Lofts Gym","Newnan Lofts","30263",33.377954,-84.795145
"30263","Newnan","GA","Newnan Fitness","not_available","30263",33.3746270863394,-84.8004819185549
"30263","Newnan","GA","Bodyplex","1039 Sullivan Rd","30265",33.40346,-84.70746873
"30263","Newnan","GA","NRG Fitness Center","31 Market Square Rd","30265",33.37937980363937,-84.74067955311811
"30263","Newnan","GA","Stillwood Farms Fitness Center","2050 Newnan Crossing Blvd E #R","30265",33.36589813232422,-84.7558822631836
"30263","Newnan","GA","Burn Boot Camp","21 Market Square Way","30265",33.37811,-84.74127
"30265","Newnan","GA","Bodyplex","60 Thomas Grace Annex Ln","30277",33.409675718759544,-84.67086447386971
"30265","Newnan","GA","Snap Fitness","3161 Highway 34 E","30265",33.40681943761766,-84.67878689814759
"30269","Peachtree City","GA","World Gym","1964 Highway 54 W","30269",33.42074086999025,-84.56062942475913
"30269","Peachtree City","GA","Anytime Fitness","1259 N Peachtree Pkwy","30269",33.43631,-84.59082
"30269","Peachtree City","GA","World Gym","1300 Commerce Dr","30269",33.40147833133354,-84.59582800094077
"30269","Peachtree City","GA","S5 Fitness","277 Highway 74 N Ste 101","30269",33.406593322753906,-84.60017395019531
"30269","Peachtree City","GA","ACE","115 Depot Ct","30269",33.43842371798098,-84.60609343519145
"30269","Peachtree City","GA","Peachtree City Combat Fitness","not_available","30269",33.3608305583257,-84.56355095433725
"30269","Peachtree City","GA","Pure Barre","405 City Cir Ste 1620","30269",33.3954352,-84.5904799
"30269","Peachtree City","GA","CrossFit PTC","303 Kelly Dr #8","30269",33.380036343533924,-84.57915902137756
"30269","Peachtree City","GA","Ultimate Fitness","220 Northlake Dr","30269",33.40160113265968,-84.5860400458286
"30269","Peachtree City","GA","American Bodyworks","2850 Highway 54","30269",33.396759033203125,-84.60784912109375
"30269","Peachtree City","GA","ProperPilates Studio","301 Kelly Dr Ste 3","30269",33.38157607844564,-84.57945259259031
"30269","Peachtree City","GA","Speed Sports Performance","2-144 T D K Blvd","30269",33.37023155917586,-84.5692912547008
"30269","Peachtree City","GA","Burn Boot Camp","2834 Georgia 54","30269",33.39529,-84.60523
"30269","Peachtree City","GA","Burn Boot Camp","1240 Highway 54 W","30269",33.39808,-84.5893
"30269","Peachtree City","GA","TaylorMade Gymmastics Training Center","155 Shamrock Industrial Blvd","30290",33.44497281463345,-84.60848721875539
"30273","Rex","GA","Brickz","not_available","30294",33.61144936206046,-84.24912992615275
"30274","Riverdale","GA","bodies unlimited","6604 State Route 85, Riverdale, GA 30274","30274",33.57440185546875,-84.41227722167969
"30274","Riverdale","GA","Rod's Fitness","6326 Georgia 85","30274",33.58249802123607,-84.41060101851934
"30276","Senoia","GA","Snap Fitness","27 Barnes St","30276",33.300474,-84.553495
"30277","Sharpsburg","GA","West Fayette Barbell","116 Palmetto Rd","30290",33.480413,-84.590323
"30277","Sharpsburg","GA","Workout Anytime","1520 Georgia 74 N","30290",33.48869032418573,-84.58691596984863
"30277","Sharpsburg","GA","Big Dawg Gym & Fitness","865 Senoia Rd Ste E","30290",33.47404503681079,-84.59684796533126
"30281","Stockbridge","GA","Workout Anytime","3056 Anvil Block Rd, Ste 117","30294",33.63519728281129,-84.28891287231279
"30281","Stockbridge","GA","J. P. Moseley Recreational Center","1041 Millers Mill Rd","30281",33.53725051879883,-84.16397094726562
"30281","Stockbridge","GA","Snap Fitness","115 Fairview Rd","30294",33.620045867212745,-84.23941010091873
"30281","Stockbridge","GA","CCC Gym","2500 Patrick Henry Pkwy","30253",33.499790021301365,-84.22013228555254
"30281","Stockbridge","GA","Gym Tech 4 Kids / Cheertowne Academy","175 Kendra Dr","30253",33.468919,-84.207144
"30286","Thomaston","GA","Iron Works Fitness Center","not_available","30286",32.88831050826541,-84.31546364623846
"30286","Thomaston","GA","The Wellness Center of URMC","801 W Gordon St","30286",32.885456,-84.33760961666667
"30292","Williamson","GA","Pike County High Weight Room (McElwaney's House of Muscle)","not_available","30295",33.10542829505273,-84.34486671305838
"30292","Williamson","GA","Old Middle School Gym.","not_available","30292",33.10508728027344,-84.34467315673828
"30293","Woodbury","GA","The Frank C. Ruzycki Center for Theraeputic Recreation","6135 Roosevelt Hwy","31830",32.88986587524414,-84.69052124023438
"30294","Ellenwood","GA","Fairview Recreation Center","28 Austin Rd","30281",33.607855,-84.18709100000001
"30296","Riverdale","GA","Virginia Burton Gray Recreation Center","not_available","30296",33.591264789255575,-84.4376450256813
"30297","Forest Park","GA","Multifitness","819 Forest Pkwy","30297",33.619102478027344,-84.36322021484375
"30303","Atlanta","GA","Fitness Center @ Atlanta Marriott Marquis","Peachtree Center Ave","30303",33.76144784257594,-84.38427917398388
"30303","Atlanta","GA","Student Recreation Center","101 Piedmont Ave SE","30303",33.75232496440814,-84.38432067342521
"30303","Atlanta","GA","Sheraton Atlanta Fitness Center","not_available","30303",33.760550598267905,-84.38577754619904
"30303","Atlanta","GA","Fitness Center At Omni Hotel","not_available","30313",33.75901555953395,-84.39461920122896
"30303","Atlanta","GA","Kosha's Office","125 Decatur St SE","30303",33.75190353393555,-84.38634490966797
"30303","Atlanta","GA","Sweatshop Boxing & Fitness","555 Whitehall St SW","30303",33.74305460029342,-84.40618199894428
"30303","Atlanta","GA","William-Oliver Gym","Peachtree Street NW","30303",33.754745117784864,-84.38976287841797
"30303","Atlanta","GA","Georgia State Football Equipment Room","182 Decatur street","not_available",33.74856289681945,-84.381846328652
"30303","Atlanta","GA","Pencil Factory Gym","349, Atlanta, GA","30312",33.74964087989181,-84.37871215542238
"30303","Atlanta","GA","191 Resolution Fitness","191 Peachtree St NE Ste 300","30303",33.75905810155014,-84.38753667853118
"30303","Atlanta","GA","Turner Athletic Club","@ CNN Center","30303",33.75723427794673,-84.39537148088785
"30303","Atlanta","GA","Gym @ Best Western","330 W Peachtree St NW","30308",33.763627,-84.387904
"30303","Atlanta","GA","Centennial House Fitness Center","not_available","30308",33.764444787627255,-84.39088251585078
"30303","Atlanta","GA","Fitness Room at Embassy Suites","267 Marietta St NW","30313",33.76073455810547,-84.39464569091797
"30303","Atlanta","GA","SHAPE-DAT-BODY","238 Walker St SW #14","30313",33.748321533203125,-84.40218353271484
"30303","Atlanta","GA","SNAFC Fitness center","100 Alabama St SW","30303",33.753116607666016,-84.39158630371094
"30303","Atlanta","GA","APD Gym","226 Peachtree St SW","30303",33.748043060302734,-84.3945083618164
"30303","Atlanta","GA","BodyPlex Gym","215 Peachtree St NE","30303",33.75964905558176,-84.38740739814267
"30305","Atlanta","GA","BTB Crossfit Buckhead","3209-R Maple Drive NE","30305",33.84290254708404,-84.37198737440511
"30305","Atlanta","GA","771 Lindbergh Apartments","771 Lindbergh Dr NE","30324",33.8197943,-84.3624567
"30305","Atlanta","GA","Orangetheory Fitness Atlanta Buckhead","3097 Piedmont Rd NE","30305",33.84007469118812,-84.369243242153
"30305","Atlanta","GA","Post Alexander","3410 Alexander Rd NE","30326",33.853411589606154,-84.3663960997008
"30305","Atlanta","GA","LA Fitness","3535 Peachtree Rd NE Ste 300","30326",33.851952430627406,-84.36017049662972
"30305","Atlanta","GA","AK Crossfit","764 Miami Cir NE Ste 206","30324",33.83121789898994,-84.36272679965525
"30305","Atlanta","GA","Family Life Center","2715 Peachtree Rd NE","30305",33.829623234174704,-84.38578036367224
"30305","Atlanta","GA","CYB Fitlab Gym","3098 Piedmont Rd","not_available",33.840231,-84.369973
"30305","Atlanta","GA","Third Eye Tribe","2140 Peachtree Rd NW #230","30309",33.81276321411133,-84.39360046386719
"30305","Atlanta","GA","Energym","741 Morosgo Dr NE","30324",33.823063697385464,-84.36482114781258
"30305","Atlanta","GA","Orangetheory Fitness","857 Collier Rd NW","30318",33.81017701485273,-84.41565070371988
"30305","Atlanta","GA","Forum Athletic Club","3393 Peachtree Rd NE Ste 2010","30326",33.84669515876004,-84.36176989792828
"30305","Atlanta","GA","Solcioty Fitness Buckhead","3655 Roswell Rd NE Ste 144A","30342",33.855468794246335,-84.38131432009891
"30305","Atlanta","GA","Burn Studios","3804 Roswell Rd NE","30342",33.8584486,-84.3825456
"30305","Atlanta","GA","LA Fitness","3232 Peachtree Rd NE Ste A","30305",33.8441207,-84.374043
"30305","Atlanta","GA","Total Row","3655 Roswell Rd NE #204","30342",33.855411607359834,-84.38187092510684
"30305","Atlanta","GA","Gym @ Habersham Estates","3060 Pharr Court North NW","30305",33.838555493988665,-84.38405831232446
"30305","Atlanta","GA","Post Lindbergh Gym","478 Lindbergh Pl NE","30324",33.81962760105493,-84.37174755009492
"30305","Atlanta","GA","CycleBar Buckhead","3280 Peachtree Rd NE Ste 155","30305",33.8450413,-84.3717968
"30305","Atlanta","GA","Eon @ Lindbergh Gym","2450 Camellia Ln NE","30324",33.82283187110777,-84.37136655602633
"30305","Atlanta","GA","Operation Bootcamp","Miami Circle","30324",33.83132631985589,-84.3626644099562
"30305","Atlanta","GA","BVL Gym","3235 Roswell Rd NE","30305",33.843489,-84.37843000000001
"30305","Atlanta","GA","Barry's Bootcamp","303 East Paces Ferry Rd","30305",33.83897622216703,-84.37812035060252
"30305","Atlanta","GA","Peachtree Park Gym","not_available","30309",33.8124974,-84.38471068571428
"30306","Atlanta","GA","Urban Body Fitness","500 Amsterdam Ave NE Ste R","30306",33.7891508043562,-84.36989710157764
"30306","Atlanta","GA","Pure Barre Virginia Highlands","1402 N Highland Ave NE Ste 4","30306",33.7928291,-84.352453
"30306","Atlanta","GA","Strength Lab","1874 Piedmont Road Ne, Suite 420-D","30324",33.807791905397046,-84.36728964452105
"30306","Atlanta","GA","CorePower Yoga","650 North Avenue NE, Suite S111","30308",33.7721545,-84.367116
"30306","Atlanta","GA","Virginia Highlands Fitness Center","609 Virginia Ave NE","30306",33.78112266409692,-84.36710487344111
"30306","Atlanta","GA","Emory Point","855 Emory Point Dr","30329",33.8015272,-84.3281354
"30306","Atlanta","GA","","400 Candler Street NE","30307",33.76716285918572,-84.34591435131341
"30306","Atlanta","GA","BTB Crossfit Ponce","696 Cleburne Ter NE Ste A","30306",33.77331611279516,-84.35369906849996
"30306","Atlanta","GA","Crossfit Identity","1185 Zonolite Rd NE","30306",33.806144516195616,-84.34110011168319
"30306","Atlanta","GA","Seminole Studios","675 Seminole Ave NE","30307",33.77275085449219,-84.35015106201172
"30306","Atlanta","GA","Gables Rock Springs Gym","not_available","30306",33.792583534232215,-84.34069465531502
"30306","Atlanta","GA","Snap Fitness","1799 Q2 Briarcliff Rd.","30306",33.804613797206954,-84.33572125322614
"30306","Atlanta","GA","Trinity Fitness","828 Ralph McGill Blvd NE","30306",33.768272393423096,-84.36040157943233
"30306","Atlanta","GA","BTB Boot Camp - Freedom","North Ave. and N. Highland.","30307",33.77025482193656,-84.35323702927705
"30306","Atlanta","GA","ITP Fitness","500 Amsterdam Ave NE","30306",33.789182164575905,-84.36970243537485
"30306","Atlanta","GA","Orangetheory Fitness Atlanta Emory","1627 Clifton Rd NE Ste 105","30329",33.80108304700479,-84.32827149539678
"30306","Atlanta","GA","Power Up Martial Arts","2084 Cheshire Bridge Rd NE Ste B","30324",33.8091445,-84.3612948
"30306","Atlanta","GA","Monroe Place Gym","2000 Monroe Pl NE","30324",33.810253,-84.370124
"30306","Atlanta","GA","FitWit Midtown","Virginia Ave","30306",33.78170428290789,-84.36381025802834
