"zip","city","state","name","address","postalCode","lat","lon"
"27006","Advance","NC","Jerry Long YMCA","1150 S Peace Haven Rd","27012",36.03945059379127,-80.39301767607056
"27006","Advance","NC","Seldom Farm Gym","not_available","not_available",35.99165760511076,-80.44004671377553
"27006","Advance","NC","Got Sun","2565 Old Glory Rd","27012",36.026755,-80.383509
"27006","Advance","NC","Studio ZT","not_available","27006",36.00585464008328,-80.44183060731586
"27006","Advance","NC","CSA Gym","not_available","27103",36.040459471471344,-80.37190289755533
"27006","Advance","NC","In Flight Gymnasium","162 Hillsfale West Drive","27006",35.986332,-80.430716
"27006","Advance","NC","Fitness Edge","6000 Meadowbrook Mall Ct Ste 26","27012",36.03344877993693,-80.38142681121826
"27006","Advance","NC","Phenom Fitness","6311 Stadium Dr","27012",36.0310199,-80.38060229999996
"27006","Advance","NC","Planet Fitness","6350 Clemmons Point Dr Ste 200","27012",36.0362488,-80.3875245
"27006","Advance","NC","Torque Performance & Fitness","5539 US Highway 158 Ste 101B","27006",36.007629,-80.430088
"27006","Advance","NC","Bermuda Village","142 Bermuda Village Dr","27006",35.995152000000004,-80.432523
"27006","Advance","NC","Lilly's Sport Center","not_available","27012",36.00536039507716,-80.39317489427894
"27011","Boonville","NC","Zumba","not_available","27011",36.232880522841455,-80.70966286849277
"27012","Clemmons","NC","Workout Anytime Winston-Salem","580 Hanes Mall Blvd","27103",36.06384670656134,-80.30298877316477
"27012","Clemmons","NC","Woman's Health And Wellness","Jonestown rd","not_available",36.06980708439582,-80.34078734895515
"27012","Clemmons","NC","24/7 Fitness & Martial Arts","3098 Healy Dr","27103",36.073895,-80.3047695
"27012","Clemmons","NC","Fitness 2000","5086 Styers Ferry Rd","27012",36.07672093859517,-80.39198197282163
"27012","Clemmons","NC","Glendare Park Fitness Center","not_available","27104",36.074074,-80.329954
"27012","Clemmons","NC","Hartstrong Training","3300 Healy Dr","27103",36.074957,-80.30627700000001
"27012","Clemmons","NC","The Rush","Jonestown Road","27103",36.04748002345945,-80.31025270750344
"27012","Clemmons","NC","iLovekickboxing - Winston-Salem, NC","3248 Silas Creek Pkwy","27103",36.0701968,-80.2948543
"27013","Cleveland","NC","24/7 Total Fitness","11739 Statesville Blvd","27013",35.728726,-80.69395899999999
"27017","Dobson","NC","Superflex","not_available","28621",36.25752761427904,-80.8842498699538
"27017","Dobson","NC","Surry County Gym","State St","27030",36.478126,-80.621429
"27017","Dobson","NC","Fairfield Inn & Suites Fitness Room","628 Cc Camp Rd","28621",36.279327392578125,-80.82427978515625
"27021","King","NC","Curves","124 W King St, King, NC 27021","27021",36.26471077722405,-80.36347523641666
"27021","King","NC","Fitness 2000","607 S Main St #G","27021",36.265297538384544,-80.35947086937145
"27023","Lewisville","NC","Brookberry Farm Gym","not_available","27106",36.107489,-80.370062
"27023","Lewisville","NC","beach body fitness","not_available","27023",36.110107421875,-80.39979553222656
"27023","Lewisville","NC","Troop 919","6153 Yadkinville Road","27040",36.138519287109375,-80.40008544921875
"27025","Madison","NC","Curves","502 S Second St","27025",36.402477307154214,-79.96971239247934
"27025","Madison","NC","gym","not_available","27025",36.382301330566406,-80.00215148925781
"27028","Mocksville","NC","Davie Family YMCA","215 Cemetery St","27028",35.90530023522181,-80.55562971135754
"27028","Mocksville","NC","Pudding Ridge Hills","Pudding Ridge Rd","27028",35.98913611779696,-80.54329972541996
"27030","Mount Airy","NC","Pro Health Fitness","280 N Pointe Blvd","27030",36.517686612952375,-80.62810380804783
"27030","Mount Airy","NC","Anytime Fitness","844 N Main St","27030",36.50878,-80.60948
"27030","Mount Airy","NC","Edward M. Armfield, Sr.Civic & Recreation Center","873 W 52 Bypass","27041",36.394565448396435,-80.48172844527106
"27040","Pfafftown","NC","Robinhood Road Family YMCA","3474 Robinhood Rd","27106",36.11733126504289,-80.31748724018462
"27040","Pfafftown","NC","Providence Pointe Fitness Center","Reynolda Road","27106",36.164924845791504,-80.32765639809354
"27040","Pfafftown","NC","Parker's Gym","not_available","27040",36.20158156753331,-80.32297804743128
"27051","Walkertown","NC","Extreme Fitness","5088 Harley Dr","27051",36.173903,-80.154902
"27051","Walkertown","NC","Planet Fitness","Winston Rd","not_available",36.170093,-80.179608
"27051","Walkertown","NC","Total Strength Training","not_available","27101",36.16515866666666,-80.15943186666667
"27055","Yadkinville","NC","Yadkin Family YMCA","6540 Service Rd","27055",36.117780974524884,-80.63525411494089
"27055","Yadkinville","NC","Curves","938 S State St","27055",36.117676,-80.661524
"27101","Winston Salem","NC","William G White YMCA","775 W End Blvd","27101",36.09677662855898,-80.26259343631087
"27101","Winston Salem","NC","YWCA","1300 S Main St","27127",36.07944814779356,-80.24167793354526
"27101","Winston Salem","NC","Blue Moon","not_available","32814",36.115759517099534,-80.22173076868057
"27101","Winston Salem","NC","Top Tier CrossFit","610 N Liberty St","27101",36.101788,-80.245879
"27101","Winston Salem","NC","Park Building Gym","101 N Cherry St","27101",36.09497810706151,-80.24569830601625
"27101","Winston Salem","NC","YMCA of North West North Carolina Corp Office","301 N Main St","27101",36.09819793701172,-80.24357604980469
"27101","Winston Salem","NC","Custom Training Concepts","1152 Salem Lake Rd","27107",36.085813,-80.191684
"27101","Winston Salem","NC","Enfinity Fit","1055 Northwest Blvd","27104",36.10267626825658,-80.2620497205716
"27101","Winston Salem","NC","Triad boxing & fitness","1001 S Marshall St","27101",36.082679999999996,-80.24252
"27101","Winston Salem","NC","Ovation Fitness","321 S Liberty St","27101",36.091328999999995,-80.243454
"27101","Winston Salem","NC","Winston Lake Family YMCA","901 Waterworks Rd","27101",36.1125528014341,-80.20406174780321
"27101","Winston Salem","NC","Gallery Lofts Gym","181 E 6th St","27101",36.10196022906742,-80.24311812758135
"27101","Winston Salem","NC","Master's Fitness","214 N Broad St","27101",36.09603957018668,-80.2555973648078
"27101","Winston Salem","NC","Jack King's Gym","880B Peters Creek Pkwy","27103",36.07853312,-80.25891869
"27101","Winston Salem","NC","Core Fitness","not_available","27105",36.104025346528424,-80.26417191251902
"27101","Winston Salem","NC","Core fitness and martial arts","not_available","27284",36.092081386769856,-80.13770186497683
"27101","Winston Salem","NC","CYCLEBAR","400 W 4th St Ste 120","27101",36.0978491,-80.2480193
"27101","Winston Salem","NC","F45 Training Winston-Salem","486 N Patterson Ave","27101",36.0996909,-80.2415072
"27103","Winston Salem","NC","Orangetheory Fitness","367 Lower Mall Dr","27103",36.091468,-80.285318
"27103","Winston Salem","NC","Pure Barre","205-P South Stratford Road","27103",36.0921320269696,-80.27891781216431
"27103","Winston Salem","NC","The Edge Flats Gym","151 Edgeway Dr","27104",36.093257904052734,-80.27104949951172
"27103","Winston Salem","NC","Winston-Salem CrossFit","140 Stratford Ct Ste B","27103",36.09275436401367,-80.27728271484375
"27103","Winston Salem","NC","NCBH Fitness Center","131 Miller St","27103",36.09171678268286,-80.27291227921096
"27103","Winston Salem","NC","WFBH E Hanes Fitness Center","301 S Hawthorne Rd","27157",36.090303,-80.2714614
"27103","Winston Salem","NC","Oakdale P90X","208Bradberry Suite 100","27104",36.091518,-80.325572
"27103","Winston Salem","NC","Crossfit Amplitude","3905 Country Club Rd, Winston-Salem, NC 27104","27104",36.09030106428759,-80.31658512111107
"27104","Winston Salem","NC","Forsyth CC Fitness Center","Country Club Rd","27104",36.099543708092774,-80.29853488321463
"27104","Winston Salem","NC","Smiley's Fitness","745 N Avalon Rd","27104",36.11127853393555,-80.28417205810547
"27104","Winston Salem","NC","LA Fitness","240 Harvey St","27103",36.08512,-80.29518
"27104","Winston Salem","NC","Madison Hall workout room","idols rd","27012",36.1180772,-80.31117076666666
"27105","Winston Salem","NC","Camel City Crossfit","4994 Indiana Ave","27106",36.154052734375,-80.27770233154297
"27105","Winston Salem","NC","Airbound Trampoline Park","7840 N. Point Blvd.","27106",36.1518873745006,-80.2754481376079
"27105","Winston Salem","NC","Hunt Club Gym","103 Echo Glen Dr","27106",36.147413,-80.299454
"27105","Winston Salem","NC","Residence Inn Exercise Room","7835 N Point Blvd","27106",36.149753000000004,-80.276273
"27105","Winston Salem","NC","Das Weight Room.","Recycle Way","27105",36.185981742274286,-80.28310905961048
"27105","Winston Salem","NC","Anytime Fitness","482 E Hanes Mill Rd","27105",36.18791961669922,-80.26854705810547
"27105","Winston Salem","NC","Healthfit","1000 East Hanes Mill Road (inside Hanesbrand Inc)","27105",36.18989181518555,-80.26351165771484
"27105","Winston Salem","NC","Ashton Oaks Weight Room","not_available","27127",36.14816586086095,-80.28346283209596
"27106","Winston Salem","NC","Winston-Salem Personal Training","3300 Reynolda Rd","27106",36.15196228027344,-80.31072235107422
"27107","Winston Salem","NC","Planet Maines","not_available","27107",35.98427095784589,-80.17499790157441
"27107","Winston Salem","NC","The Gym At TPC","3200 Centre Park Blvd","27107",36.054222106933594,-80.17105865478516
"27127","Winston Salem","NC","Triangle Fitness","323 Millers Creek Dr","27127",35.98759020058544,-80.26924290529159
"27127","Winston Salem","NC","Courtyard Fitness Center","1600 Westbrook Plaza Dr","27103",36.068364,-80.310034
"27127","Winston Salem","NC","FMC Wellness Gym","3333 Silas Creek Pkwy","27103",36.07449579907541,-80.29820898423912
"27127","Winston Salem","NC","Gold's Gym","420-R Jonestown Road","27104",36.074425,-80.338426
"27127","Winston Salem","NC","Tinderbox Fitness For Women","690 Jonestown Rd","27103",36.068093610218234,-80.34032464027403
"27203","Asheboro","NC","New-R Bodies","W Salisbury St, Asheboro, NC 27205","27205",35.70929542605206,-79.8228647842677
"27203","Asheboro","NC","Planet Fitness","1560 E Dixie Dr","27203",35.700171000000005,-79.78272199999999
"27203","Asheboro","NC","Fit 4 Life","not_available","27203",35.71082,-79.812414
"27205","Asheboro","NC","At The Gym At Home!","not_available","27205",35.727195739746094,-79.9324722290039
"27205","Asheboro","NC","Total Fitness","1210 US Highway 64 W","27205",35.6874885559082,-79.84033203125
"27207","Bear Creek","NC","Matt's Gym","1530 Oakley Church Rd","27207",35.67345079605027,-79.49903938184129
"27214","Browns Summit","NC","pearson gym","Spenver Dixon Rd","27455",36.173316021354665,-79.72847725816679
"27214","Browns Summit","NC","Fit4Life Health Clubs","4634 Hicone Rd","27405",36.15158093470467,-79.7132670879364
"27214","Browns Summit","NC","Blackthorn Fitness Center","not_available","27214",36.14371006116616,-79.77900747231543
"27215","Burlington","NC","Windsor Gym","Stonecrest Dr","27215",36.06595693177447,-79.52463099798257
"27215","Burlington","NC","Kidsport","3370 S Church St","27215",36.07888410136014,-79.51018617788895
"27215","Burlington","NC","fit2go","not_available","27215",36.068113218044275,-79.433381946206
"27215","Burlington","NC","Alamance County Community YMCA","1346 S Main St","27215",36.08465236099302,-79.45105497042408
"27215","Burlington","NC","ARMC Gym","1236 Huffman Mill Rd","27215",36.060909271240234,-79.50163269042969
"27215","Burlington","NC","The Rush Fitness Complex","2356 S Church St","27215",36.07990584933135,-79.4755656433799
"27215","Burlington","NC","Anytime Fitness","1617 Glidewell Dr Ste 101","27215",36.06752,-79.51526
"27215","Burlington","NC","Gold's Gym","2358 South Church St.","27215",36.07950201945071,-79.47540384717286
"27215","Burlington","NC","Training Valley","Gettin big Ave","27249",36.088784539884855,-79.5468788153997
"27215","Burlington","NC","Super Fitness","562 Huffman Mill Rd","27215",36.07889627324269,-79.48720456067778
"27215","Burlington","NC","Complete Fitness for Women","1228 Plaza Dr","27215",36.068263,-79.433525
"27215","Burlington","NC","Winners Gym","1258 S Church St","27215",36.08681985322419,-79.4503720310165
"27215","Burlington","NC","Xplosion","Huffman Mill Rd","27244",36.07730125787919,-79.49049945280836
"27215","Burlington","NC","Burn Boot Camp","1071 Piper Ln","27215",36.07005,-79.51024
"27217","Burlington","NC","Just Dance","not_available","27217",36.11601,-79.446812
"27217","Burlington","NC","Hidden Physique","5th Street","27302",36.09720503883964,-79.26384341265677
"27235","Colfax","NC","Southwest Guilford Gymnasium","4364 Barrow Rd","27265",36.045915730984795,-79.98964846765068
"27239","Denton","NC","Body Fortress","not_available","27239",35.64034011875982,-80.11692918595448
"27239","Denton","NC","Shake Weight","not_available","27292",35.70642579445804,-80.10470750997817
"27243","Efland","NC","Ashbury Resident's Gym","not_available","27302",36.09575784962532,-79.24777178032252
"27249","Gibsonville","NC","Stoney Creek Express YMCA","954 Golf House Rd W Ste E","27377",36.06284291332322,-79.60330676009204
"27253","Graham","NC","Buckner Companies - Gym","4732 S NC Highway 54","27253",35.99834,-79.295376
"27253","Graham","NC","Johnson Gym","not_available","27253",35.98949640931529,-79.38047943741503
"27253","Graham","NC","Spring Forest Gym","800 Willow Brook Ct","27302",36.0661506652832,-79.2935791015625
"27253","Graham","NC","Steffen House of Fitness--Home Gym","not_available","27258",35.97495187322121,-79.27098364115751
"27253","Graham","NC","BurnRate Fitness","489 Compass Dr","27302",36.06571960449219,-79.30220794677734
"27253","Graham","NC","More than Fitness","906 S Main St","27253",36.05351239630086,-79.39963426037723
"27253","Graham","NC","Curves","101 Ivey Rd","27253",36.051736079179875,-79.39885180591858
"27253","Graham","NC","Winner's Gym","Asher St.","27215",36.05628945,-79.40793049999999
"27253","Graham","NC","The Pines Gym","Ivey Road","27253",36.05355943757605,-79.386214204752
"27253","Graham","NC","Workout Time","3220 Swepsonville Saxapahaw Rd","27253",36.01587677001953,-79.35260009765625
"27253","Graham","NC","Deerfield Crossing Gym","600 Deerfield Trce","27302",36.064518,-79.298179
"27260","High Point","NC","Planet Fitness","1116 Eastchester Dr, Ste 123","27265",35.9915099,-79.99698
"27260","High Point","NC","YMCA","150 W Hartley Dr","27265",35.99191407527071,-80.03380835074893
"27260","High Point","NC","Planet Fitness","2850 S Main St Ste 101","27263",35.9221983,-79.98100319999999
"27260","High Point","NC","Wesley Memorial Gym","not_available","27262",35.953731,-80.030385
"27260","High Point","NC","Gold's Gym","2620 N Main St.","27265",35.992767486653136,-80.02782315015793
"27260","High Point","NC","Pure Barre","1231 Eastchester Dr Ste 112","27265",35.99638151309674,-79.99693368717192
"27260","High Point","NC","Snap Fitness","108 W Main St","27282",35.994319915771484,-79.93730163574219
"27260","High Point","NC","Exile Fitness","2118 N Centennial St","27262",35.990408,-79.99954100000001
"27260","High Point","NC","planet fiitness","2850 S Main St","27263",35.92201232910156,-79.98146057128906
"27262","High Point","NC","Westchester Gym","not_available","27265",35.97387606739762,-80.08877473229862
"27263","High Point","NC","THS weight room","not_available","27370",35.89465753699308,-79.99828237581583
"27263","High Point","NC","Archdale Family Fitness","135 W White Dr","27263",35.91173115290738,-79.97481228501205
"27265","High Point","NC","Sportscenter Athletic Club","3811 Samet Dr","27265",36.02715327120811,-79.96800150087921
"27265","High Point","NC","F45 Training North Highpoint","3805 Tinsley Dr","27265",36.027214,-79.970201
"27265","High Point","NC","Volvo Gym","Albert Pick Rd.","27409",36.074739199999996,-79.95113023333334
"27265","High Point","NC","Xfit: Crossfit Athletics","Willard Dairy rd","27265",36.04344575797866,-79.96257799337452
"27265","High Point","NC","Edge Fitness and Combat Arts","5250 High Point Rd","27284",36.01957,-80.061879
"27265","High Point","NC","iLoveKickboxing - High Point, NC","3805 Tinsley Dr Ste 105","27265",36.0271876,-79.9702007
"27265","High Point","NC","Greensboro All-Star Cheerleading","701 Sunshine Way","27409",36.06932060595731,-79.95751611971924
"27265","High Point","NC","C3 Fitness","300 NC Highway 68 S","27409",36.06864547729492,-79.96117401123047
"27278","Hillsborough","NC","Orange County Sportsplex","101 Meadowlands Dr","27278",36.06160741969258,-79.07669663113242
"27278","Hillsborough","NC","Belmont Gym","601 S. Lasalle St.","27705",36.010913887154274,-78.94745151898995
"27278","Hillsborough","NC","Gym","not_available","27712",36.06572416449805,-78.94391393504662
"27278","Hillsborough","NC","Gym at Alden Place Square","not_available","27707",35.9637186686357,-78.96645437945928
"27278","Hillsborough","NC","Cedar Ridge Gym","not_available","27278",36.05397841294212,-79.126725309312
"27278","Hillsborough","NC","Alexan Garrett Farms Gym","4130 Garrett Rd","27707",35.964449,-78.978887
"27278","Hillsborough","NC","Orangetheory Fitness","1843 Martin Luther King Junior Pkwy","27707",35.96025924726621,-78.95998957389051
"27278","Hillsborough","NC","The Oakley's land","610 Continental Dr","27712",36.070879,-78.97425799999999
"27278","Hillsborough","NC","Snap Fitness","1848 Martin Luther King Jr Blvd","27514",35.967430915483,-79.05884593660308
"27278","Hillsborough","NC","Curves","1829 Martin Luther King Pkwy","27707",35.96009826660156,-78.95941162109375
"27278","Hillsborough","NC","David Tomas Executive Fitness Room","1 science drive","27705",35.99736988492596,-78.94660404072854
"27278","Hillsborough","NC","Snap Fitness","101 Parking Lot Path","27278",36.08319678567844,-79.07991607164298
"27278","Hillsborough","NC","Washington Duke Fitness Center","Washington Duke Inn & Golf Club","not_available",35.99295150737412,-78.94801258784473
"27278","Hillsborough","NC","Bull City Crossfit","4300 Garrett Rd","27707",35.958622,-78.975693
"27278","Hillsborough","NC","Pinnacle Ridge","3611 University Dr","27707",35.963748931884766,-78.95246887207031
"27278","Hillsborough","NC","Carolina Gym Supply Corporation","575 Dimmocks Mill Rd","27278",36.068417,-79.120587
"27278","Hillsborough","NC","TC Gym","2530 Erwin Rd","27705",36.00892548192408,-78.94392690979997
"27278","Hillsborough","NC","Heritage Gym","405 Thomas Burke Dr","27278",36.060977935791016,-79.1090087890625
"27278","Hillsborough","NC","mireFrat","440 Chapel Drive","not_available",35.999367,-78.939368
"27278","Hillsborough","NC","Home Gym","Chicken Ranch","not_available",36.097853,-79.072254
"27278","Hillsborough","NC","Planet Fitness","151 Mayo St","27278",36.06121305148846,-79.10616609651612
"27278","Hillsborough","NC","ActivEdge Fitness & Sports Performance","4221 Garrett Rd","27707",35.96028391738949,-78.97563178351048
"27278","Hillsborough","NC","Empower Personalized Fitness","3211 Shannon Rd","27707",35.96503005174066,-78.95464467362065
"27278","Hillsborough","NC","Orangetheory Fitness","1129 Weaver Dairy Rd","27514",35.9626465,-79.053761
"27278","Hillsborough","NC","Blue Cross NC - 250","1968 Ivy Creek Blvd","27707",35.958573450695866,-78.9630740580545
"27281","Jackson Springs","NC","#TeamGoddess Fitness Center","not_available","27376",35.24932493844525,-79.55581227152
"27282","Jamestown","NC","Gold's Gym","4835 W. Wendover Ave.","27282",36.044285,-79.924443
"27282","Jamestown","NC","The Crowne at James Landing","4610 Crowne Lake Cir","27282",36.04368594522219,-79.9290132522583
"27282","Jamestown","NC","Bridford Lake Apartments","1150 Bridford Lake Cir","27407",36.04482775729102,-79.9053470350192
"27282","Jamestown","NC","Bridford Lakes Gym","not_available","27407",36.04304885864258,-79.90294647216797
"27282","Jamestown","NC","The Drunk Pool","4411 Crowne Lake Cir","27282",36.04096221923828,-79.9326171875
"27282","Jamestown","NC","Ragsdale YMCA","900 Bonner Dr","27282",35.999326427959964,-79.91126210134807
"27282","Jamestown","NC","Orangetheory Fitness","5710 W Gate City Blvd","27407",36.01702,-79.897124
"27282","Jamestown","NC","Granite Ridge Apartment Gym","not_available","27409",36.048998410352084,-79.93723141418208
"27282","Jamestown","NC","Twin Oaks Gym","5269 Hilltop Rd","27407",36.03848831537971,-79.91011294062686
"27282","Jamestown","NC","The Gym","420 Right Here Pl.","27407",36.01974136,-79.90874222
"27284","Kernersville","NC","Kernersville Cheer Extreme","743 Gralin St","27284",36.11621936782421,-80.05944148721613
"27284","Kernersville","NC","Kernersville Family YMCA","1113 W Mountain St","27284",36.13194854940718,-80.09238299825236
"27284","Kernersville","NC","CrossFit Insomnia","1031 E Mountain St Bldg 309","27284",36.114166259765625,-80.05075073242188
"27284","Kernersville","NC","Fitness One","1209 Shields Rd","27284",36.09666703573993,-80.07276390482953
"27284","Kernersville","NC","PBM Fitness","110 S Main St","27284",36.12368,-80.074908
"27284","Kernersville","NC","Allen Branch's Fitness One Training Systems","1209 Shields Rd Ste 7","27284",36.0970199,-80.0731132
"27284","Kernersville","NC","Boomers","806 NC Highway 66 S","27284",36.1091194152832,-80.06343841552734
"27284","Kernersville","NC","CrossFit Oak Ridge","8309 Linville Rd","27310",36.17081830782646,-79.99683525932839
"27284","Kernersville","NC","Meadows Gym","Ellis Forest Rd, Kernersville, NC 27284","27284",36.075523376464844,-80.07422637939453
"27284","Kernersville","NC","Burn Boot Camp","810 N Main St","27284",36.12926,-80.05843
"27288","Eden","NC","Fast Fit 24 7","201 E Meadow Rd #102A","27288",36.509326,-79.741961
"27288","Eden","NC","Eden YMCA","301 S Kennedy St","27288",36.496674536420926,-79.74583380391341
"27288","Eden","NC","Bodyfit","619 Monroe St","27288",36.491429,-79.76479499999999
"27292","Lexington","NC","Planet Fitness","39 Plaza Pkwy","27292",35.7842951199308,-80.25530765648347
"27292","Lexington","NC","Carolina Conditioning and Wellness","333 Arrowhead Dr","27295",35.84817242050742,-80.20939423186717
"27292","Lexington","NC","CrossFit Hog Town","706 S Main St","27292",35.81820297241211,-80.26026916503906
"27292","Lexington","NC","The Forum","280 N Talbert Blvd","27292",35.81880890303588,-80.2397530979422
"27295","Lexington","NC","Triangle Fitness","180 hinkle lane","27295",35.91259684787667,-80.25118864556246
"27295","Lexington","NC","Snap Fitness 24/7","1723 Swicegood Rd","27299",35.7818489074707,-80.37166595458984
"27295","Lexington","NC","Cheer Mania","not_available","27295",35.91327109721092,-80.25038143795861
"27295","Lexington","NC","Arcadia Studio Fitness","8385 N North Carolina Hwy 150","27012",35.95151901245117,-80.30422973632812
"27299","Linwood","NC","Darren's P90X Gym","100 Garrick Rd, Salisbury, NC 28144","28144",35.72150174036555,-80.45158115691497
"27301","Mc Leansville","NC","Workout Time","not_available","27301",36.066061751738495,-79.68582467138171
"27301","Mc Leansville","NC","192 Flemingfield Rd. Treadmill","192 Flemingfield Rd","27301",36.100524,-79.710169
"27310","Oak Ridge","NC","Snap Fitness","1433 NC Highway 68 N","27310",36.16537632694925,-79.98433444753984
"27312","Pittsboro","NC","Breakout Martial Arts and Fitness","1089 B East St","27312",35.720053,-79.1579
"27312","Pittsboro","NC","Duke Center For Living","3000 Galloway Rdg","27312",35.793725,-79.09524
"27312","Pittsboro","NC","Cor4 Fitness","50051 Governors Dr","27517",35.855751037597656,-79.02569580078125
"27312","Pittsboro","NC","O2 Fitness Chatham","11 Cole Pl","27517",35.84635917416882,-79.08789280181107
"27312","Pittsboro","NC","Snap Fitness (Pittsboro)","120 Lowes Dr Ste 104","27312",35.74401233610358,-79.16520285310692
"27312","Pittsboro","NC","Joy of Movement","480 Hillsboro St Ste 410","27312",35.72739028930664,-79.17402648925781
"27312","Pittsboro","NC","Governors Club Fitness Center","Governors Drive","27517",35.853538717735674,-79.03752091013699
"27312","Pittsboro","NC","Pittsboro YMCA","964 East St","27312",35.71916579907189,-79.16038184243087
"27320","Reidsville","NC","Family Fitness of Reidsville","1428 Freeway Dr.","27320",36.332406,-79.690892
"27320","Reidsville","NC","Dynamic Fitness","143-177 N Scales St","27320",36.36290581666667,-79.664706
"27320","Reidsville","NC","Woodland Heights GTL","810 Lawndale Dr, Reidsville, NC 27320","27320",36.32365417480469,-79.68292999267578
"27320","Reidsville","NC","GTL - Woodland","not_available","27320",36.32437515258789,-79.68238830566406
"27320","Reidsville","NC","Reidsville Family YMCA","504 S Main St","27320",36.35586001905034,-79.66646679926156
"27325","Robbins","NC","Total Body Fitness","not_available","27325",35.433754,-79.58755500000001
"27330","Sanford","NC","Ingram Family YMCA","1907 K M Wicker Memorial Dr","27330",35.46795932096179,-79.19023464458111
"27330","Sanford","NC","Anytime Fitness","2563 Hawkins Ave","27330",35.519538,-79.18369799999999
"27330","Sanford","NC","Gym @ The Oaks Apartments","160 Peaceful Ln","27330",35.522010803222656,-79.17926788330078
"27330","Sanford","NC","Hal Meeks' Gym","3220 Keller Andrews Rd","27330",35.46098709106445,-79.20365905761719
"27330","Sanford","NC","Phalanx Crossfit","3505 Cameron Dr","27332",35.44538116455078,-79.13797760009766
"27330","Sanford","NC","SNR Express Fitness Center","2629 Darlymple St","27332",35.456912195792455,-79.14403001262674
"27330","Sanford","NC","Pfizer Gym","4300 Oak Park Rd","27330",35.53989777990568,-79.17477896330631
"27330","Sanford","NC","Crossfit Sanford","2835 Lee Ave","27332",35.451746,-79.145894
"27330","Sanford","NC","Sanford Latin Dance LLC","109 South Steele St.","27330",35.480751037597656,-79.17874908447266
"27330","Sanford","NC","Gym At Falls Creek Apartment","901 Falls Creek Dr","27330",35.483442,-79.202534
"27330","Sanford","NC","Lee County Gymmastics","not_available","27330",35.46260111709968,-79.15320842429131
"27330","Sanford","NC","Phalanx Fitness","2748  Industrial Dr","27332",35.452187,-79.15059000000001
"27330","Sanford","NC","Lee County YMCA","860 Spring Ln","27330",35.48847757750471,-79.19519025263264
"27330","Sanford","NC","Cheer Extreme","not_available","27332",35.447221,-79.142501
"27330","Sanford","NC","Curves","Jefferson Davis Highway","27330",35.461094333333335,-79.17450663333334
"27330","Sanford","NC","Studio C Fitness","1809 Hawkins Ave","27330",35.50754928588867,-79.17951202392578
"27332","Sanford","NC","SkyHard Gym","not_available","28326",35.289408,-79.228067
"27344","Siler City","NC","Easy Tan Fitness Center","not_available","27344",35.72186989371637,-79.46567320639866
"27344","Siler City","NC","Triangle Fitness","118 Siler Xing","27344",35.73520213254318,-79.43738133309772
"27358","Summerfield","NC","Spears Family YMCA","3216 Horse Pen Creek Rd","27410",36.14725673223605,-79.87868615499666
"27358","Summerfield","NC","Gym Time","not_available","27455",36.20811,-79.828299
"27358","Summerfield","NC","""Work Out Time""","not_available","27410",36.19497252001185,-79.8499840600933
"27358","Summerfield","NC","Gold Standard Fitness, Boot Camp","not_available","27358",36.18867298477498,-79.88959999712415
"27358","Summerfield","NC","Penton Ridge Gym","22 Penton Ridge Ct","27455",36.14502716064453,-79.84012603759766
"27360","Thomasville","NC","Planet Fitness","835 Julian Ave","27360",35.867512,-80.069821
"27360","Thomasville","NC","Fitness Factory","15 Laura Ln","27360",35.862937,-80.068558
"27360","Thomasville","NC","Twirkin it","not_available","27360",35.89560443738136,-80.10096049050865
"27376","West End","NC","Anytime Fitness Pinehurst","110 Ivey Ln","28374",35.204342,-79.485272
"27376","West End","NC","springhill suites gym","not_available","28387",35.206792453948424,-79.48167896811502
"27376","West End","NC","My Gym","not_available","28374",35.206189,-79.511619
"27377","Whitsett","NC","Waterbury Gym","not_available","27377",36.04444607702433,-79.59302033301641
"27379","Yanceyville","NC","Body Dynamics Gym","133 Main St","27379",36.403690000000005,-79.337193
"27401","Greensboro","NC","Foundation Fitness","220 Battleground Ave","27408",36.08745452871735,-79.80689713705812
"27401","Greensboro","NC","The Gym @CityView","not_available","27406",36.067898982504445,-79.78563076690281
"27401","Greensboro","NC","College Hill Crossfit","not_available","27403",36.06560892223301,-79.80244278493825
"27401","Greensboro","NC","City Health Club Gym","not_available","27401",36.07225549722051,-79.79020328443228
"27401","Greensboro","NC","Bryan Family YMCA","501 W Market St","27401",36.07225479854872,-79.79672746750666
"27401","Greensboro","NC","Emisare Fitness Club","532 S Elm St Ste 220","27406",36.06611790186447,-79.79103249976221
"27401","Greensboro","NC","Penthouse Gym","360 S Elm St","27401",36.06816482543945,-79.79120635986328
"27401","Greensboro","NC","National Guard PT","110 Franklin Blvd","27401",36.08186340332031,-79.7415542602539
"27401","Greensboro","NC","Hayes-Taylor YMCA","1101 E Market St","27401",36.05527793537217,-79.74875715936572
"27401","Greensboro","NC","Man Cave","801 Garrett St","27406",36.046492,-79.80869100000001
"27403","Greensboro","NC","Out of Step CrossFit","1605 W Lee St","27403",36.060724,-79.818294
"27403","Greensboro","NC","Sheraton Greensboro Workout Center","3121 W Gate City Blvd","27407",36.041954040527344,-79.84089660644531
"27403","Greensboro","NC","Greensboro Boxing Gym & Club","Lindley Park","27405",36.06543691990635,-79.84232608223755
"27403","Greensboro","NC","College Hill Collective","1208 Oakland Ave","27403",36.063491,-79.816275
"27405","Greensboro","NC","GCC Fitness Center","not_available","27408",36.097804013272835,-79.79577569464283
"27405","Greensboro","NC","Gold's Gym","2400 16th St. Greensboro","27405",36.110915000000006,-79.74845400000001
"27405","Greensboro","NC","The Rush Fitness Complex","not_available","27405",36.111128023676834,-79.74838305318201
"27405","Greensboro","NC","Fitness Together - Greensboro","305 Pisgah Church Rd","27455",36.1320539,-79.794504
"27405","Greensboro","NC","Fitness by Design","2710 Henry St #100A","27405",36.115871999999996,-79.78450500000001
"27406","Greensboro","NC","Gold's Gym","3120 Randleman Rd. Greensboro","27406",36.00889,-79.806963
"27406","Greensboro","NC","CrossFit Versatile","1105 Park Ter","27403",36.0642225729493,-79.85764327285233
"27406","Greensboro","NC","The Club at Oak Branch","21 Oak Branch Dr","27407",36.05789650465876,-79.86480802746699
"27406","Greensboro","NC","Bikini Bottom","4220 Pleasant Garden Rd","27406",35.997617,-79.7795
"27406","Greensboro","NC","Versatile Fitness","307 S Westgate Dr","27407",36.064173,-79.85782900000001
"27406","Greensboro","NC","Fitness1Studios","307 Pomona Dr Ste E","27407",36.06584548950195,-79.8646469116211
"27406","Greensboro","NC","Abernathy Gym","3624 Belmont St","27406",36.022056579589844,-79.82321166992188
"27406","Greensboro","NC","Snap Fitness","1050 Alamance Church Rd","27406",36.040279388427734,-79.77053833007812
"27406","Greensboro","NC","Brown Recreation Center","302 E Vandalia Rd","27406",36.014693,-79.784763
"27407","Greensboro","NC","Planet Fitness","4640 West Market St, Ste 101","27407",36.07161,-79.866502
"27407","Greensboro","NC","Daliana Dance","Wendy Ct","27408",36.076306,-79.896636
"27407","Greensboro","NC","The Coffee Bar @ Amesbury","5328 W Market St","27409",36.072845,-79.883972
"27407","Greensboro","NC","Heart In Sol","624 Guilford College Rd Ste B","27409",36.06454938208009,-79.90664143272684
"27407","Greensboro","NC","Fitness Zone","5715 W Market St Ste B","27409",36.075835,-79.895785
"27408","Greensboro","NC","The Club at Green Valley","1909 Lendew St","27408",36.09421615194008,-79.82002485765237
"27408","Greensboro","NC","Pure Barre","1310 Westover Ter Ste 105","27408",36.089874786943554,-79.81302044513802
"27408","Greensboro","NC","The Little Gym of Greensboro","3369 Battleground Ave","27410",36.1212634817951,-79.84577758883864
"27408","Greensboro","NC","RockBox Fitness Greensboro","2601 Lawndale Dr","27408",36.1018545,-79.8205258
"27408","Greensboro","NC","Orangetheory Fitness","1410 Westover Terrace, Suite 100 B","27408",36.09102861518807,-79.81379295193948
"27408","Greensboro","NC","Lewis Recreation Center","3110 Forest Lawn Dr","27455",36.11792085957062,-79.83575538644655
"27408","Greensboro","NC","Planet Fitness","3313 Battleground Ave","27410",36.12278209999999,-79.84546410000002
"27408","Greensboro","NC","Workout Anytime","2403 Battleground Ave","27408",36.103345138811214,-79.82484804271449
"27408","Greensboro","NC","Finally Fit/Suck It Up Fitness","2616 Lawndale Dr Ste F","27408",36.10434159336746,-79.81822203393607
"27408","Greensboro","NC","F45 Training Greensboro North","2800 Lawndale Dr","27408",36.105494,-79.818674
"27408","Greensboro","NC","Proximity Fitness Studio","704 Green Valley Rd","27408",36.08919143676758,-79.82124328613281
"27409","Greensboro","NC","Tumblebees Team Training","Downwind Dr","27409",36.0827926343062,-79.92868983629322
"27409","Greensboro","NC","Proehlific Park","4517 Jessup Grove Rd","27410",36.140081004285435,-79.88700857288683
"27409","Greensboro","NC","A.C.T. By Deese","435 Dolley Madison Rd","27410",36.086238969741004,-79.8874164573094
"27409","Greensboro","NC","Absolute Fitness","1570 Highwoods Blvd Ste B","27410",36.111014000000004,-79.87767
"27409","Greensboro","NC","Anytime Fitness","5605 W Friendly Ave","27410",36.08818,-79.88529
"27409","Greensboro","NC","The Ultimate Climbing Gym","6904 Downwind Rd","27409",36.08292007446289,-79.92790222167969
"27410","Greensboro","NC","Gold's Gym","3711 Battleground Ave.","27410",36.1305166,-79.857895
"27410","Greensboro","NC","Strive Fitness","3726 Battleground Ave Ste B","27410",36.13318946448339,-79.85654237288657
"27501","Angier","NC","Fit 4 Life","Hwy 210","27504",35.51802168445712,-78.56172563770394
"27501","Angier","NC","Fit4Life Health Clubs","12330 NC Highway 210 Ste 115","27504",35.517032623291016,-78.56194305419922
"27501","Angier","NC","Heart Start Cardio","not_available","27592",35.545047302155616,-78.56743537338423
"27501","Angier","NC","A Gym Close By","not_available","27501",35.50754538676716,-78.73934344924331
"27502","Apex","NC","Vision Martial Arts","5408 Apex Peakway","27502",35.73788833618164,-78.86592102050781
"27502","Apex","NC","APD Gym","205 Saunders St","27502",35.731862,-78.852177
"27502","Apex","NC","Apex High Weight Room","not_available","27523",35.745799020876255,-78.8383224161203
"27502","Apex","NC","Rugged Fit","320 N Salem St","27502",35.734082,-78.849308
"27502","Apex","NC","Crossfit Surmount","7301 Vanclaybon Rd","27523",35.74451429993285,-78.9132373545272
"27502","Apex","NC","Zumba","1040 Vision Dr","27523",35.74979782104492,-78.87826538085938
"27502","Apex","NC","Jazzercise, Perry Rd, Apex","869 Perry Rd","27502",35.719732,-78.844794
"27502","Apex","NC","Peak Performance","1500 Town Side Dr Ste 103","27502",35.72535,-78.87646
"27502","Apex","NC","Apex Recreation Center","53 Hunter St","27502",35.73372070459666,-78.84602436987079
"27502","Apex","NC","Fit For Life 24","814 Perry Rd","27502",35.720727784181754,-78.8447231181227
"27502","Apex","NC","F45 Training West Apex","1756 Olive Chapel Road","27502",35.7353207,-78.8954514
"27502","Apex","NC","NuLevel Fitness","2008 Production Dr","27539",35.714372999999995,-78.822221
"27502","Apex","NC","Blue Avenger Training Center","not_available","27502",35.73494314541703,-78.89837521259022
"27502","Apex","NC","Camden Lake Pine Fitness Center","2900 Park Summit Blvd.","27523",35.74767963007557,-78.82387383053566
"27502","Apex","NC","Gym @ Creekside","1000 Creekside Hills Dr","27502",35.734619140625,-78.89845275878906
"27502","Apex","NC","CrossFit Embark","1229 Perry Rd","27502",35.711996,-78.851748
"27502","Apex","NC","KX Fitness","908 W Williams St","27502",35.740327,-78.866099
"27504","Benson","NC","TNT Fitness & Tanning","103 W Parrish Dr","27504",35.380773473126624,-78.54919998597038
"27504","Benson","NC","Laborde's Elite Gym","108 Patricia Dr","27577",35.52262878417969,-78.45130157470703
"27504","Benson","NC","X-cell Fitness Personal Training","215 W Edgerton St","28334",35.309948999999996,-78.611565
"27504","Benson","NC","Ivey's GYM","not_available","27524",35.48204196765675,-78.52626115183855
"27504","Benson","NC","Clarence Lee Tart Memorial Park","S Elm St","28334",35.29587181019721,-78.61112025622073
"27504","Benson","NC","Gym's Jim","not_available","27577",35.54489517211914,-78.44989776611328
"27509","Butner","NC","lifestyle fitness","not_available","27509",36.133057510257466,-78.7590526360473
"27510","Carrboro","NC","O2 Fitness","503 W Main St","27510",35.9125357135563,-79.07888258379923
"27510","Carrboro","NC","My Gym","1100 W NC Highway 54 Byp","27516",35.9001579284668,-79.06570434570312
"27510","Carrboro","NC","Ashbrook Apartmens Gym","not_available","27510",35.903431794513224,-79.08725772905059
"27510","Carrboro","NC","The Gym at Rock Creek Apts","100 Rock Haven Rd","27510",35.89287,-79.08160699999999
"27510","Carrboro","NC","The Gym at the Crest","The Crest Apartments","27510",35.91193495603092,-79.09253609259952
"27510","Carrboro","NC","Balanced Movement Studio","304 W Weaver St #103","27510",35.91136885256623,-79.07485766691124
"27510","Carrboro","NC","Greenbridge - Gym","601 W Rosemary St Fl West","27516",35.91093444824219,-79.06513977050781
"27511","Cary","NC","Anytime Fitness Cary","1207 Kildaire Farm Rd","27511",35.764027,-78.7819
"27511","Cary","NC","Life Time Fitness","1700 Regency Pkwy","27518",35.73369428,-78.78715887
"27511","Cary","NC","Championship Martial Arts - Cary","8111 Tryon Woods Dr Ste 201","27518",35.74679963701879,-78.7427487574626
"27511","Cary","NC","Rex Wellness Center of Cary","1515 SW Cary Pkwy","27511",35.75361701533023,-78.81058919244117
"27511","Cary","NC","Windsor Gym","2000 Crossroads Manor Ct","27518",35.75028389056054,-78.74393718201942
"27511","Cary","NC","The Little Gym of Raleigh/Cary","958 High House Rd","27513",35.78878992199441,-78.82679403840271
"27511","Cary","NC","Medi-Weightloss","530 New Waverly Pl","27518",35.73673629760742,-78.77603912353516
"27511","Cary","NC","Pure Barre","2044 Kildaire Farm Rd","27518",35.73599657016889,-78.78173769940565
"27511","Cary","NC","Team Care","1311 Kildaire Farm Rd","27511",35.759765625,-78.78193664550781
"27511","Cary","NC","Century Tryon Place Fitness Center","4101 Skye Ln","27518",35.74258041381836,-78.76072692871094
"27511","Cary","NC","CPD Gym","120 Wilkinson Ave","27513",35.789981842041016,-78.77938842773438
"27511","Cary","NC","Acadia","8420 Chapel Hill Rd","27513",35.791629791259766,-78.78001403808594
"27511","Cary","NC","CorePower Yoga","302 Colonades Way, Suite 214","27518",35.7382244,-78.77826739999999
"27511","Cary","NC","Jazzercise Fitness Center of Cary","1070 W Chatham St","27511",35.773037,-78.80372
"27511","Cary","NC","Hawthorn Suites Gym","1020 Buck Jones Rd","27606",35.77072525024414,-78.74134063720703
"27511","Cary","NC","Park Apartments Fitness Center","not_available","27511",35.735582160304425,-78.7781996192804
"27511","Cary","NC","Workout Anytime","1235 NW Maynard Rd","27513",35.78440097220239,-78.81201848295963
"27511","Cary","NC","Life Time Alpha","not_available","27518",35.731304,-78.788119
"27511","Cary","NC","Vision Martial Arts","683 Cary Towne Blvd","27511",35.776841,-78.766871
"27511","Cary","NC","steel blue personal training","1305 Buck Jones Rd","27606",35.764671,-78.74244399999999
"27511","Cary","NC","Koko FitClub - Cary","1105 Tryon Village Dr Ste 302","27518",35.7470727,-78.7433029
"27511","Cary","NC","Fitness Center @ The Wingate Cary, Nc","not_available","27607",35.789695,-78.743639
"27513","Cary","NC","basement gym","not_available","27513",35.80735815261203,-78.77670018117635
"27513","Cary","NC","Orangetheory Fitness","1112 Market Center Dr","27560",35.807894123542354,-78.81558372467228
"27513","Cary","NC","Pure Barre","1412 Village Market Pl","27560",35.806773,-78.814596
"27513","Cary","NC","Burn boot camp Wakefield commons","14460 falls of the neuse, suite 25","27614",35.8399076237786,-78.7803840637207
"27513","Cary","NC","Huntington Athletic Club Gym","2408 Duck Pond Cir","27560",35.81249237060547,-78.84131622314453
"27513","Cary","NC","Camden Westwood Fitness Center","2100 Summit Ridge Loop","27560",35.81269217758564,-78.82074131085228
"27513","Cary","NC","Gym","2201-2699 Ridgemont Hill Rd","27513",35.79536065714286,-78.81656169891357
"27513","Cary","NC","VMware Gym","not_available","27519",35.83194287148602,-78.84735086266753
"27513","Cary","NC","Fitness Together","1057 Darrington Dr","27513",35.79913850559961,-78.81563746258298
"27513","Cary","NC","Colonial Village Gym","Grande Heights Drive","27513",35.80447044926225,-78.78528748844536
"27513","Cary","NC","Hidden Oaks Fitness Room","Hidden Oaks Dr","27513",35.804464280620124,-78.77563768025988
"27513","Cary","NC","NC Elite","not_available","27709",35.83061572227521,-78.83240525198265
"27513","Cary","NC","Gym & Racquetball Court","300 Woodway Bluff Cir","27513",35.81887170598934,-78.80146256231846
"27513","Cary","NC","Excel Body Fitness","1001 Sheldon Drive, Suite 100","27513",35.8129475,-78.8105344
"27513","Cary","NC","Anytime Fitness","2103 Grace Park Dr","27560",35.82032,-78.84738
"27513","Cary","NC","Vision Martial Arts","3540 Davis Dr","27560",35.8191567,-78.8475991
"27513","Cary","NC","Cary CrossFit","1823 NW Maynard Rd","27513",35.796424,-78.800903
"27513","Cary","NC","Sport2Sport","not_available","27560",35.802665893341455,-78.81416320301706
"27514","Chapel Hill","NC","Orangetheory Fitness","104 Meadowmont Village Cir","27517",35.90484282764081,-79.01066668877083
"27514","Chapel Hill","NC","Student Recreation Center (SRC)","101 Student Recreation Center","27514",35.90939746830518,-79.04775601092147
"27514","Chapel Hill","NC","UNC Wellness Center","100 Sprunt St","27517",35.90801507566676,-79.00996786708129
"27514","Chapel Hill","NC","Cosgrove Hill Gym","not_available","27514",35.944231584687685,-79.01606791046635
"27514","Chapel Hill","NC","O2 Fitness","257 S Elliott Rd","27514",35.93260733224616,-79.02547207233745
"27514","Chapel Hill","NC","Title Boxing Club Chapel Hill","2140 Environ Way","27517",35.906698679239334,-79.02250528346485
"27514","Chapel Hill","NC","Re:charge","Aloft Hotel","27517",35.907729394063146,-79.02325991781593
"27514","Chapel Hill","NC","Zumbatomic (Zumba for Kids)","120 S Estes Dr","27514",35.92587661743164,-79.03287506103516
"27514","Chapel Hill","NC","Gym At East 54","1000 Environ Way","27517",35.907084000000005,-79.02195400000001
"27514","Chapel Hill","NC","Pure Barre","608 Meadowmont Village Cir","27517",35.905757706911025,-79.01026211788798
"27514","Chapel Hill","NC","Kenan-Flagler Gym","300 Kenan Center Dr","27599",35.900226,-79.046213
"27514","Chapel Hill","NC","YMCA","980 Martin Luther King Jr Blvd","27514",35.93411965158675,-79.05450554897705
"27514","Chapel Hill","NC","Chapel Hill Training","Rosemary","not_available",35.912141,-79.06280600000001
"27514","Chapel Hill","NC","Climbing Traverse","Under The Overpass","27514",35.925256,-79.053498
"27514","Chapel Hill","NC","Ladies Fitness and wellness","not_available","27517",35.93758,-79.02077
"27514","Chapel Hill","NC","Functional Fitness","605C Eastowne Dr","27514",35.951466,-79.00725
"27514","Chapel Hill","NC","AXO Gym","E. Rosemary St.","not_available",35.91600004418491,-79.05229844923103
"27514","Chapel Hill","NC","F45 Training East Chapel Hill NC","1728 N Fordham Blvd","27514",35.9374,-79.02081
"27514","Chapel Hill","NC","Pope Academic Center Weight Room","Unc","27514",35.908225396232574,-79.04691854081294
"27514","Chapel Hill","NC","Fisher May, & Associates","104 Columbia Place Dr","27516",35.921626,-79.057302
"27514","Chapel Hill","NC","University Apartments","600 M.L.K. Jr Blvd","27514",35.9183913,-79.0555706
"27514","Chapel Hill","NC","Fetzer Gym","South Rd","27514",35.90922748011691,-79.04747542954237
"27516","Chapel Hill","NC","Snap Fitness","300 Market St Ste 110","27516",35.88050667234772,-79.0652517760366
"27516","Chapel Hill","NC","Ridge Gym","101 Legacy Ter","27516",35.94696061611019,-79.06038172594505
"27516","Chapel Hill","NC","Shadowood Fitness center","Shadowood Dr","27514",35.93862692023232,-79.05493016779323
"27516","Chapel Hill","NC","Crossfit Local","7401 Rex Rd Ste 105B","27516",35.96978427911992,-79.07347855702812
"27516","Chapel Hill","NC","Dagobah System","New Hope Church Rd.","27516",35.9992522860905,-79.09566877638856
"27518","Cary","NC","Vision Martial Arts","3460 Ten Ten Rd Ste 114","27518",35.701561,-78.7930789
"27518","Cary","NC","Gym","not_available","27539",35.69568,-78.76169
"27518","Cary","NC","CrossFit APx","11301 Penny Rd","27518",35.71408577614697,-78.80835737398452
"27518","Cary","NC","Curves of South Cary","not_available","27606",35.74363815102296,-78.73793131725616
"27518","Cary","NC","Fitness Center at Legacy Crossroads Apartments","1010 Legacy Village Dr","27518",35.75647425219177,-78.73148539876843
"27518","Cary","NC","Fit Body Boot Camp","3490 Kildaire Farm Rd","27518",35.705926,-78.795746
"27518","Cary","NC","Meadows at Kildaire Exercise Room","2600 Harvest Creek Pl","27518",35.701852,-78.79677099999999
"27518","Cary","NC","Homewood Suites Gym","100 Macalyson Ct","27511",35.735069274902344,-78.80061340332031
"27519","Cary","NC","Bradford Hall","115 Allforth Pl","27519",35.83137543215619,-78.91676122522483
"27519","Cary","NC","Orangetheory Fitness","1204 Parkside Main St","27519",35.84847312031759,-78.89039473536653
"27519","Cary","NC","LifeConnections Fitness Center","7100 Kit Creek Rd","27560",35.858038478065154,-78.87711730737676
"27519","Cary","NC","Vista At The Park Apartments Gym","1200 Pickett Branch Rd","27519",35.85726020505422,-78.89709510966017
"27519","Cary","NC","Butterfly Life","2765 NC 55 Hwy","27519",35.785388,-78.872991
"27519","Cary","NC","studioVIBE","200 Cornerstone Dr Ste 103","27519",35.7878227233887,-78.8496246337891
"27519","Cary","NC","TimeOut Fitness Center @ Cisco","7100-9 Kit Creek Rd.","27709",35.85799717456149,-78.87763759234933
"27519","Cary","NC","Fitness Center at Bexley Park","100 Summer Sky Dr","27560",35.839203290635275,-78.85497447695087
"27519","Cary","NC","Bexley Fitness Center","2000 Geddy House Ln","27519",35.82264709472656,-78.85896301269531
"27519","Cary","NC","Excel Body Fitness","6911 Carpenter Fire Station Rd","27519",35.822899,-78.87838199999999
"27519","Cary","NC","iLoveKickboxing - Cary","2700 NC 55 Hwy","27519",35.784844,-78.870131
"27519","Cary","NC","CYCLEBAR","5022 Arco St","27519",35.8331524,-78.8812687
"27519","Cary","NC","Amberly Fitness Center","1075 Residents Club Dr","27519",35.8293421921412,-78.90840543656557
"27519","Cary","NC","Northwest Cary YMCA","6903 Carpenter Fire Station Rd","27519",35.823394348903975,-78.87802601362712
"27519","Cary","NC","Fitness Center @ Tradition at Stonewater Apartments","Wisdom Dr","27560",35.8447522170805,-78.89686760423247
"27519","Cary","NC","NetApp RTP Fitness Center","7301 Kit Creek Rd Bldg 3","27709",35.85647833926109,-78.8860623857006
"27519","Cary","NC","Morrisville Aquatic And Fitness Center","1301 Morrisville Pkwy","27560",35.8099869170056,-78.84083114395547
"27519","Cary","NC","Chancery Village Fitness Center","Burbage Cir","27560",35.86191030634546,-78.89580013548199
"27520","Clayton","NC","Anytime Fitness","50 Neuse River Pkwy","27527",35.64904,-78.39479
"27520","Clayton","NC","Riverwood Athletic Club","205 Athletic Club Blvd","27527",35.69345894508938,-78.4245323491304
"27520","Clayton","NC","Cpd Powerhouse Gym","315 E 2nd St","27520",35.65057751677077,-78.45858386099027
"27520","Clayton","NC","Clayton Fitness","1370 Cameron Way","27520",35.63166006681904,-78.47360498244254
"27520","Clayton","NC","Fitbody Bootcamp","not_available","27520",35.627804,-78.428995
"27520","Clayton","NC","Gold's Gym","11694 US 70 Business Hwy W","27520",35.65535847170884,-78.47462010059917
"27520","Clayton","NC","Revolution Modern Martial Arts","8970 U.S. 70 Business","27520",35.628402243710376,-78.42975311767799
"27520","Clayton","NC","Fit4Life Health Clubs","9162 Cleveland Rd","27520",35.5744535330832,-78.53644922375679
"27520","Clayton","NC","Woodall's Fitness and Performance Center","107 Best Wood Dr","27520",35.61396058283376,-78.41036170908993
"27520","Clayton","NC","P90X - Fitness Center","208Bradberry","27520",35.638202,-78.533719
"27520","Clayton","NC","Premier Athletics","231 Guy Rd","27520",35.64185827160123,-78.48064543259689
"27520","Clayton","NC","Garage Gym","not_available","27610",35.68836406,-78.55087071
"27520","Clayton","NC","Xtreme Sports","131 Guy Rd","27520",35.64110565185547,-78.47825622558594
"27520","Clayton","NC","CrossFit 4042","431 Cleveland Crossing Dr","27529",35.60662356238435,-78.55525847988852
"27520","Clayton","NC","Cleveland High Weight Room","1892 Polenta Rd","27520",35.55752182006836,-78.49960327148438
"27520","Clayton","NC","Fitness for women","Cleveland School Rd","27529",35.58863231207633,-78.55736079591014
"27521","Coats","NC","Fit 4 Life of Coats","not_available","27521",35.408174,-78.672033
"27522","Creedmoor","NC","Home Gym","not_available","27587",36.066562080395,-78.59082688169649
"27522","Creedmoor","NC","Snap Fitness","1599 NC-56","27522",36.14130582465356,-78.71769136605003
"27522","Creedmoor","NC","Curves","122 W Church St","27522",36.117371,-78.68885999999999
"27523","Apex","NC","Old School Fitness","2180 N Salem St #101","27523",35.75777053833008,-78.83301544189453
"27523","Apex","NC","Fairfield Inn Fitness Room","2750 Slater Rd","27560",35.86017990112305,-78.82093048095703
"27524","Four Oaks","NC","HealthQuest Wellness Center and Gym","Johnston Medical Mall","27577",35.511969750854206,-78.3328739967076
"27524","Four Oaks","NC","Smithfield Recreation & Aquatics Center","600 E Booker Dairy Rd","27577",35.530411034702816,-78.32802201520815
"27525","Franklinton","NC","Anytime Fitness","1130 US-1 N","27596",36.03846,-78.49751
"27526","Fuquay Varina","NC","Planet Fitness","1302 N Main St","27526",35.590524,-78.778159
"27526","Fuquay Varina","NC","Clubworx","100 Fitness Dr","27526",35.58239792335792,-78.76252221014946
"27526","Fuquay Varina","NC","Curves","1309 Main Street","27526",35.592288970947266,-78.77763366699219
"27526","Fuquay Varina","NC","Sheriff's Office Gym","Pine State St.","27546",35.42148,-78.806211
"27526","Fuquay Varina","NC","Beastmode Gym","Love Field Ct","27592",35.548355,-78.727945
"27526","Fuquay Varina","NC","Vision Martial Arts","408 Broad St","27526",35.5938009,-78.7955779
"27526","Fuquay Varina","NC","curves","main street","not_available",35.59513833173466,-78.7630926262874
"27526","Fuquay Varina","NC","The Little Gym","7232 Gb Alford Hwy","27540",35.635351568125984,-78.83242470650124
"27526","Fuquay Varina","NC","Crossfit Zeal","206 Premier Dr, Holly Springs, NC 27540","27540",35.65326834836275,-78.85854147871336
"27526","Fuquay Varina","NC","Gym","not_available","27526",35.59337496757507,-78.77690255641937
"27526","Fuquay Varina","NC","Crossfit South Wake","2205 N Grassland Dr","27526",35.61558210852714,-78.81033716780784
"27526","Fuquay Varina","NC","Rock Solid Warrior","6109 S NC 55 Hwy # 125","27526",35.59258596822295,-78.75724441733553
"27526","Fuquay Varina","NC","Burn Boot Camp - Holly Springs/Apex","158 West Holly Springs Rd","27540",35.655303955078125,-78.83612060546875
"27526","Fuquay Varina","NC","Crew Wrestling","not_available","27540",35.656008,-78.855172
"27526","Fuquay Varina","NC","Bull & Bear Gym","1372 N Main St","27526",35.590355,-78.77462779999999
"27529","Garner","NC","Garner Senior Center - Fitness Annex","205 E Garner Rd","27529",35.70730977682848,-78.60331901515491
"27529","Garner","NC","Train Anywhere","241 Fawn Hill Ct","27529",35.57896583,-78.58693467
"27529","Garner","NC","Workin' It Out","not_available","27603",35.60578536987305,-78.65199279785156
"27529","Garner","NC","Fit For Life","101 Professional Ct","27529",35.60745780097863,-78.56941579864205
"27529","Garner","NC","FFL (fit for life)","101 Professional Court","27603",35.60737991333008,-78.56954193115234
"27529","Garner","NC","Burn Boot Camp","2620 Timber Dr","27529",35.71433,-78.63557
"27530","Goldsboro","NC","Seymour Johnson AFB Gym","McColpin Rd","27531",35.349675614900065,-77.96292597081843
"27530","Goldsboro","NC","Larrys Supplement Spot","not_available","27534",35.3698757429073,-77.95424757066803
"27530","Goldsboro","NC","Bellamorphasis","1410 Langley Ave","27531",35.352174,-77.961803
"27530","Goldsboro","NC","Old Gym","Princeton High School","not_available",35.46741478027492,-78.15675213812035
"27530","Goldsboro","NC","Planet Fitness","201 N Berkeley Blvd","27534",35.37307,-77.951638
"27530","Goldsboro","NC","Golden Glory Boxing Academy","2419 E Ash St","27534",35.3754997253418,-77.95687866210938
"27530","Goldsboro","NC","World Gym","576 Massey Rd","28333",35.275558000000004,-78.076559
"27530","Goldsboro","NC","Princeton Wrestling Room","Wrestling room","27569",35.467457286901,-78.15670203463247
"27530","Goldsboro","NC","Fitness Extreme","108 Centura Dr","27530",35.415896000000004,-78.047433
"27530","Goldsboro","NC","Fit4Life Health Clubs","2912 US Highway 70 W","27530",35.43143081665039,-78.06376647949219
"27530","Goldsboro","NC","Norvell T. Lee Gymnasium","901 Beech St","27530",35.38642883300781,-77.97972869873047
"27530","Goldsboro","NC","Goldsboro Parks & Recreation","not_available","27530",35.38255017476714,-77.98195354542517
"27530","Goldsboro","NC","For Women Only","2535 E Ash St","27534",35.373983,-77.953544
"27530","Goldsboro","NC","Tan And Tone","2339 117 Hwy","27530",35.3736517024993,-77.97954461234494
"27536","Henderson","NC","Henderson Barbell Club","not_available","27536",36.33708190917969,-78.3943862915039
"27537","Henderson","NC","Aycock Recreation Center","307 Carey Chapel Rd","27537",36.32161331176758,-78.36310577392578
"27539","Apex","NC","Orangetheory Fitness","141 Grand Hill Pl","27540",35.661365858433236,-78.84880115288084
"27539","Apex","NC","Planet Fitness","309 Matthews Dr","27539",35.664412,-78.794386
"27539","Apex","NC","Wood Creek Pool/Clubhouse/Fitness Center","Lockley Road","27539",35.671858390207085,-78.81109185584629
"27539","Apex","NC","Anytime Fitness","5225 Sunset Lake Rd.","27540",35.66736,-78.79672
"27539","Apex","NC","Dragonfly Health & Fitness","121 Quantum St","27540",35.657906348868174,-78.83629622694053
"27539","Apex","NC","Pure Barre","248 Grand Hill Pl","27540",35.6657759360317,-78.84557271896279
"27545","Knightdale","NC","The Little Gym","4031 Village Park Dr","27545",35.79722,-78.497398
"27545","Knightdale","NC","Gym @ Laurens Way","not_available","27545",35.792951853552154,-78.49116335050262
"27545","Knightdale","NC","Da Treadmill","1500 Old Milburnie Rd","27604",35.80612564086914,-78.5279541015625
"27545","Knightdale","NC","Gym @Alta legacy Oaks","not_available","27604",35.82756,-78.4901181
"27545","Knightdale","NC","Workin On My Fitness, She's My Witness","1220 Bristoe Dr","27610",35.80009122381087,-78.51787895028114
"27545","Knightdale","NC","ILWM","3100 Duraleigh Rd","27612",35.824599,-78.485083
"27545","Knightdale","NC","Arise Athletics","905 McKnight Dr","27545",35.7960753,-78.4926542
"27545","Knightdale","NC","Burn Boot Camp","706 Money Ct","27545",35.79889,-78.47294
"27546","Lillington","NC","Cape Fear Fitness","32 The Square At Lillington","27546",35.38780097089763,-78.81933274650649
"27546","Lillington","NC","Crossfit 007","125 Alexander Dr.","27546",35.417930603027344,-78.8148193359375
"27546","Lillington","NC","Fit 4 Life Professional Gym","3266 Ray Rd","28390",35.30013396822316,-78.9751962947938
"27549","Louisburg","NC","Franklin County Employee Gym","not_available","27549",36.10402297973633,-78.28913879394531
"27549","Louisburg","NC","New Life Total Fitness","146 Wade Ave","27549",36.09652328491211,-78.29808807373047
"27549","Louisburg","NC","New Image Fitness","1048 S Main St","27549",36.0848274230957,-78.31288146972656
"27549","Louisburg","NC","Queen Status Fitness Studio","207 C Pine Street","27882",35.943256,-78.10985
"27557","Middlesex","NC","Lees 24hr Gym","120 Lynn Hills Dr","27597",35.767822265625,-78.26213073730469
"27560","Morrisville","NC","Fitness Connection - RTP","4700 Emperor Blvd","27703",35.87885191062609,-78.83935271955838
"27560","Morrisville","NC","Morrisville Community Crossfit 2.0","2933 S Miami Blvd Ste 126","27703",35.92451881551955,-78.84213047082655
"27560","Morrisville","NC","Cree Fitness","4425 Silicon Dr","27703",35.898572029470934,-78.8389001308786
"27560","Morrisville","NC","Tri-Athletics","1000 Parliament Ct","27703",35.8718376159668,-78.83751678466797
"27560","Morrisville","NC","Work In Progress","Yeah There","27707",35.92380234592016,-78.81142686120334
"27560","Morrisville","NC","IBM Employee Activity & Fitness Center","3039 Cornwallis Rd","27709",35.90494564045458,-78.85635314615358
"27560","Morrisville","NC","Insanity Gymnasium","Ranbir","not_available",35.92945663531684,-78.90076815619541
"27560","Morrisville","NC","Bexley Pool & Fitness Center","Bexley Apartments","27617",35.910313780060584,-78.7872693250393
"27560","Morrisville","NC","South Durham Crossfit","2500 Meridian Pkwy","27713",35.911441802978516,-78.89395141601562
"27560","Morrisville","NC","Hilton Garden Inn Fitness Center","4690 Miami Blvd.","27703",35.89296708648643,-78.84886182577993
"27565","Oxford","NC","Team Care","Main St","27565",36.31135130348403,-78.58828733333085
"27565","Oxford","NC","Blaze's Barbells","4156 Pecan Dr","27581",36.241649,-78.706398
"27565","Oxford","NC","Body Worx","137 E Industry Dr","27565",36.2940684431606,-78.59963668651928
"27571","Rolesville","NC","Granite Falls Swim & Athletic Club","800 Granite Falls Blvd","27571",35.92743086237306,-78.46463451153333
"27571","Rolesville","NC","Vault Fitness","not_available","27571",35.916431,-78.470389
"27572","Rougemont","NC","American Patriots Gym","10825 Durham Rd","27583",36.249152403669484,-78.93856871308913
"27573","Roxboro","NC","The Body Shop Fitness Studio","225 N Madison Blvd","27573",36.392918,-78.988615
"27587","Wake Forest","NC","A.E. Finley YMCA","9216 Baileywick Rd","27615",35.907475795244515,-78.65719431273305
"27587","Wake Forest","NC","Kerr Family YMCA","2500 Wakefield Pines Dr","27614",35.94496665317963,-78.56532003535682
"27587","Wake Forest","NC","Life Time Fitness","6461 Triangle Plantation Dr","27616",35.87349928,-78.58014964
"27587","Wake Forest","NC","Orangetheory Fitness","6625 Falls of Neuse Rd","27615",35.87352718793578,-78.62457542188088
"27587","Wake Forest","NC","Young's Gym","1213 S Main St","27587",35.963496,-78.51679399999999
"27587","Wake Forest","NC","Fitness Connection - Celebration","7339 Six Forks Rd","27615",35.8800979346189,-78.64770251323222
"27587","Wake Forest","NC","O2 Fitness","8111 Creedmoor Rd","27613",35.89854387642083,-78.68235294380736
"27587","Wake Forest","NC","Orangetheory Fitness Wake Forest","12646 Capital Blvd Ste 152","27587",35.98759460449219,-78.53001403808594
"27587","Wake Forest","NC","Life Time Athletic","8515 Falls of Neuse Rd","27615",35.89669,-78.616998
"27587","Wake Forest","NC","My Gym","9650 Strickland Rd","27615",35.90388123129491,-78.6566394746165
"27587","Wake Forest","NC","Snap Fitness","1141 Falls River Ave","27614",35.90748518733099,-78.58890404634715
"27587","Wake Forest","NC","CorePower Yoga","7504 Creedmoor Rd","27613",35.8878711,-78.67854229999999
"27587","Wake Forest","NC","Orangetheory Fitness","12646 Capital Blvd","27587",35.98759460449219,-78.53001403808594
"27587","Wake Forest","NC","Gym @ The Apartments Of Stonehenge","not_available","27615",35.8867687167786,-78.67664520552958
"27587","Wake Forest","NC","G.I. Gym","3125 Gresham Lake Rd","27615",35.8853645324707,-78.58338165283203
"27587","Wake Forest","NC","The Tumble Gym","1839 S Main St","27587",35.95143810623713,-78.52614104227283
"27587","Wake Forest","NC","North Raleigh Fitness","7201 Cabin Creek Ln","27614",35.9832878112793,-78.67357635498047
"27587","Wake Forest","NC","Legend F.I.T. Gym","1141 Falls River Ave Ste 104","27614",35.90645825347196,-78.58912646770476
"27587","Wake Forest","NC","Kuzora Fitness","1976 S Main St","27587",35.94964,-78.53283499999999
"27587","Wake Forest","NC","Y Gym","not_available","27614",35.937501,-78.569462
"27587","Wake Forest","NC","Rex Wellness Center of Wakefield","11200 Galleria Ave","27614",35.94810389229835,-78.54266913467437
"27587","Wake Forest","NC","Athletes Performance at Raleigh Orthopaedic","2400 Sumner Blvd","27616",35.875562459490354,-78.5887656954705
"27591","Wendell","NC","planet fitness knightdale","not_available","27597",35.7953822209114,-78.29648694648701
"27591","Wendell","NC","gym natty light","not_available","27591",35.73649978637695,-78.39187622070312
"27591","Wendell","NC","Curves","1010 Shepard School Rd","27597",35.83285,-78.312934
"27591","Wendell","NC","Zebulon Community Center","301 S Arendell Ave","27597",35.818902,-78.31028
"27591","Wendell","NC","Fit4Life Health Clubs","190 Wakelon St","27597",35.832240000000006,-78.317021
"27591","Wendell","NC","Snap Fitness 24-7","2493 Wendell Blvd","27591",35.799360971241455,-78.38686844165701
"27596","Youngsville","NC","F45 Training Wakefield","13100 Falls of Neuse Road","27614",35.940779,-78.561999
"27596","Youngsville","NC","CrossFit Confortare","1225 S Main St Ste 106","27587",35.96303176879883,-78.51701354980469
"27596","Youngsville","NC","Box 2B Fit","4154 Sherman Oaks Dr.","27587",35.912236955488794,-78.54791164398193
"27596","Youngsville","NC","Woodlands Of Wakefield Gym","12201-12229 Oakwood View Dr","27614",35.943038375496045,-78.56476395071458
"27596","Youngsville","NC","Forever Fitness","10800 Forest Pines Dr","27614",35.942126,-78.542321
"27596","Youngsville","NC","FletchFit","202 Cardinal Dr, Youngsville, NC 27596","27596",36.021400451660156,-78.44628143310547
"27596","Youngsville","NC","Anytime Fitness","3309 Rogers Rd Ste  205","27587",35.95074,-78.51566
"27596","Youngsville","NC","SWEAT","4154 Shearon Farms Ave","27587",35.912015000000004,-78.548456
"27601","Raleigh","NC","Gym @ Bank of America Plaza","421 Fayetteville St","27601",35.77421384809327,-78.63822527890221
"27601","Raleigh","NC","Kinetic Fitness Studio","not_available","27601",35.783738699350735,-78.63419684190083
"27601","Raleigh","NC","BB&T Building Gym","434 Fayetteville St","27601",35.774939,-78.639913
"27601","Raleigh","NC","Hue Gym","300 W Hargett St","27601",35.778782405961046,-78.64392750075974
"27601","Raleigh","NC","HEAT - Highly Effective Athletic Training","400 Glenwood Ave","27603",35.78504436902883,-78.64677987487573
"27601","Raleigh","NC","Chisel Studio","401 N West St","27603",35.78555,-78.64593
"27601","Raleigh","NC","The Hudson Gym","319 Fayetteville St","27601",35.776092529296875,-78.6387939453125
"27601","Raleigh","NC","N&O Gym","215 S McDowell St","27601",35.778176,-78.641551
"27601","Raleigh","NC","Gracie Raleigh","410 W Davie St","27601",35.7755,-78.644059
"27601","Raleigh","NC","F45 Training Downtown Raleigh","301 W Cabarrus St","27601",35.774196,-78.644249
"27601","Raleigh","NC","Epic Axe","411 W Morgan St","27603",35.77945327758789,-78.64569091796875
"27601","Raleigh","NC","Sheraton Fitness Center","421 S Salisbury St","27601",35.77486038208008,-78.63999938964844
"27601","Raleigh","NC","Gym @ West at North","400 W North St","27603",35.78512145452229,-78.64525673733388
"27601","Raleigh","NC","Marriott Fitness Center","500 Fayetteville St","27601",35.773349762232584,-78.63982900929015
"27603","Raleigh","NC","Core Results","1330 Saint Marys St Ste A001","27605",35.79724951779872,-78.65194542215785
"27603","Raleigh","NC","Alexander Family YMCA","1603 Hillsborough St","27605",35.784160631341784,-78.65922170081171
"27603","Raleigh","NC","Renaissance Park Gym","Olympia Drive","27603",35.73412925564506,-78.65589572316233
"27603","Raleigh","NC","Crunch Fitness - Cameron Village","1900 Cameron Street","27605",35.7913807,-78.6582238
"27603","Raleigh","NC","CorePower Yoga","435 Woodburn Rd Spc A0168","27605",35.7902505,-78.6596979
"27603","Raleigh","NC","CORE Fitness Studio","1105 Capital Blvd","27603",35.79689865900307,-78.64158584090052
"27603","Raleigh","NC","UT Gym","111","27607",35.78863596184003,-78.6753759582404
"27603","Raleigh","NC","Campus Edge Gym","Cum Laude Ct","27606",35.75439862112391,-78.69646709801312
"27603","Raleigh","NC","CrossFit Invoke","1701 S Saunders St","27603",35.757952639525755,-78.64849128661517
"27603","Raleigh","NC","Fitness Center","2451 Alumni Dr","27606",35.76374816894531,-78.67736053466797
"27603","Raleigh","NC","Firthtime Fitness Cyclery","Firth Of Tay Way","27603",35.74933851819122,-78.6888079740052
"27603","Raleigh","NC","Pullen Aquatics Center","410 Ashe Ave","27606",35.78118075418732,-78.66206550111632
"27603","Raleigh","NC","Caraleigh Mills Gym","1535 Caraleigh Mills Ct","27603",35.759890531679844,-78.6527695249217
"27603","Raleigh","NC","CapFit","430 Woodburn Rd","27605",35.7894401550293,-78.65914154052734
"27604","Raleigh","NC","Anytime Fitness","4500 Falls of Neuse Rd","27609",35.8441,-78.61137
"27604","Raleigh","NC","CYCLEBAR","200 Park At North Hills St Ste 141","27609",35.8356513,-78.6370755
"27604","Raleigh","NC","The Strength Feed","2011 Raleigh Blvd Ste 103","27604",35.80822543705258,-78.6042581625656
"27604","Raleigh","NC","Workplace Options Gym","2912 Highwoods Blvd","27604",35.819779,-78.601563
"27604","Raleigh","NC","F45 Training Five Points Raleigh","2320 Bale St","27608",35.812669,-78.626842
"27604","Raleigh","NC","Tapout Fitness","900 E Six Forks Rd","27604",35.81684112548828,-78.61634826660156
"27604","Raleigh","NC","Row House","1101 Mercantile Dr, Ste 130","27609",35.8222485,-78.6222151
"27604","Raleigh","NC","Cheer Extreme Raleigh","not_available","27609",35.833502,-78.60716
"27604","Raleigh","NC","David Logan's Torture Chamber","255 Penley Cir","27609",35.830771,-78.641015
"27604","Raleigh","NC","O2 Fitness Clubs / Seaboard","802 Semart Dr","27604",35.790341916201676,-78.63978979191378
"27604","Raleigh","NC","Flex-Fit Training","2200 E Millbrook Rd","27604",35.847287,-78.600515
"27604","Raleigh","NC","Allscripts Gym At Midtown Plaza","305 Church at North Hills St","27609",35.83506393432617,-78.63573455810547
"27604","Raleigh","NC","Planet Fitness","4701 Atlantic Ave","27604",35.84771474322196,-78.60277835105455
"27604","Raleigh","NC","active body design","Alpinis Dr, Raleigh, NC 27616","27616",35.849686710814865,-78.59739038746038
"27604","Raleigh","NC","Orangetheory Fitness","200 Park At North Hills St","27609",35.83624267578125,-78.63765716552734
"27605","Raleigh","NC","OC Gym","1009 Wade Ave","27605",35.797717566196184,-78.65794453629364
"27605","Raleigh","NC","712 Gym","712 Tucker St","27603",35.78648734547703,-78.64893178058419
"27605","Raleigh","NC","Flybarre @ Flywheel Sports","402 Oberlin Rd","27605",35.78976058959961,-78.66234588623047
"27605","Raleigh","NC","Doubletree Hilton Fitness Center","not_available","27605",35.78430819532087,-78.65961705519024
"27605","Raleigh","NC","JDs","hunter rd","28328",35.78531987,-78.66050856
"27605","Raleigh","NC","work out room","broughton high school","27605",35.79036600017295,-78.6535580137286
"27605","Raleigh","NC","Personally Fit","301 N Boylan Ave","27603",35.784567,-78.649175
"27606","Raleigh","NC","ELEVATE Training and Nutrition","830 Handsworth Ln","27607",35.7959912,-78.73836589999999
"27606","Raleigh","NC","The DakotaFitness Center","Wildgrass Dr","27607",35.797569,-78.735286
"27607","Raleigh","NC","Burn Bootcamp West Raleigh","2442 Wycliff Rd","27607",35.81698604864515,-78.6927679629833
"27607","Raleigh","NC","Fitness Connection - Pleasant Valley","6420 Glenwood Ave","27612",35.85966558390353,-78.70134851122882
"27607","Raleigh","NC","4601 Gym","not_available","27612",35.833796538858266,-78.71526074429929
"27607","Raleigh","NC","Urban Spider","5430 Wade Park Blvd","27607",35.8077507019043,-78.7291030883789
"27607","Raleigh","NC","The Overlook Gym","Summit Overlook Dr.","27612",35.84588707232232,-78.67508819442762
"27607","Raleigh","NC","Gym at Edwards Mill Apts","Mill Village Rd","27612",35.84209550897848,-78.69076849999671
"27607","Raleigh","NC","Gremlin Style","not_available","27608",35.80845754383244,-78.67257400232916
"27607","Raleigh","NC","Glenwood Plaza Fitness Center","3605 Glenwood Ave","27612",35.82890701293945,-78.66776275634766
"27608","Raleigh","NC","Body By Design","Oberlin Road","not_available",35.80886665296002,-78.6552575211011
"27608","Raleigh","NC","SoCap CrossFit","1399 Capital Blvd","27603",35.800829,-78.63434699999999
"27608","Raleigh","NC","Carolina Barre and Core","2603 Glenwood Ave Ste 141","27608",35.81550216674805,-78.66059875488281
"27608","Raleigh","NC","Curves","404-191 E Six Forks Rd","27609",35.818928,-78.62631999999999
"27609","Raleigh","NC","Fitness Connection - North Hills","4120 Main At North Hills St","27609",35.836327243532,-78.6431423460502
"27609","Raleigh","NC","Alexan Gym","4209 Lassiter Mill Rd","27609",35.839838414080674,-78.64545358610273
"27609","Raleigh","NC","Ac Hotel At North Hills Gym","100 Park at North Hills Street","27609",35.83798599243164,-78.64071655273438
"27610","Raleigh","NC","Capital Strength & Conditioning","2422 Atlantic Ave","27604",35.812678999999996,-78.617886
"27610","Raleigh","NC","Oak City CrossFit","1317 Hodges St","27604",35.813590689739584,-78.6148914001769
"27610","Raleigh","NC","Retro Fitness","800 N Person St","27604",35.79042140469594,-78.63346070051199
"27612","Raleigh","NC","CrossFit RDU","6808 Davis Cir","27613",35.86261190796561,-78.70901213955472
"27612","Raleigh","NC","iLoveKickboxing - Raleigh, NC","8629 Glenwood Ave, Suite 105","27617",35.8852321,-78.7435897
"27612","Raleigh","NC","UFC Gym Raleigh","6300 Creedmoor Rd #126","27612",35.876777064461635,-78.69221695491255
"27612","Raleigh","NC","The Gym","Amber Lantern St","27613",35.877672,-78.729382
"27612","Raleigh","NC","The Gym","Sawmill","27609",35.84380672889396,-78.67665628340698
"27612","Raleigh","NC","Koko Fitclub - Stonehenge Market","7428 Creedmoor Rd","27613",35.88794998770014,-78.67819014502028
"27612","Raleigh","NC","Exercise Room","Olde Raleigh Apartments","27612",35.835612399737606,-78.7134944921067
"27612","Raleigh","NC","Gym","Cameo Glass","27612",35.85791727,-78.72067148
"27612","Raleigh","NC","Fitness4life Training Center","6701 Glenwood Avenue","27612",35.86017199,-78.71058646
"27612","Raleigh","NC","Vision Martial Arts","5910-117 Duraleigh Rd","27612",35.8586235,-78.7120266
"27613","Raleigh","NC","The Red Corner","not_available","27617",35.916313,-78.73541
"27613","Raleigh","NC","TML...Turn Me Loose Fitness","6308 Angus Dr Ste E","27617",35.898323308946566,-78.75671761032909
"27613","Raleigh","NC","Da Gym","not_available","27613",35.91080856323242,-78.68488311767578
"27613","Raleigh","NC","Crunch Fitness - Creedmoor","6300 Creedmoor Road","27612",35.8716247,-78.67810903
"27613","Raleigh","NC","Water garden village gym","8441 Mount Valley Ln","27613",35.88302191122506,-78.73558422604302
"27613","Raleigh","NC","Gym Shady","5528 Shady Crest Dr","27613",35.8763,-78.726256
"27613","Raleigh","NC","Edinborough Commons Workout Facility","2500-2598 Jamboree Rd","27613",35.873781688798715,-78.68016236980549
"27614","Raleigh","NC","Summermill Gym","Falls Mill Drive","27614",35.910698266666664,-78.58577106666667
"27614","Raleigh","NC","Tumble Gym","9910 Strickland Rd","27615",35.903158,-78.66119
"27614","Raleigh","NC","pure barre","9660 Falls of Neuse Rd","27615",35.905802,-78.600105
"27614","Raleigh","NC","Pure Barre","9660 Falls of Neuse Rd Ste 149","27615",35.90539333725962,-78.59996939677171
"27614","Raleigh","NC","Iron Tribe Fitness North Raleigh","9009 Baileywick Rd","27615",35.9027568,-78.65424929999999
"27614","Raleigh","NC","Burn Boot Camp","14460 Falls of Neuse Rd","27587",35.94344,-78.5439
"27615","Raleigh","NC","F45 Training North Raleigh","7901 Falls of Neuse Rd","27615",35.892347,-78.62655
"27615","Raleigh","NC","North Ridge CC Gym","Falls of Neuse","27615",35.87195096573584,-78.58775403245886
"27615","Raleigh","NC","Neuse River CrosstFit","7711 WELBORN ST SUITE 105","27616",35.88829,-78.58336
"27615","Raleigh","NC","Perry Point Gym","3210 Trimblestone Ln","27616",35.87565115389474,-78.58592614749787
"27616","Raleigh","NC","Pro Intellect & Trained Sports","5608 Spring Ct Ste 100","27616",35.8570664572519,-78.58864814044409
"27616","Raleigh","NC","CrossFit Goliath","5621 Departure Dr","27616",35.860448999999996,-78.592916
"27616","Raleigh","NC","Highland Creek Preserve Fitness Center","8503 Hartham Park Ave","27616",35.897048999999996,-78.513166
"27616","Raleigh","NC","The Sauna","not_available","27616",35.87403250254297,-78.58005493159723
"27616","Raleigh","NC","Enso Movement","3200-115 Wellington Ct","27615",35.88763326969031,-78.58163774013519
"27616","Raleigh","NC","Forged Fitness","2609 Discovery Dr #105","27616",35.86356860697563,-78.59273043238018
"27616","Raleigh","NC","O2 Fitness Express - Perry Creek","7510 Ramble Way Ste 103","27616",35.876845021055445,-78.53837016701017
"27617","Raleigh","NC","Arrichion Hot Yoga & Mixed Martial Arts","8606 Jersey Ct","27617",35.89829786347161,-78.75894537506244
"27617","Raleigh","NC","box-2b-fit","8804 Gulf Ct","27617",35.90324415334662,-78.7614035810665
"27617","Raleigh","NC","The Preserve gym","8000 Brittdale lane","not_available",35.908028,-78.785385
"27617","Raleigh","NC","Ali's Boot Camp","10810 Globe Rd","27617",35.90062713623047,-78.80674743652344
"27617","Raleigh","NC","The Exchange Gym","9240 Bruckhaus St","27617",35.90064487376824,-78.80134422683143
"27617","Raleigh","NC","Brier Creek Gym","8400 Brass Mill Ln","27617",35.90666961669922,-78.78749084472656
"27617","Raleigh","NC","Colonial Grand Gym","10210 Hillston Ridge Rd","27560",35.89844275226678,-78.79404878619094
"27617","Raleigh","NC","Colonial Grand at Brier Falls","10200 Crichton St","27617",35.89614972913007,-78.80012554576096
"27701","Durham","NC","YMCA American Tobacco","410 Blackwell St","27701",35.99207788180856,-78.90568388640715
"27701","Durham","NC","Brodie Gym","20 Brodie Gym Dr","27708",36.00729565011085,-78.91700631705332
"27701","Durham","NC","YMCA","218 W Morgan St","27701",35.998345782566375,-78.90106635813682
"27701","Durham","NC","re:charge","345 Blackwell St Fl 3","27701",35.9930534362793,-78.90299224853516
"27701","Durham","NC","Aloft Fitness Center","345 Blackwell St","27701",35.9930534362793,-78.90299224853516
"27701","Durham","NC","The Little Gym","2501 University Dr","27707",35.97468852996826,-78.9235703
"27701","Durham","NC","Pure Barre","737 9th St Ste 260","27705",36.00992577545684,-78.92300092822438
"27701","Durham","NC","Crossfit Durham","410 W Geer St","27701",35.99701621628278,-78.89984378234959
"27701","Durham","NC","The Golden Belt Gym","not_available","27701",35.989912,-78.890885
"27701","Durham","NC","Marriott City Center Fitness Center","201 Foster St","27701",35.997467041015625,-78.90241241455078
"27701","Durham","NC","Maitland's Method","719 Broad St","27705",36.008978000000006,-78.919928
"27701","Durham","NC","Mind Life Fitness","719 Broad Street, Mind  Life Fitness","27705",36.008992,-78.919982
"27701","Durham","NC","West Village Gym","610 W Morgan St","27701",35.99970575732403,-78.90580563528633
"27701","Durham","NC","Berkshire Ninth Gym","749 9th St","27705",36.00946044921875,-78.92292785644531
"27701","Durham","NC","Emily K Center","904 W Chapel Hill St","27701",35.997394584829486,-78.9145571076117
"27701","Durham","NC","Station Nine Gym","2211 Hillsborough Rd","27705",36.008749730728105,-78.92578921489346
"27701","Durham","NC","Durham Co. Human Services Complex Fitness Center","415 E Main St","not_available",35.99213478191732,-78.89710411009779
"27701","Durham","NC","Cycle Studio","Downtown Durham YMCA","27701",35.99873954442089,-78.90121579038903
"27701","Durham","NC","Durham Athletic Club","1230 Avondale Dr","27701",36.00493503155219,-78.88314852547596
"27703","Durham","NC","Anytime Fitness","121 Sherron Rd","27703",35.97439,-78.79356
"27703","Durham","NC","Curves","1020 Us 70 Hwy 107","27703",35.96352685361431,-78.84707031669892
"27703","Durham","NC","R&D FITNESS CENTER - GSK","5 Moore Dr","27709",35.93516933207288,-78.86103092671878
"27703","Durham","NC","Edinborough Gym","not_available","27703",35.89522529582639,-78.84698368934764
"27703","Durham","NC","MDH Fitness","1601 E Geer St","27704",36.01292037963867,-78.86653137207031
"27704","Durham","NC","Velocity Health & Fitness","5319 N Roxboro Rd","27712",36.078632833345154,-78.91117926323545
"27704","Durham","NC","Atrium Apartments Gym","3800 Meriwether Dr","27704",36.0395622253418,-78.88871765136719
"27704","Durham","NC","Curves","3600 N Duke St","27704",36.049209885313715,-78.90386839524054
"27704","Durham","NC","Independence Park Fitness Center","not_available","27704",36.0444704200773,-78.89281692032581
"27704","Durham","NC","Kinlock Fitness Center","4705 Kinlock Dr","27712",36.074740999999996,-78.925124
"27705","Durham","NC","Hall Of Fitness","3823 Guess Rd","27705",36.05900326955325,-78.929997573051
"27707","Durham","NC","Woodlake","not_available","27713",35.918237394091584,-78.9245286066631
"27707","Durham","NC","One Fitness Training","4810 Hope Valley Rd Ste 107","27707",35.921653747558594,-78.9586410522461
"27707","Durham","NC","Fitness World","105 W NC Highway 54 Ste 271","27713",35.909599871867385,-78.93971379191782
"27707","Durham","NC","InsideOut Body Therapies","5720 Fayetteville Rd","27713",35.922078000000006,-78.92887900000001
"27707","Durham","NC","Waterford Village Clubhouse","waterford valley drive","27713",35.9066474141184,-78.9098254402259
"27707","Durham","NC","Get In Shape For Women","1125 W NC Highway 54 Ste 404","27707",35.91768264770508,-78.95845031738281
"27707","Durham","NC","The Pool at Century Creek","2050 Courtney Creek","27713",35.9388541652895,-78.89107996411903
"27713","Durham","NC","Gym @ Lodge at Southpoint","1300 Knoll Cir","27713",35.90190124511719,-78.95356750488281
"27713","Durham","NC","Fitness center","Hope Valley Road","27707",35.92300084510051,-78.95439222131908
"27713","Durham","NC","Crossfit RTP","4909 S Alston Ave","27713",35.893762261236745,-78.88872054564219
"27713","Durham","NC","NLCC Impact Center","7415 Fayetteville Rd","27713",35.893256223880186,-78.9410247390097
"27713","Durham","NC","UFC Gym Durham","1125 W NC Highway 54 Ste 601-604","27707",35.918053116505995,-78.96008878177153
"27713","Durham","NC","Century Creek Gym","2850 Courtney Creek Blvd","27713",35.93903732299805,-78.8907241821289
"27713","Durham","NC","D-Source Sports Performance and Fitness","3417 S Alston Ave","27713",35.935365000000004,-78.88460699999999
"27801","Rocky Mount","NC","Harrison Family YMCA","1000 Independence Dr","27804",35.96981247658737,-77.79748947154178
"27801","Rocky Mount","NC","Ultimate Backyard Warrior","2550 N Church St","27804",35.976259999999996,-77.784811
"27801","Rocky Mount","NC","Planet Fitness","427 S Church St","27804",35.93721008300781,-77.79857635498047
"27803","Rocky Mount","NC","Fit-4-Life","2900-2998 State Road 1770","27804",35.950299220415246,-77.91302683544286
"27803","Rocky Mount","NC","Gymnatics","not_available","27803",35.88079,-77.86219
"27803","Rocky Mount","NC","Planet Fitness","not_available","27804",35.95044626928538,-77.89959003675072
"27805","Aulander","NC","Coastal Rehab","not_available","27910",36.297171999999996,-76.985929
"27805","Aulander","NC","Corneliu N Stanciu, MD","111 Hertford County High School Rd","27910",36.296907,-76.9900329
"27817","Chocowinity","NC","Bonnie S Corley, MD","1210  Brown St","27889",35.551623,-77.0388605
"27817","Chocowinity","NC","Lifestyles","not_available","27889",35.55038282252035,-77.03714285342862
"27817","Chocowinity","NC","Bobby Andrews Rec. Center","231 E 7th St","27889",35.546844482421875,-77.04811096191406
"27817","Chocowinity","NC","Cypress Landing Fitness Center","409 Cypress Landing Trail","27817",35.491462,-77.05709399999999
"27817","Chocowinity","NC","Tumble B Gym","1401 C West 5th St.","27889",35.553900539106465,-77.0658650882551
"27818","Como","NC","SH&W","not_available","27855",36.4366129,-77.098789
"27822","Elm City","NC","Thornberry Gym","3701 Ashbrook Dr NW","27896",35.74957300581821,-77.96663058776235
"27822","Elm City","NC","Planet Fitness","2219 Airport Blvd NW","27896",35.74710040234305,-77.96404874326561
"27822","Elm City","NC","Work Out","not_available","27822",35.80820755981299,-77.86435521567357
"27822","Elm City","NC","Cardio X-Press","not_available","27893",35.75270292687284,-77.92946903042191
"27822","Elm City","NC","Regency Athletic Club","Horton Blvd","not_available",35.71459477454128,-77.94978718223123
"27822","Elm City","NC","Next Level Baseball Academy","3028 N Carolina 97, Wilson, NC 27896","27896",35.836844158198076,-77.96651202150949
"27828","Farmville","NC","Fountain Wellness Center","6743 E. Wilson St","27829",35.67407989501953,-77.638916015625
"27828","Farmville","NC","Fd & pd gym","not_available","27828",35.56349417599767,-77.59104184026883
"27831","Garysburg","NC","New Day Fitness","not_available","27870",36.42591329775735,-77.64328168888113
"27831","Garysburg","NC","Key Fitness","171 NC Highway 125","27870",36.43011752929208,-77.64928070862162
"27834","Greenville","NC","Champions Health and Fitness Center","4190 BAYSWATER ROAD","28590",35.55435955861943,-77.36806555973683
"27834","Greenville","NC","Treybrooke Gym","701 Treybrooke Cir","27834",35.61769104003906,-77.40199279785156
"27834","Greenville","NC","Excel Fitness And Tanning","2800 E 10th St","27858",35.602307042416484,-77.33977546506017
"27834","Greenville","NC","JP2 HS Basketball","3250 Dickinson Ave","27834",35.58515930175781,-77.41281127929688
"27834","Greenville","NC","Waterford Place Fitness Room 2","not_available","27834",35.60872872768632,-77.42530108439247
"27834","Greenville","NC","Pure Barre","420 E Arlington Blvd Ste J","27858",35.584346000000004,-77.369845
"27834","Greenville","NC","Wilson Acres Fitness Gym","Wilson Acres","27858",35.610079049959516,-77.35669427402986
"27834","Greenville","NC","In Tone Fitness","810 Wh Smith Blvd","27834",35.59843575333033,-77.40666006252702
"27834","Greenville","NC","Crossfit Tier 1","not_available","27858",35.610608022256464,-77.37569625643242
"27834","Greenville","NC","Christenbury Gym","Ormond Rd","27858",35.60455596456624,-77.36320522370156
"27834","Greenville","NC","Fitness By Vidal","218C East Arlington blvd","27858",35.61177997183909,-77.37266310059861
"27834","Greenville","NC","Signature Place Gym","410 Beasley Dr","27834",35.60914309570586,-77.41278851916586
"27834","Greenville","NC","Core Fitness & Wellness Center","4816 Old Tar Rd","28590",35.53131103515625,-77.38546752929688
"27834","Greenville","NC","Wilson Acres","1806 E 1st St","27858",35.61021644207081,-77.35685448578563
"27834","Greenville","NC","Courtyard Gym","225 Stantonsburg Road US 264","not_available",35.60689392955441,-77.40464687347412
"27834","Greenville","NC","East Carolina Barbell","408 W Arlington Blvd","27834",35.593159,-77.37983299999999
"27834","Greenville","NC","Cheer Extreme Greenville","4776 Reedy Branch Rd","28590",35.534751,-77.41613000000001
"27834","Greenville","NC","Fitness Connection - Greenville","140 Oakmont Dr","27858",35.57929251264338,-77.35787984895993
"27834","Greenville","NC","Orangetheory Fitness","518 Greenville Blvd SE","27858",35.582401275634766,-77.37358093261719
"27834","Greenville","NC","Snap Fitness 24-7","2120 E Fire Tower Rd Ste 111","27858",35.566281927988854,-77.34878321047186
"27834","Greenville","NC","Tier 1 Fitness","710 A&B Red Banks Rd","27858",35.581723946277016,-77.36779281235461
"27856","Nashville","NC","Personalized Solutions Fitness Center","4534 Old Bailey Hwy","27856",35.91625253790822,-77.99874983473437
"27856","Nashville","NC","World Gym","not_available","27856",35.933518183333334,-77.93173876666667
"27858","Greenville","NC","University Suites","2200 University Suites Dr","27834",35.5913241,-77.3821512
"27858","Greenville","NC","Courtside Athletic Club","1750 Wimbledon Dr","27858",35.56978988647461,-77.36295318603516
"27858","Greenville","NC","Crossfit Tier 1","1820 Old Fire Tower Rd","27858",35.56260681152344,-77.35596466064453
"27858","Greenville","NC","Student Recreation Center","128 Student Recreation Center","27858",35.60770702204005,-77.37120596958702
"27858","Greenville","NC","TITLE Boxing Club Greenville","3700 Charles Blvd Ste B","27858",35.567803,-77.351552
"27886","Tarboro","NC","B&G Fitness Center","not_available","27886",35.879382268721265,-77.55206123823955
"27886","Tarboro","NC","Tarboro Athletic Club","502 Albemarle Ave","27886",35.897384,-77.53807900000001
"27886","Tarboro","NC","Tarboro Police & Fire Gym","Albemarle Ave","27886",35.89776768153761,-77.53754496574402
"27889","Washington","NC","Moore Aquatic & Fitness Center","101 Airport Rd.","27889",35.57294774562436,-77.04105046838434
"27892","Williamston","NC","Nulife Fitness","not_available","27892",35.84354052314546,-77.05481326222703
"27909","Elizabeth City","NC","Albemarle Family YMCA","1240 N Road St","27909",36.327259296594946,-76.22317333795075
"27909","Elizabeth City","NC","Emerald Lake Fitness Center","1500 Emerald Lake Cir","27909",36.331647,-76.229424
"27909","Elizabeth City","NC","Raw Power Nutrition","216 N McMorrine St","27909",36.301268,-76.21998599999999
"27909","Elizabeth City","NC","Elizabeth City Boxing Club","not_available","27909",36.302496,-76.221692
"27909","Elizabeth City","NC","USCG Gym","1664 Weeksville Rd","27909",36.26450957111063,-76.18460655212402
"27917","Barco","NC","Currituck Family YMCA","130 Community Way","27956",36.38996800085809,-76.01270959647383
"27927","Corolla","NC","Beach Gym","Whalehead","27927",36.334552,-75.814309
"27927","Corolla","NC","Villages at Ocean Hill Fitness Center","1236 Lakeside Dr","27927",36.385244,-75.83238
"27932","Edenton","NC","gym 42","not_available","27980",36.226219177246094,-76.65558624267578
"27932","Edenton","NC","Classic Fitness","102 E King St","27932",36.057796478271484,-76.60884857177734
"27948","Kill Devil Hills","NC","Sea Ranch Resort Fitness Center","not_available","27948",36.033918,-75.668898
"27948","Kill Devil Hills","NC","Outer Banks Sports Club","2423 S Croatan Hwy","27959",35.98646527934768,-75.64508152295437
"27948","Kill Devil Hills","NC","Crossfit Outer Banks","906 S Croatan Hwy","27948",36.006683349609375,-75.65745544433594
"27948","Kill Devil Hills","NC","Ob Sports Club","not_available","27959",35.98648453333333,-75.6445292
"27949","Kitty Hawk","NC","four seasons gym","not_available","27949",36.15915456917809,-75.79336265667585
"27949","Kitty Hawk","NC","4 Seasons Fitness Center","Four Seasons Lane","27949",36.15899541387666,-75.75046139169571
"27949","Kitty Hawk","NC","Fitness Room @ Barrier Island Recreation Center","Barrier Island Loop","27949",36.175103550046416,-75.75004690645794
"27949","Kitty Hawk","NC","Duck Fire Department Work Out Shed","1259 Duck Rd","27949",36.180641174316406,-75.75627136230469
"27954","Manteo","NC","Pirates Cove Fitness Center","not_available","27954",35.896523226994624,-75.6407062315027
"27959","Nags Head","NC","OBX YMCA","3000 S Croatan Hwy","27959",35.97673920634596,-75.64199248394117
"27959","Nags Head","NC","Ymca","U.S. 64, Nags Head, NC 27959","27959",35.976721284326345,-75.64190516480313
"27983","Windsor","NC","YMCA","not_available","27983",36.007149,-76.95373199999999
"28001","Albemarle","NC","Planet Fitness","720 N Carolina 24, 6","28001",35.34287629176662,-80.16895456613156
"28001","Albemarle","NC","Gold's Gym","1436 Us-52","28001",35.37294809178355,-80.19633621868243
"28001","Albemarle","NC","NC ANG BASE GYM","not_available","28127",35.42055365212972,-80.15182855742316
"28001","Albemarle","NC","Lifter's Gym","2221 U.S. 52, Albemarle, NC 28001","28001",35.39263153076172,-80.19856262207031
"28012","Belmont","NC","South Point High School","906 South Point Rd","28012",35.22280145378733,-81.03906708466474
"28012","Belmont","NC","Stowe Family YMCA","196 Ymca Dr","28012",35.26325654930047,-81.02053650856845
"28012","Belmont","NC","Pharr Family YMCA","208 Main Street","28101",35.26018247537576,-81.0794562212832
"28012","Belmont","NC","Vallen Onsite Gym","2100 The Oaks Parkway","28012",35.26576938923993,-81.05700552463531
"28016","Bessemer City","NC","Sports Mill","134 W Virginia Ave","28016",35.28653,-81.26850400000001
"28016","Bessemer City","NC","Aviator","South Myrtle School Road","not_available",35.26863584636067,-81.24773426438222
"28018","Bostic","NC","Therapy+plus","247 Oak St","28043",35.33234786987305,-81.87305450439453
"28021","Cherryville","NC","Old West Lincoln Gym","not_available","28092",35.48499429309569,-81.39007118085874
"28023","China Grove","NC","club fitness","not_available","28081",35.51607894897461,-80.66735076904297
"28023","China Grove","NC","Zumba","not_available","28023",35.55744676131319,-80.59375441385212
"28025","Concord","NC","Sportscenter Fitness & Athletic Club","233 Country Club Dr NE","28025",35.4457051,-80.60396449999999
"28025","Concord","NC","Firness Revolution","24 Spring St SW","28025",35.408897399902344,-80.5822525024414
"28025","Concord","NC","Get Fit Personal Training","not_available","28025",35.447879791259766,-80.59912109375
"28025","Concord","NC","Better Body Women's Fitness","745 Concord Pkwy N","28027",35.419953,-80.615716
"28025","Concord","NC","Fitness For Her","1445 U.S. 29","28025",35.437452,-80.605815
"28025","Concord","NC","Your Gym","22 Church St S","28025",35.41026306152344,-80.58030700683594
"28025","Concord","NC","Quest Fitness","929 Concord Pkwy S","28027",35.39305415818879,-80.6181595192692
"28025","Concord","NC","8' UnDeR GyM","not_available","28027",35.45955299612686,-80.625333836612
"28025","Concord","NC","Your Gym","11 Union St S","28025",35.41044616699219,-80.58090209960938
"28025","Concord","NC","Willpower Fitness Consultants","349 Copperfield Blvd NE, Concord, NC 28025","28025",35.44804000854492,-80.59951782226562
"28025","Concord","NC","Next Level Personal Training","1903 S Main St","28081",35.467265000000005,-80.62257
"28025","Concord","NC","Intrafitt","4333 Thermal Drive","28107",35.252775858603286,-80.50180733694427
"28025","Concord","NC","iLoveKickboxing - South Concord, NC -","3461 Hwy 601","28025",35.37089157104492,-80.54804229736328
"28025","Concord","NC","Workout Anytime","2218 Roxie St NE","28083",35.46418324028015,-80.595001557396
"28025","Concord","NC","Core Athletics","128 Church St NE","28025",35.414522,-80.583438
"28025","Concord","NC","Nubody Fitness","6821 Belt Rd","28027",35.43156767130053,-80.60132916315825
"28025","Concord","NC","Longview Meadows Fitness Center","1100 Ray Suggs Pl NW","28027",35.437767028808594,-80.6266098022461
"28027","Concord","NC","Anytime Fitness","6270 Bayfield Pkwy","28027",35.415646,-80.679601
"28027","Concord","NC","Pavilion Crossings","1801 Willow Haven Ln.","not_available",35.335473257894606,-80.7198256398795
"28027","Concord","NC","Gym&I Fitness","507 N Cannon Blvd","28083",35.501357,-80.609615
"28027","Concord","NC","Stewart's Gym","In Jake's Joint","28027",35.385541,-80.672436
"28027","Concord","NC","Skybrook Gym","not_available","28078",35.40266899960203,-80.7629936465757
"28027","Concord","NC","INSANITY!","not_available","28262",35.337437,-80.721058
"28027","Concord","NC","Crossfit Vitality","7285 Westwinds Blvd NW","28027",35.388374225909025,-80.72298761567255
"28027","Concord","NC","Joe's House Of Pain","10119 Falling Leaf Dr NW Fl 3","28027",35.40208435058594,-80.75042724609375
"28027","Concord","NC","iFLY - Charlotte","7840 Lyles Ln NW","28027",35.366276,-80.714287
"28027","Concord","NC","P90x Workout Room","not_available","28269",35.377837,-80.750839
"28027","Concord","NC","Arwen Vista Gym","11505 Masterson Road","28262",35.336917120670954,-80.71414512394198
"28027","Concord","NC","Cannon Memorial YMCA","101 YMCA Dr","28081",35.503400474025725,-80.63549620074535
"28027","Concord","NC","Arwen Vista Apartment Homes","11505 Masterson Rd","28262",35.33730134303197,-80.71460760269447
"28027","Concord","NC","Beachbody or Bust","728 Hydrangea Cir NW","28027",35.37714767456055,-80.71928405761719
"28031","Cornelius","NC","Gold's Gym","20420 W Catawba Ave","28031",35.481539918685776,-80.87597570260927
"28031","Cornelius","NC","Kadi Fit","19725 Oak St","28031",35.480745576031566,-80.86017266953199
"28031","Cornelius","NC","bexley harborside gym","not_available","28031",35.45878601074219,-80.87647247314453
"28031","Cornelius","NC","Pure Barre","16815 Cranlyn Rd Ste A","28078",35.44691541820304,-80.87861179376455
"28031","Cornelius","NC","Snap Fitness","130 Harbour Place Dr","28036",35.50317817954467,-80.86309504593663
"28031","Cornelius","NC","Raw Fitness Personal Training Gym","18047 W Catawba Ave","28031",35.45959,-80.88938
"28031","Cornelius","NC","Gym @ Bexley","20000 Sterling Bay Lane","28031",35.487077910117634,-80.87149242382539
"28031","Cornelius","NC","Dogwood Crossfit","20121 N Main St","28031",35.482996,-80.859995
"28031","Cornelius","NC","CrossFit Eternal Davidson","305 Depot St","28036",35.50083761346456,-80.8513126996514
"28031","Cornelius","NC","Fitness Together Davidson NC","610 Jetton St Ste 115","28036",35.501141,-80.86084699999999
"28031","Cornelius","NC","Planet Fitness","19706 One Norman Blvd, A","28031",35.48103960868989,-80.88177614846545
"28031","Cornelius","NC","Elite Fitness","15903 Old Statesville Rd","28078",35.430179,-80.84361299999999
"28031","Cornelius","NC","CoreFIT 24/7","17105 Kenton Drive","28031",35.4477246,-80.8917426
"28031","Cornelius","NC","Rockbox Fitness Huntersville","9615 Sherrill Estates Rd","28078",35.43813,-80.864857
"28031","Cornelius","NC","Redcliffe Apartments Gym","Kent Drive","28078",35.44772565364838,-80.88759183883667
"28031","Cornelius","NC","Champions Sports Performance","Statesville Rd","28031",35.47066617358216,-80.87418020517711
"28031","Cornelius","NC","Crossfit LKN","9825 Northcross Center Ct Ste R","28078",35.44767462418236,-80.85976744333591
"28031","Cornelius","NC","Redcliffe Workout Room","not_available","28677",35.44871807098389,-80.88776350021362
"28031","Cornelius","NC","Country Inn & Suites Gym","16617 Statesville Rd","28078",35.44063925743103,-80.867251
"28031","Cornelius","NC","CYCLEBAR","20601 Torrence Chapel Rd Ste 5A","28031",35.4838241,-80.8789367
"28034","Dallas","NC","Route 74 Fitness","3144A Dallas Hgh Shls Hwy","28034",35.31812286376953,-81.18994903564453
"28036","Davidson","NC","River Run Tennis & Fitness Center","18801 Greyton Ln","28036",35.46891544790871,-80.78828895095285
"28036","Davidson","NC","Snap Fitness","not_available","28036",35.442481272417574,-80.76328337531439
"28036","Davidson","NC","No Limit Training Facility","18631 Northline Dr Ste H","28031",35.45851135253906,-80.854248046875
"28037","Denver","NC","Sally's YMCA","1601 Forney Creek Pkwy","28037",35.48487705807398,-81.01222188771766
"28037","Denver","NC","24/7 Fitness Studio","7108 N Carolina 73","28164",35.447726216666666,-81.00217026666667
"28037","Denver","NC","Gym","not_available","28164",35.44031438,-80.99835238
"28037","Denver","NC","The Pink Revolution","7558 Hwy 73","28037",35.443604,-80.992578
"28037","Denver","NC","Lake Norman Athletics","7393 Advance Ln","28037",35.444053649902344,-81.00080108642578
"28037","Denver","NC","Burn Boot Camp","7563 NC-73","28037",35.443196,-80.992289
"28037","Denver","NC","Anytime Fitness","165 Cross Center Rd","28037",35.44356,-80.99619
"28037","Denver","NC","XD Elite Cheer Gym","4718 Mountain Creek Ave","28037",35.56362378038724,-81.0538948738417
"28037","Denver","NC","24/7 Fitness Studio","7260-114 Highway 73","28037",35.45091896049117,-80.9970056758537
"28037","Denver","NC","LKN Fitness","7413 Advance Ln","28037",35.44379806518555,-81.00025939941406
"28043","Forest City","NC","Fitness Connection","859 W Main St","28043",35.345853999999996,-81.885428
"28043","Forest City","NC","Workout Anytime","1639 College Ave, Ste 100","28160",35.342306,-81.909124
"28043","Forest City","NC","Lifestyle Wellness & Spa","245 Oak Street Extension","28043",35.33276470135559,-81.89453482116025
"28052","Gastonia","NC","The Carters Personal Gym","not_available","28052",35.20787048339844,-81.26802062988281
"28054","Gastonia","NC","Gastonia National Guard","2100 Robinwood Rd","28054",35.23492215857923,-81.15279721644453
"28054","Gastonia","NC","WES'S WORKOUT CENTER","not_available","28054",35.21664810180664,-81.1624526977539
"28054","Gastonia","NC","Armstrong athletic club","3372 Robinwood Rd","28054",35.215309143066406,-81.16032409667969
"28054","Gastonia","NC","Gold's Gym","4016 E Franklin Blvd","28056",35.25748992000658,-81.10974140771766
"28054","Gastonia","NC","Jazzygfit LLC","2020 Remount Rd Ste 107","28054",35.267578125,-81.1393814086914
"28054","Gastonia","NC","Carolina Galaxy Studio","not_available","28056",35.22416797278868,-81.1139537966277
"28054","Gastonia","NC","Planet Fitness","1751 Neal Hawkins Rd","28056",35.21551,-81.16897
"28054","Gastonia","NC","FITNESS ROOM @ PARKDALE","Cotton Blossom Cir, Gastonia, NC 28054","28054",35.257561800000005,-81.15229479
"28056","Gastonia","NC","Das Gym","not_available","28120",35.29375076293945,-81.04143524169922
"28056","Gastonia","NC","Cornhole in tha driveway","not_available","28098",35.281005859375,-81.09396362304688
"28056","Gastonia","NC","Joshie's Total Fitness Center!","203 Buena Vale Dr","28056",35.173656,-81.094943
"28073","Grover","NC","E-gym","not_available","28073",35.179019305691185,-81.42219744526635
"28075","Harrisburg","NC","Gold's Gym","5650 NC Highway 49 S","28075",35.3188494249815,-80.6732492437367
"28075","Harrisburg","NC","Harrisburg YMCA","4100 Main St","28075",35.32596515452814,-80.64494192934814
"28075","Harrisburg","NC","My Gym","not_available","28215",35.253198,-80.660213
"28075","Harrisburg","NC","Crossfit Harrisburg","not_available","28075",35.31374293065295,-80.66885065860595
"28075","Harrisburg","NC","Jazzercise Churchill West","1031 Patricia Ave, Harrisburg, NC 28075","28075",35.328880310058594,-80.66407012939453
"28075","Harrisburg","NC","Winslow Gym","8411 Mossy Cup Trl","28075",35.296051025390625,-80.63980865478516
"28075","Harrisburg","NC","Orangetheory Fitness","4075 Harris Square Dr","28075",35.32073211669922,-80.6463623046875
"28075","Harrisburg","NC","Empowered Fitness","4250 Main St","28075",35.32637647,-80.64677774906158
"28075","Harrisburg","NC","Peak Fitness","5650 Highway 49 S","28075",35.31886141936807,-80.67319203748148
"28075","Harrisburg","NC","Upward Fitness - Personal Training Studio","4250 Main St Ste 107","28075",35.326408820129984,-80.64673060219677
"28078","Huntersville","NC","Anytime Fitness","9856 Gilead Rd Ste 101","28078",35.40623344,-80.8626601
"28078","Huntersville","NC","Fitness together","Medical park rd. Suite 100","28216",35.3473848,-80.8479488
"28078","Huntersville","NC","CrossFit 704","10806 Reames Rd Ste S","28269",35.344874,-80.83622199999999
"28078","Huntersville","NC","The Little Gym of Huntersville / Lake Norman","9810 Gilead Rd Ste A-101","28078",35.40548172917006,-80.86527844246862
"28078","Huntersville","NC","Pure Barre","5818 Highland Shoppes Dr Ste C4","28269",35.3718147277832,-80.78306579589844
"28078","Huntersville","NC","ALL5 Basketball Academy LLC","1300 Ivy Ave","23607",35.3526555,-80.85722709999999
"28078","Huntersville","NC","PoleFit Carolinas Premiere Pole Dance Studio","9826 Gilead Rd Ste C-200","28078",35.40644401597567,-80.86389426460308
"28078","Huntersville","NC","CrossFit Huntersville","9705 Rosewood Meadow Ln","28078",35.409396856684516,-80.8645621737666
"28078","Huntersville","NC","Charlotte Racquet Club North","9300 Browne Rd","28269",35.366851000000004,-80.803962
"28078","Huntersville","NC","BounceU","10624 Metromont Parkway","28269",35.35337007,-80.839051
"28078","Huntersville","NC","Dance fever","mallard creek church rd","28269",35.355329,-80.79703549999999
"28078","Huntersville","NC","Prime Time Aesthetics, LLC","8711 Prosser Way","28216",35.364039,-80.8589
"28079","Indian Trail","NC","CrossFit Axon","6810 Lake Leslie Ln","28227",35.208004,-80.672839
"28079","Indian Trail","NC","Anytime Fitness","8124 Blair Rd","28227",35.181258,-80.64445
"28079","Indian Trail","NC","Fit For All Personal Training","matthews-mint hill rd","not_available",35.17483,-80.65478
