"zip","city","state","name","address","postalCode","lat","lon"
"02802","Albion","RI","Seabra's","not_available","02864",41.949611418445556,-71.44164490789841
"02804","Ashaway","RI","Bradford Pizza & Mart","60 N Main St","02808",41.40410914096043,-71.7495890463689
"02806","Barrington","RI","Shaw's","186 County Rd","02806",41.73666910526886,-71.3068351149559
"02806","Barrington","RI","Shaw's","1050 Willett Ave","02915",41.7600307,-71.3434926
"02806","Barrington","RI","Shaw's","1050 Willet Ave","02915",41.759248,-71.343971
"02806","Barrington","RI","Colewillaidan LLC","29 Annawamscutt Rd","02806",41.7414599,-71.343087
"02807","Block Island","RI","Block Island Grocery","242 Ocean Avenue","not_available",41.174164359554574,-71.56278469514149
"02809","Bristol","RI","Seabra","Hope st","02809",41.69328717796509,-71.27871779376014
"02809","Bristol","RI","Azorean Market Bristol","not_available","02809",41.707903,-71.253609
"02814","Chepachet","RI","Dino's Park And Shop","not_available","02814",41.906496794949746,-71.66242851040651
"02816","Coventry","RI","Walmart Supercenter","650 Centre Of New England Blvd","02816",41.6631109859709,-71.55537329961318
"02816","Coventry","RI","Dave's Marketplace","23 Coventry Shoppers Park","02816",41.69145818096709,-71.56634667351533
"02816","Coventry","RI","Stop & Shop","900 Tiogue Ave","02816",41.6794813,-71.5700247
"02816","Coventry","RI","Tom's Market","821 Tiogue Ave","02816",41.682112345006445,-71.56522587420801
"02816","Coventry","RI","Country Mall","4 Hope Furnace Rd","02831",41.72967529296875,-71.56354522705078
"02816","Coventry","RI","Daves Marketplace","15 Coventry Shoppers Park","02816",41.6910285949707,-71.56586456298828
"02816","Coventry","RI","shopping & errands","not_available","02816",41.69062042236328,-71.56593322753906
"02818","East Greenwich","RI","Dave's Marketplace","1000 Division Rd","02818",41.66101679583463,-71.49625527394836
"02818","East Greenwich","RI","Stop & Shop","300 Quaker Ln","02886",41.68681448996004,-71.49822413921356
"02818","East Greenwich","RI","Dave's Marketplace","105 Gate Rd","02852",41.60678730002504,-71.45297991700978
"02818","East Greenwich","RI","Aldis Supermarket","444 Quaker Ln","02886",41.6833975,-71.498948
"02818","East Greenwich","RI","Back To Basics","500 Main St","02818",41.6572660274046,-71.45152230625578
"02818","East Greenwich","RI","Greenwich Bay Gourmet","50 Cliff St","02818",41.656439,-71.453897
"02822","Exeter","RI","Co-op Food","176 Exeter St, Exeter St","PL4 0NG",41.546391,-71.529587
"02825","Foster","RI","XtraMart","1045 Danielson Pike","02857",41.825721740722656,-71.67005157470703
"02828","Greenville","RI","Stop & Shop","446 Putnam Pike","02828",41.8685786,-71.5323357
"02830","Harrisville","RI","Li'l General Store","485 Chapel St","02830",41.96616620331784,-71.67771029980098
"02830","Harrisville","RI","Country Farms","not_available","02839",41.94851438596879,-71.64551776549652
"02830","Harrisville","RI","Brigidos Market","Sayles Ave.","02859",41.95678878050064,-71.70290463524887
"02835","Jamestown","RI","McQuade's Marketplace","6 Clarke St","02835",41.49517743458601,-71.37470449478272
"02838","Manville","RI","Manville Food Pantry","11 Winter St","02838",41.971317291259766,-71.4738540649414
"02840","Newport","RI","Shaw's","71 E Main Rd","02842",41.5172765,-71.2965567
"02840","Newport","RI","Walmart","199 Connell Hwy","02840",41.51086610502476,-71.31701839404374
"02840","Newport","RI","A Market Natural Foods","181 Bellevue Ave","02840",41.48266165882411,-71.30976926589632
"02840","Newport","RI","Newport NS Commissary","1163 Whipple St","02841",41.51775635512699,-71.32033039391374
"02840","Newport","RI","Bayside Mini-Mart","1285 Whipple St","02841",41.51911163330078,-71.31542205810547
"02840","Newport","RI","Tienda Hispana La Chapina","312 Broadway","02840",41.49858093261719,-71.3073959350586
"02842","Middletown","RI","Aldi","890 W Main Rd","02842",41.5270961,-71.2982056
"02842","Middletown","RI","The Green Grocer","934 E Main Rd","02871",41.560210985234136,-71.25554396251987
"02842","Middletown","RI","Nex Minimart","1238 greene lane","02840",41.55281958967019,-71.3013662499335
"02852","North Kingstown","RI","Walmart Supercenter","1031 Ten Rod Rd","02852",41.58534298325685,-71.49162963284824
"02852","North Kingstown","RI","Daves Marketplace","125 Tower Hill Rd","02852",41.57072925512648,-71.46216700147818
"02852","North Kingstown","RI","Wickford Marketplace","70 Brown St","02852",41.570653,-71.452688
"02857","North Scituate","RI","IGA Super Market","not_available","02857",41.836773,-71.574234
"02857","North Scituate","RI","i.g.a.","not_available","not_available",41.836742567261254,-71.57426434862023
"02860","Pawtucket","RI","Walmart","51 Silver Spring St","02904",41.84553976208368,-71.41651670699906
"02860","Pawtucket","RI","Super Stop & Shop","333 W River St","02904",41.8454419,-71.4124712
"02860","Pawtucket","RI","Price Rite of Pawtucket","465 Lonsdale Ave.","02860",41.8807283663769,-71.39942761875793
"02860","Pawtucket","RI","Save-A-Lot","479 Mineral Spring Ave","02860",41.874008933333336,-71.405449
"02860","Pawtucket","RI","Polonia Market","736 Broadway","02861",41.89282575305507,-71.3722790485382
"02860","Pawtucket","RI","Revive Nutrition","50 anne mary","02860",41.8573069,-71.4024305
"02860","Pawtucket","RI","Central Fruit","693 Dexter St","02863",41.8867073059082,-71.3967514038086
"02860","Pawtucket","RI","Harvest Kitchen","2 Bayley St","02860",41.87782,-71.387501
"02860","Pawtucket","RI","emery's catering","24 Central St","02863",41.8863964,-71.3827573
"02860","Pawtucket","RI","Carcieri's Stop and Compare Supermarket","567 Charles St","02904",41.851258,-71.419894
"02860","Pawtucket","RI","Tedeschi Food Shops","390 Broad St","02863",41.88410923413163,-71.38689999999997
"02860","Pawtucket","RI","Bravo Supermarkets","300 Barton Street","02860",41.879946926861294,-71.39092251763293
"02860","Pawtucket","RI","Save-A-Lot","295 Armistice Blvd Ste #19","02861",41.87901,-71.363727
"02861","Pawtucket","RI","Columbus Mini Mart","not_available","02861",41.870551,-71.36202800000001
"02861","Pawtucket","RI","Lil General","556 Central Ave","02861",41.88652038574219,-71.36163330078125
"02864","Cumberland","RI","Dave's  Marketplace","2077 Diamond Hill Rd","02864",41.94547471100369,-71.40328481247141
"02864","Cumberland","RI","Stop & Shop","70 Mendon Rd","02864",41.9133072,-71.4057411
"02864","Cumberland","RI","The Podium","not_available","02865",41.91244006487957,-71.40537299468883
"02864","Cumberland","RI","Price Rite","2000 Diamond Hill Rd","02895",42.016895,-71.471909
"02864","Cumberland","RI","Price Rite of Woonsocket","2000 Diamond Hill Road","02895",42.0169927,-71.4713467
"02864","Cumberland","RI","Price Rite","not_available","02895",41.93572706214845,-71.45416180961253
"02864","Cumberland","RI","Dave's Marketplace","Diamond Hill Rd","not_available",42.004485541999045,-71.40273478973259
"02871","Portsmouth","RI","Clements Market","2575 E Main Rd","02871",41.60001791695985,-71.2491597191946
"02871","Portsmouth","RI","Ferreira's Wine & Spirits","1965 E Main Rd","02871",41.584467878912825,-71.25187997093296
"02874","Saunderstown","RI","Roch's","1183 Boston Neck Rd","02882",41.49053456306186,-71.4372954004409
"02874","Saunderstown","RI","Roch's Fresh Food","not_available","02882",41.490270495414734,-71.43566429615021
"02878","Tiverton","RI","Market Basket","not_available","02721",41.671569371341654,-71.15616966019759
"02878","Tiverton","RI","ALDI","485 William S. Canning Blvd.","02721",41.6717283,-71.1615476
"02878","Tiverton","RI","East Lake Variety","East rd","02878",41.56960428287001,-71.15947670893401
"02878","Tiverton","RI","Tedeschi Food Shops","1099 William S Canning Blvd","02721",41.66503464912629,-71.15627632901715
"02879","Wakefield","RI","Stop & Shop Supermarket","66 Point Judith Rd","02882",41.4278859,-71.4831165
"02879","Wakefield","RI","Shaw's","160 Old Tower Hill Rd","02879",41.44369,-71.48188
"02879","Wakefield","RI","Belmont Market (Wakefield)","600 Kingstown Rd","02879",41.440628424451965,-71.4889330662776
"02879","Wakefield","RI","Food For Thought","577 Kingstown Rd","02879",41.440100056219656,-71.48676729012608
"02879","Wakefield","RI","XtraMart","3411 Kingstown Rd","02892",41.48362731933594,-71.55342102050781
"02885","Warren","RI","Walmart Supercenter","54 Cousineau Drive","02777",41.75451208692263,-71.22003723096324
"02885","Warren","RI","Tom's Market","Child Street","not_available",41.72975027646318,-71.27789090302574
"02885","Warren","RI","Price Rite","58 Swansea Mall Dr","02777",41.75080199015435,-71.2148746610733
"02885","Warren","RI","Price Rite of Swansea","58 Swansea Mall Rd","02777",41.7504115,-71.2155859
"02886","Warwick","RI","Trader Joe's","1000 Bald Hill Rd","02886",41.712259454387045,-71.4876850794802
"02886","Warwick","RI","Stop & Shop","575 Greenwich Ave","02886",41.7186079,-71.4654386
"02886","Warwick","RI","Price Rite","945 Bald Hill Rd","02886",41.712960084520326,-71.49056081961477
"02886","Warwick","RI","Walmart","650 Bald Hill Rd","02886",41.71961663813802,-71.47920514457236
"02886","Warwick","RI","Stop & Shop","2470 Warwick Ave","02889",41.7102169,-71.3972548
"02886","Warwick","RI","Dave's Marketplace #4","18 Airport Rd","02889",41.733112333956534,-71.4080776755207
"02886","Warwick","RI","Dave's","West Shore Rd.","02889",41.70471376182416,-71.41981720067987
"02886","Warwick","RI","Sandy Lane Meat Market","459 Sandy Ln","02889",41.713138,-71.397836
"02886","Warwick","RI","Price Rite of Warwick","945 Bald Hill Rd.","02886",41.713691,-71.4898578
"02888","Warwick","RI","Shaw's","320 Warwick Ave","02888",41.7672432,-71.4041762
"02888","Warwick","RI","Walmart","840 Post Rd","02888",41.752705,-71.41436
"02888","Warwick","RI","The Food Chalet","874 Post Rd","02888",41.751903999999996,-71.41619
"02888","Warwick","RI","Daves market","not_available","02889",41.745046702854424,-71.43374842499921
"02888","Warwick","RI","Lindsay's Market","Broad Street","not_available",41.765734,-71.390608
"02891","Westerly","RI","Walmart Supercenter","258 Post Rd","02891",41.35400423316869,-71.76721579127572
"02891","Westerly","RI","McQuade's Marketplace","106 Main St","02891",41.37494927414213,-71.83021719976092
"02891","Westerly","RI","ALDI","100 Franklin St","02891",41.3618804,-71.8116042
"02891","Westerly","RI","Chinese Grocery","62 Franklin St","02891",41.36390686035156,-71.8149642944336
"02891","Westerly","RI","Shorecrest Store","not_available","02891",41.327082,-71.820573
"02893","West Warwick","RI","Jerry's Supermarket","25 Providence St","02893",41.70848054836135,-71.52069471968592
"02893","West Warwick","RI","Roch's Market","1475 Main St","02893",41.695448283264554,-71.52173815087632
"02895","Woonsocket","RI","Park N Shop","2 Main St","01504",42.009302059089244,-71.52230699042235
"02895","Woonsocket","RI","Super Stop & Shop","595 Smithfield Rd","02896",41.981632,-71.5163284
"02895","Woonsocket","RI","Lil General Store","Manville","02895",42.001698164098244,-71.50225820365633
"02896","North Smithfield","RI","Walmart Supercenter","7 Dowling Village Blvd","02896",41.97639888049468,-71.50551622129892
"02896","North Smithfield","RI","Aldi","11 Dowling Village Blvd","02896",41.97801477045952,-71.50720399999994
"02896","North Smithfield","RI","Brigidos Market","900 Victory Hwy","02896",42.00572412150199,-71.5848375503881
"02903","Providence","RI","Whole Foods Market","261 Waterman St","02906",41.827942651817224,-71.38605802053829
"02903","Providence","RI","Eastside Marketplace","165 Pitman St","02906",41.825880283298346,-71.38644417433153
"02903","Providence","RI","Urban Greens Co-op Market","93 Cranston St","02907",41.816165,-71.424154
"02903","Providence","RI","America's Food Basket","863 BROAD St","02907",41.80021,-71.417688
"02903","Providence","RI","Serendipity Gourmet","173 Weybosset St","02903",41.82218893777812,-71.41195010793096
"02903","Providence","RI","Compare SuperMarket","863 Broad St","02907",41.80014370545494,-71.41744297192807
"02903","Providence","RI","Angel Magic Light LLC","not_available","02907",41.82399,-71.41283
"02903","Providence","RI","Narin Market","761 Potters Ave","02907",41.804115,-71.434564
"02903","Providence","RI","East Side Mini-Mart","252 Brook St","02906",41.823484,-71.399105
"02903","Providence","RI","D&C Mart","Elmwood Ave.","not_available",41.804918,-71.425134
"02903","Providence","RI","Ralph Calise Fruit & Produce","37 Hemlock St","02908",41.829709,-71.429757
"02903","Providence","RI","shop n go convinence","not_available","02906",41.82198159549919,-71.39651318865607
"02903","Providence","RI","Tedeschi Food Shops","249 Thayer St","02906",41.828378229193895,-71.40065499817764
"02904","Providence","RI","Whole Foods Market","601 N Main St","02904",41.83720551197984,-71.40860237224452
"02904","Providence","RI","Shaw's","15 Smithfield Rd","02904",41.856281,-71.4473706
"02904","Providence","RI","Super Stop & Shop","1128 Mineral Spring Ave","02904",41.8674063,-71.4283452
"02904","Providence","RI","Super Stop & Shop","850 Manton Ave","02909",41.83232336968442,-71.46690800786018
"02904","Providence","RI","Chad Brown Supermarket","288 Chad Brown St","02908",41.841746,-71.422483
"02904","Providence","RI","ALDI Food Market","539 Smith St","02908",41.8363986,-71.4289697
"02904","Providence","RI","Chalkstone Supermarket","1052 Chalkstone Ave","02908",41.832112,-71.4427
"02904","Providence","RI","Lao Lanexang Market","373 Smith St","02908",41.834741,-71.424031
"02905","Providence","RI","Stop & Shop","275 Warwick Ave","02905",41.7691802,-71.4059982
"02907","Providence","RI","محل القدس","Rolfe Street","02910",41.775717,-71.437069
"02907","Providence","RI","Save-A-Lot","361 Reservoir Ave","02907",41.788526,-71.433052
"02907","Providence","RI","Mirae Market","not_available","02910",41.782223,-71.43939
"02907","Providence","RI","Chinese American Mini Mart","834 Park Ave","02910",41.77877858205631,-71.43518312651426
"02907","Providence","RI","Reyes Food Market","701 Cranston St","02907",41.805381,-71.437758
"02908","Providence","RI","Price Rite of Providence","325 Valley St.","02908",41.82583864298204,-71.43831442673553
"02908","Providence","RI","World Star Supermarket AKA PriceRite","325 Valley St, Providence, RI 02908","02908",41.825653076171875,-71.43827056884766
"02909","Providence","RI","Save-A-Lot","699 Hartford Ave","02909",41.820932,-71.468363
"02909","Providence","RI","Sam's food stores","Olneyville","02909",41.81680333405928,-71.44418426848186
"02910","Cranston","RI","Price Rite","1415 Elmwood Ave","02910",41.7716700421147,-71.42407710590147
"02910","Cranston","RI","Price Rite of Cranston","1415 Elmwood Avenue","02910",41.7718973,-71.4244632
"02911","North Providence","RI","Sams food stores","Humbert st","02911",41.84455337457165,-71.47664358774784
"02914","East Providence","RI","Shaw's","585 Taunton Ave","02914",41.82052905480808,-71.35885655879974
"02914","East Providence","RI","Super Stop & Shop","Highland Ave","not_available",41.800901905888665,-71.33733600404047
"02914","East Providence","RI","Price Rite of Seekonk","140 Taunton Ave.","02771",41.82587879271241,-71.34082279528208
"02914","East Providence","RI","Asiana","not_available","02914",41.817161,-71.380402
"02914","East Providence","RI","Save-A-Lot","2830 Pawtucket Ave","02914",41.79709916752612,-71.36318684612876
"02915","Riverside","RI","Walmart","1180 Fall River Ave","02771",41.7947118688844,-71.3254074134683
"02915","Riverside","RI","Stop & Shop","1045 Fall River Ave","02771",41.7969381,-71.3308174
"02916","Rumford","RI","Aldi","60 Newport Ave","02916",41.8562473,-71.3524611
"02917","Smithfield","RI","Dave's Marketplace","371 Putnam Pike","02917",41.872387570513354,-71.51939153901391
"02919","Johnston","RI","Stop & Shop","11 Commerce Way","02919",41.8208933,-71.500136
"02919","Johnston","RI","ALDI","1386 Atwood Ave","02919",41.815145253025804,-71.49829813128281
"02919","Johnston","RI","Price Rite","1450 Hartford Ave","02919",41.82368901436083,-71.50258863286103
"02919","Johnston","RI","Walmart Grocery Pickup","1776 Plainfield Pike","02921",41.79012,-71.49997
"02919","Johnston","RI","Save a lot","not_available","02919",41.843898481750145,-71.49999344235303
"02919","Johnston","RI","Shaw's Supermarket","1493 Hartford Ave","02919",41.82543182373047,-71.5016860961914
"02919","Johnston","RI","Price Rite of Johnston","1450 Hartford Avenue","02919",41.8238918,-71.5014049
"02920","Cranston","RI","Shaw's","8 Chapel View Blvd","02920",41.7546197,-71.4609335
"02920","Cranston","RI","Whole Foods Market","151 Sockanosset Cross Road","02920",41.75593036297052,-71.45656456018789
"02920","Cranston","RI","Aldi","1015 Cranston St","02920",41.799964,-71.4491974
"02920","Cranston","RI","Stop & Shop","200 Atwood Ave","02920",41.781863,-71.4740973
"02920","Cranston","RI","Super Stop & Shop","204 Garfield Ave","02920",41.7948859,-71.4432357
"02920","Cranston","RI","Aldis Supermarket","1138 Pontiac Ave","02920",41.7527651306299,-71.44875347614288
"02920","Cranston","RI","Moon Market","Phenix Ave","not_available",41.782505,-71.464376
"02920","Cranston","RI","Ruggieri's Market","453 Atwood Ave","02920",41.788327,-71.471721
