"zip","city","state","name","address","postalCode","lat","lon"
"07001","Avenel","NJ","ShopRite of Woodbridge","877 St. George Ave.","07095",40.56813543034942,-74.29270636739173
"07002","Bayonne","NJ","Walmart Supercenter","500 Bayonne Crossing Way","07002",40.660013841451736,-74.10687220174691
"07002","Bayonne","NJ","ShopRite","583 Avenue C","07002",40.66724046031208,-74.11910666475455
"07002","Bayonne","NJ","Stop & Shop","1 Lefante Way","07002",40.6669187,-74.1037912
"07002","Bayonne","NJ","Twin City Liquor & Wine","2 Garfield Ave.","07002",40.68461737872826,-74.09961829108686
"07002","Bayonne","NJ","Wekalet","457 Broadway","07002",40.662876000000004,-74.11950300000001
"07002","Bayonne","NJ","online room","not_available","07002",40.666625947583384,-74.11939942233879
"07002","Bayonne","NJ","ACME Markets Pharmacy","19-21 Ave At Port Imperial","07093",40.674845,-74.120903
"07002","Bayonne","NJ","Atop And Ship Bayonne","not_available","not_available",40.6827144,-74.0975359
"07002","Bayonne","NJ","A & P Supermarket","Avenue A","not_available",40.66328261482616,-74.12457807493874
"07002","Bayonne","NJ","Bayonne Fresh Market","1033 Broadway","07002",40.683381,-74.102165
"07002","Bayonne","NJ","ShopRite of Bayonne-26 Street","583-9 Avenue C","07002",40.6459161,-74.1310213
"07002","Bayonne","NJ","Twin City Supermarket","2 Garfield Ave","07305",40.68900836629701,-74.10611791717461
"07002","Bayonne","NJ","Tiger Deli","1224 Kennedy Blvd","07002",40.68902700881857,-74.10603765273011
"07002","Bayonne","NJ","Joseph's Delicatessan","561 Avenue A","07002",40.667993,-74.1243
"07002","Bayonne","NJ","American Pinoy Food Mart","1347 Kennedy Blvd","07002",40.69345102037303,-74.10318719513012
"07002","Bayonne","NJ","18th Street Farm Fresh Market","400-404 Broadway","07002",40.66070556640625,-74.12061309814453
"07002","Bayonne","NJ","Karun Deli","474 Kennedy Blvd","07002",40.6624646,-74.1257095
"07002","Bayonne","NJ","Hye Mart","100 Highway 440","07002",40.656803131103516,-74.11749267578125
"07003","Bloomfield","NJ","ShopRite of Brookdale","1409 Broad St.","07003",40.83758277203604,-74.1841365421257
"07003","Bloomfield","NJ","Super Stop & Shop","8 Franklin St","07003",40.78284456187422,-74.18475687503815
"07003","Bloomfield","NJ","Foodtown of Bloomfield","296 Glenwood Avenue","07003",40.792662211781256,-74.19877040164646
"07003","Bloomfield","NJ","ACME Markets","510 Valley Rd","07043",40.83706249395663,-74.20732691155423
"07003","Bloomfield","NJ","Kings Food Markets","650 Valley Rd","07043",40.84354226162593,-74.20793947834072
"07003","Bloomfield","NJ","Food World SuperFresh","115 Belmont Ave","07109",40.778945639487205,-74.18409422117792
"07003","Bloomfield","NJ","Aldi","244 Bloomfield Ave","07003",40.7823247,-74.1924302
"07003","Bloomfield","NJ","East West Market","67 Belleville Ave","07003",40.797445,-74.18195
"07003","Bloomfield","NJ","Krauszer's","1263 Broad St","07003",40.833696435828365,-74.18032264644128
"07003","Bloomfield","NJ","Green Grocer Food Hub","27 Carteret St","07003",40.786128000000005,-74.20825
"07003","Bloomfield","NJ","Lights Grocery #2","34 Erwin Park Rd","07042",40.829479,-74.211014
"07003","Bloomfield","NJ","Agora By Stamna","1045 Broad St","07003",40.8276457,-74.1870461
"07003","Bloomfield","NJ","Food Fair","523 Mount Prospect Ave","07104",40.769751,-74.16833199999999
"07003","Bloomfield","NJ","Roc-Steady  and  Associates","74 Florence Ave","07003",40.7845277,-74.18635809999999
"07003","Bloomfield","NJ","East West Restaurant Filipino Buffet","not_available","07003",40.79752192047566,-74.18205830932222
"07003","Bloomfield","NJ","D&D West Indian American Grocery","8 Arlington Ave","07003",40.7822265625,-74.19410705566406
"07004","Fairfield","NJ","ShopRite of West Caldwell","540 Passaic Ave","07006",40.848476109147335,-74.29713351056225
"07004","Fairfield","NJ","Corrado's Market","480 US Highway 46","07004",40.88504615401521,-74.28424015873469
"07004","Fairfield","NJ","Vell-Mac Foods Inc.","20 Stewart Pl","07004",40.8688599,-74.3161574
"07005","Boonton","NJ","Walmart","300 Wootton St","07005",40.907510211312626,-74.40394923649639
"07005","Boonton","NJ","Whole Foods","not_available","07054",40.875106,-74.430904
"07005","Boonton","NJ","ACME Markets","550 Myrtle Ave","07005",40.9082863,-74.3969898
"07005","Boonton","NJ","Super Foodtown","435 N Beverwyck Rd","07034",40.87613955584636,-74.38194065341777
"07005","Boonton","NJ","Kings Food Markets","115 Hawkins Pl","07005",40.907355172500345,-74.42494541488006
"07005","Boonton","NJ","Country Farm Food Market","224 Washington St","07005",40.900656,-74.40764200000001
"07005","Boonton","NJ","Grassroots Natural Market","20 1st Ave","07834",40.8929252581484,-74.47665368878569
"07005","Boonton","NJ","Whole Foods Market","60 Waterview Blvd","07054",40.875332,-74.431896
"07005","Boonton","NJ","Main Pharmacy of Boonton Inc","203 Main St","07005",40.902988,-74.407515
"07006","Caldwell","NJ","Jack's Foodtown","373 Bloomfield Ave","07006",40.84067560874382,-74.27797326409275
"07006","Caldwell","NJ","Super Foodtown of Caldwell","370 Bloomfield Ave","07006",40.840546,-74.278019
"07008","Carteret","NJ","ShopRite of Carteret","801 Roosevelt Ave.","07008",40.588836897305434,-74.22770602054149
"07008","Carteret","NJ","Carteret Grosery","not_available","07008",40.582809999999995,-74.218411
"07009","Cedar Grove","NJ","The Fresh Grocer of Cedar Grove","597 Pompton Avenue","07009",40.853939,-74.228943
"07009","Cedar Grove","NJ","ShopRite of Little Falls","Browertown Rd","07424",40.8801391,-74.21254259999999
"07009","Cedar Grove","NJ","Kings Food Markets","265 Pompton Ave","07044",40.83395321738813,-74.2259389530486
"07010","Cliffside Park","NJ","Mitsuwa Marketplace","595 River Rd","07020",40.81625111476336,-73.97998764962125
"07010","Cliffside Park","NJ","Trader Joe's","715 River Rd","07020",40.819433423867,-73.9774333129283
"07010","Cliffside Park","NJ","Nizam Turkish Supermarket","608 Anderson Ave","07010",40.82523241830382,-73.98779404707545
"07010","Cliffside Park","NJ","Kikos","321 Anderson Ave","07022",40.817340532622914,-73.99429786527384
"07010","Cliffside Park","NJ","Juno's Fruits And Vegetables","663 Anderson Ave","07010",40.82718720016171,-73.98707154729439
"07010","Cliffside Park","NJ","Ziyadeh Meat Market & Grocery","118 Anderson Ave","07022",40.813426,-73.997798
"07010","Cliffside Park","NJ","Hamov market","575 Anderson Ave","07010",40.823983,-73.989212
"07010","Cliffside Park","NJ","Prime Foods International Delicatessen","Anderson Ave","07010",40.82413864135742,-73.98875427246094
"07011","Clifton","NJ","Trader Joe's","259 Allwood Road","07012",40.836619817591355,-74.15161159758628
"07011","Clifton","NJ","ShopRite of Passaic on Paulison Ave","503 Paulison Avenue","07055",40.86261771946925,-74.1400202542621
"07011","Clifton","NJ","Istanbul Market","1500 Main Ave","07011",40.88592956822662,-74.15034823606042
"07011","Clifton","NJ","Slice Of India","50 Market St","07012",40.845743,-74.160331
"07011","Clifton","NJ","Aldi","56 Lakeview Ave","07011",40.876930332981246,-74.13704842329025
"07011","Clifton","NJ","Corrados Family Market","600 Getty Ave","07011",40.88785960174887,-74.15187402756816
"07011","Clifton","NJ","Ideal Food Basket","85 Ackerman Ave","07011",40.8775145,-74.12173709999999
"07011","Clifton","NJ","Paterson Farmers Market","449 E Railway Ave","07503",40.89221610258443,-74.15064694234127
"07011","Clifton","NJ","Food Basics","514 Van Houten Ave","07055",40.856228347081995,-74.14374494515772
"07011","Clifton","NJ","Jefry's Mini Mart","not_available","07055",40.86753509338077,-74.13228557159887
"07011","Clifton","NJ","Akmarket Grocery & Deli","not_available","07503",40.89082180437935,-74.14836416120474
"07011","Clifton","NJ","Super Exito Supermarket","218 Dayton Ave","07011",40.87552299048653,-74.12229577065922
"07011","Clifton","NJ","El Especial Supermarket","278 Monroe St","07055",40.864989,-74.125692
"07011","Clifton","NJ","Quicks Food Store","355 E Railway Ave","07503",40.89079398912636,-74.14909105297329
"07011","Clifton","NJ","Kosher Konnection","200 Main Ave","07055",40.84565046364157,-74.12785096614945
"07011","Clifton","NJ","Food Basics","not_available","07011",40.89187798,-74.133793
"07011","Clifton","NJ","Blessings Grocery Store","1245 Main Ave","07011",40.8778748,-74.1423729
"07011","Clifton","NJ","CP's Convenience Store","145 Main Ave","07014",40.833551964758165,-74.13858322368972
"07011","Clifton","NJ","CTown Supermarkets","602 Main Ave","07055",40.8595716,-74.1243245
"07011","Clifton","NJ","Compare Foods Supermarket","Jefferson st","not_available",40.862051300556324,-74.12412640189335
"07011","Clifton","NJ","PathMark","not_available","07087",40.87639555970737,-74.12791573524595
"07011","Clifton","NJ","Spices Of India","Market Street","07012",40.845882,-74.16038
"07011","Clifton","NJ","Alvarado Grocery Store","Central St 54","07011",40.868145,-74.13056
"07011","Clifton","NJ","Athenia Food Mart","722 Van Houten Ave","07013",40.859855634569776,-74.1510222180107
"07012","Clifton","NJ","Stop & Shop","1189 Broad St","07013",40.8555598,-74.1761924
"07013","Clifton","NJ","Anadolu Supermarket","879 Main St","07503",40.89734202600483,-74.16188192464598
"07013","Clifton","NJ","Los Mellos","302 Trenton Ave","07503",40.89616394042969,-74.14651489257812
"07014","Clifton","NJ","Target","30 Kingsland Rd","07014",40.82486454225173,-74.1353987700274
"07014","Clifton","NJ","Stop & Shop","160 Kingsland Rd","07014",40.8277075,-74.139987
"07014","Clifton","NJ","ShopRite of Nutley","437 Franklin Ave.","07110",40.8214797867377,-74.15802525367754
"07016","Cranford","NJ","Kings Food Markets","300 South Ave","07027",40.652232870667184,-74.32203292530528
"07016","Cranford","NJ","ACME Markets","801 Kenilworth Blvd","07033",40.6780423,-74.2815197
"07016","Cranford","NJ","King Farms","206 North Ave W","07016",40.655713,-74.309325
"07016","Cranford","NJ","Food Emporium","10 South Avenue","07016",40.65330123901367,-74.315185546875
"07016","Cranford","NJ","Pushing Carts","not_available","07090",40.65538782722201,-74.30998505226123
"07017","East Orange","NJ","ShopRite","533 Main St","07018",40.766027520532475,-74.21878940260791
"07017","East Orange","NJ","Extra Supermarket","563 Central Ave","07018",40.760401296802954,-74.2235528943387
"07017","East Orange","NJ","Halal Bites Meat Market","400 Central Ave","07018",40.75703048706055,-74.21780395507812
"07017","East Orange","NJ","Tropical Sun Supermarket","390 Main St","07018",40.76258326044996,-74.2123590821212
"07018","East Orange","NJ","Save A Lot","200 Central Ave","07050",40.7650071,-74.2315971
"07018","East Orange","NJ","Fine Fare","935 S Orange Ave","07018",40.746461,-74.226662
"07018","East Orange","NJ","Western Beef","1 Main St","07018",40.75593144771095,-74.1990371265525
"07020","Edgewater","NJ","Whole Foods Market","905 River Road","07020",40.8247057079905,-73.97382812137316
"07020","Edgewater","NJ","Central Market","300 W 110th St","10026",40.800297495284134,-73.95934914772775
"07020","Edgewater","NJ","H Mart","2828 Broadway","10025",40.80401565017113,-73.96667439065985
"07020","Edgewater","NJ","Best Market","2187 Frederick Douglass Blvd","10026",40.806067140423096,-73.9543523359782
"07020","Edgewater","NJ","Westside Market","2840 Broadway","10025",40.8042546041038,-73.96659969137721
"07020","Edgewater","NJ","Cafasso's Fairway Market","1214 Anderson Ave","07024",40.83943454629684,-73.98150631286644
"07020","Edgewater","NJ","Morton Williams","2941 Broadway","10025",40.80761278991331,-73.96420497872924
"07020","Edgewater","NJ","Foodtown","1316 Amsterdam Ave","10027",40.812313,-73.957444
"07020","Edgewater","NJ","CTown Supermarkets","560 W 125th St","10027",40.81472798073706,-73.95768021315831
"07020","Edgewater","NJ","Milano Market","2892 Broadway","10025",40.805847954124296,-73.96542446431012
"07020","Edgewater","NJ","Apple Tree Supermarket","1225 Amsterdam Ave","10027",40.80951618641807,-73.95909259548225
"07020","Edgewater","NJ","Columbus Market","81 W 104th St","10025",40.797937,-73.96329399999999
"07020","Edgewater","NJ","Garden of Eden Marketplace","2780 Broadway","10025",40.80254747989749,-73.9677664720545
"07020","Edgewater","NJ","H Mart Fresh","1379 16th St","07024",40.845576198150546,-73.97952359201619
"07020","Edgewater","NJ","CTown Supermarkets","3320 Broadway","10031",40.819530872665965,-73.95503108079026
"07020","Edgewater","NJ","Boulevard food store","520 Bergen Blvd","07650",40.84742186021689,-73.9849800600919
"07020","Edgewater","NJ","Mi Pais Market","3361 Broadway","10031",40.821487398405466,-73.95597826844138
"07020","Edgewater","NJ","Freshy's Beer & Grocery","941 Columbus Ave","10025",40.799291137552224,-73.96252781152725
"07020","Edgewater","NJ","Thrifty Grocery","3140-3176 Broadway","10027",40.814312,-73.9592669
"07020","Edgewater","NJ","Citarella","125th Street","10027",40.81122100353241,-73.954267
"07020","Edgewater","NJ","Associated Supermarket","2680 Broadway","10025",40.79850387573242,-73.96847534179688
"07020","Edgewater","NJ","ShopRite","not_available","07020",40.843595,-73.967853
"07022","Fairview","NJ","Super H Mart","321 Broad Ave","07657",40.82448021983795,-74.01048412968349
"07022","Fairview","NJ","Morning Farm","not_available","07022",40.81944724471146,-74.00179484779306
"07022","Fairview","NJ","International Food Cash & Carry","251 Broad Ave","07022",40.82246780395508,-74.00923156738281
"07023","Fanwood","NJ","Fine Fare","not_available","07062",40.63469,-74.394005
"07023","Fanwood","NJ","Fanwood Larder","44 S Martine Ave","07023",40.64006423950195,-74.3831558227539
"07024","Fort Lee","NJ","Han Nam Mart","1475 Bergen Blvd","07024",40.8517748921657,-73.98641694909082
"07024","Fort Lee","NJ","H Mart","120 Linwood Plz","07024",40.860928778734966,-73.97053006587382
"07024","Fort Lee","NJ","ACME Markets","2160 Lemoine Ave","07024",40.85618775693618,-73.96509738298846
"07024","Fort Lee","NJ","H-Mart","315 Broad Ave","07605",40.86165325137718,-73.98799449180235
"07024","Fort Lee","NJ","Silver Saddle Grocery","3635 Broadway","10031",40.82959,-73.948683
"07024","Fort Lee","NJ","Papasitos Foodmarkets","not_available","10031",40.828886078224386,-73.94872857401182
"07024","Fort Lee","NJ","Hanyang Supermarket","Broad Ave, Ridgefield, NJ","07657",40.843511760749,-73.98007881737723
"07026","Garfield","NJ","Walmart Supercenter","174 Passaic St","07026",40.866628785256104,-74.10076134387127
"07026","Garfield","NJ","Walmart","189 Us Highway 46","07663",40.89160570965401,-74.09369480731347
"07026","Garfield","NJ","Price Rite Of Garfield","59 Outwater Lane","07026",40.88151963260853,-74.11607111413132
"07026","Garfield","NJ","TORTILLAS MIXTECA","216 Midland Ave","07663",40.889286,-74.10319399999999
"07026","Garfield","NJ","Golden Eagle Deli","452 Lanza Ave","07026",40.8898811340332,-74.1068572998047
"07026","Garfield","NJ","Jagoda","not_available","07026",40.870438,-74.108444
"07027","Garwood","NJ","ShopRite of Garwood","563 North Avenue East","07027",40.65240220962238,-74.33097022506105
"07029","Harrison","NJ","Seabra Foods","429 Bergen St","07029",40.74324465647924,-74.15507170569622
"07029","Harrison","NJ","Seabras","not_available","07032",40.74933415396478,-74.15125475193517
"07029","Harrison","NJ","Food Depot","23 Kearny Ave","07032",40.75338363647461,-74.15721893310547
"07029","Harrison","NJ","Shri Foodmart","241 Harrison Ave","07029",40.74605178833008,-74.15839385986328
"07029","Harrison","NJ","Harrison Supermarket","not_available","07029",40.74995267212135,-74.15521021122017
"07030","Hoboken","NJ","Trader Joe's","1350 Willow Ave.","07030",40.75363429975088,-74.02983232852095
"07030","Hoboken","NJ","ShopRite of Hoboken","900 Madison Ave.","07030",40.74981213461808,-74.03607124939282
"07030","Hoboken","NJ","Kings Food Markets","1212 Shipyard Ln","07030",40.75177872278743,-74.02514772381129
"07030","Hoboken","NJ","Aspen Marketplace","226 Washington St","07030",40.73966109062221,-74.03030425162976
"07030","Hoboken","NJ","Liberty Gourmet","1100 Adams St","07030",40.75089730864319,-74.03369280619754
"07030","Hoboken","NJ","Kings Food Markets","325 River St","07030",40.73998122819597,-74.02791726347509
"07030","Hoboken","NJ","Basic Food","204 Washington St","07030",40.739068266966825,-74.03038849034185
"07030","Hoboken","NJ","Fine fare","West Street","07087",40.75520605078298,-74.04229384312305
"07030","Hoboken","NJ","Natural & Plus","97 Washington St","07030",40.737334416053656,-74.03091392433387
"07030","Hoboken","NJ","Blue Ribbon Grocery","450 1st St","07030",40.73862172965593,-74.03738103790492
"07030","Hoboken","NJ","Whole Fresh","not_available","07030",40.740451,-74.042144
"07030","Hoboken","NJ","BB Gourmet","828 Washington St","07030",40.74703383305228,-74.02805260512847
"07030","Hoboken","NJ","Sobsey's Produce","92 Bloomfield St","07030",40.7373011578677,-74.03170578480365
"07030","Hoboken","NJ","Finefare Supermarket","601 4th St","07087",40.755123,-74.042423
"07030","Hoboken","NJ","Nicks Candy and Grocery","14th","07030",40.75335065496319,-74.02648404340093
"07030","Hoboken","NJ","Marsh","121 River St","07030",40.73660510088017,-74.02902822561646
"07030","Hoboken","NJ","ACME Markets","614 Clinton St","07030",40.745090000000005,-74.034145
"07031","North Arlington","NJ","ShopRite of Belleville","726 Washington Avenue","07109",40.80445196907439,-74.14532594057322
"07031","North Arlington","NJ","Stop & Shop","425 Lewandowski St","07071",40.804105137747335,-74.11788135766983
"07031","North Arlington","NJ","Super Foodtown","1 Schuyler Ave","07031",40.77813403136009,-74.13080765694562
"07031","North Arlington","NJ","Corrado's Family Affair Market","45 River Rd","07031",40.78791563637178,-74.14478940073128
"07031","North Arlington","NJ","Clifton Commons","not_available","07071",40.79688696627976,-74.1272332975166
"07031","North Arlington","NJ","City Supermarket","414 Main St","07109",40.79420852661133,-74.14346313476562
"07031","North Arlington","NJ","Green & Grain","Ridge Rd","07031",40.78727340698242,-74.13463592529297
"07031","North Arlington","NJ","Road Runner Food Store","740 Ridge Rd","07071",40.79946769922336,-74.12491714030881
"07032","Kearny","NJ","Walmart Supercenter","150 Harrison Ave","07032",40.749548,-74.13562
"07032","Kearny","NJ","ShopRite of Kearny","100 Passaic Ave.","07032",40.75677018407542,-74.16085376441258
"07032","Kearny","NJ","Seabra's Supermarket","260 Lafayette St","07105",40.728272218932446,-74.16103214776868
"07032","Kearny","NJ","Seabra Foods","123 Ferry St","07105",40.730238387841865,-74.16034424906685
"07032","Kearny","NJ","Bravo Supermarkets","503 West Side Ave","07304",40.71825083056925,-74.08415249131303
"07032","Kearny","NJ","A & J Seabras Supermarket","Wilson Ave","07105",40.72589566230594,-74.15267601276585
"07032","Kearny","NJ","CTown Supermarkets","759 W Side Ave","07306",40.72634426339836,-74.07696650596347
"07032","Kearny","NJ","Golden Farm","Jefferson St","07105",40.73243983664694,-74.15889468307256
"07032","Kearny","NJ","Pueblo Supermarket","880 Mount Prospect Ave","07104",40.78317861582361,-74.16260141124938
"07032","Kearny","NJ","A&J Seabra Supermarket","180 Schuyler Ave","07032",40.75546082357222,-74.14483251264161
"07032","Kearny","NJ","Faber News Now","1000 New County Rd","07094",40.76134653193039,-74.07564810719366
"07032","Kearny","NJ","Fresh Farms","Rt 440","07304",40.71877864930315,-74.09372197546263
"07032","Kearny","NJ","Martin Grocery Store","268 Duncan Ave","07306",40.728809999999996,-74.080838
"07032","Kearny","NJ","Jersey City West Indian Market","733 W Side Ave","07306",40.725547790527344,-74.07764434814453
"07032","Kearny","NJ","Twin City Grocery Store","611 Broadway","07104",40.77130889892578,-74.1619644165039
"07032","Kearny","NJ","Mendez Grocery","not_available","07306",40.728701,-74.080908
"07032","Kearny","NJ","Latina Mini Market","848 Summer Ave","07104",40.78104782104492,-74.16059875488281
"07032","Kearny","NJ","Super-Xtra Supermarket","930 Broadway","07104",40.781166076660156,-74.15477752685547
"07032","Kearny","NJ","Shop Rite Dc","45 Joseph st","07105",40.7386,-74.13404
"07032","Kearny","NJ","Byk's Supermarket","99 Pulaski St","07105",40.722736,-74.15886400000001
"07032","Kearny","NJ","Anthony's Shop and Save Supermarket","288 Kearny Ave","07032",40.760318739300615,-74.15078095036733
"07032","Kearny","NJ","West Side Market","512-514 W Side Ave","07304",40.718422,-74.08341
"07033","Kenilworth","NJ","Walmart","900 Springfield Rd","07083",40.68733321553561,-74.30034477047526
"07033","Kenilworth","NJ","A&J Seabra Foods","1350 Galloping Hill Rd","07083",40.67661837141878,-74.26981590440448
"07033","Kenilworth","NJ","J&D Polish Mini Market","643 Chestnut St","07083",40.68737451036736,-74.2697238922119
"07033","Kenilworth","NJ","Shoprite","not_available","07204",40.66832072847184,-74.26969935635566
"07034","Lake Hiawatha","NJ","ShopRite of Parsippany","808 Route 46 West","07054",40.86508860830731,-74.37570610585892
"07034","Lake Hiawatha","NJ","ShopRite","808 US Highway 46","07054",40.865352630615234,-74.37511444091797
"07035","Lincoln Park","NJ","ShopRite of Lincoln Park","60 Beaver Brook Rd.","07035",40.92522239950326,-74.30948996005212
"07035","Lincoln Park","NJ","J Wolfson Super Market","480 Boonton Tpke #1","07035",40.9142105597025,-74.27237294264357
"07035","Lincoln Park","NJ","Jack's Super Foodtown","1466 State Route 23","07470",40.934152861401,-74.2683918211615
"07035","Lincoln Park","NJ","Foodtown Of Wayne","route 23","not_available",40.93415408769083,-74.26825780707077
"07035","Lincoln Park","NJ","King Pao Oriental Grocery","150 Mountainview Blvd","07470",40.9149187,-74.267062
"07035","Lincoln Park","NJ","A & A Fine Foods","191 Main St","07035",40.92338,-74.30585
"07036","Linden","NJ","Walmart Supercenter","1050 W Edgar Rd","07036",40.61276398772027,-74.24831050694432
"07036","Linden","NJ","ShopRite","637 W Edgar Rd","07036",40.61893426586262,-74.24620438057336
"07036","Linden","NJ","A & J Seabra's","1000 S Elmora Ave","07202",40.65200435942616,-74.22465346763079
"07036","Linden","NJ","Super Fresh","651 Stiles St","07036",40.62596,-74.268766
"07036","Linden","NJ","Aldi","1235 Saint George Ave","07203",40.64807281929328,-74.24817502498627
"07036","Linden","NJ","Seabras Supermarket","550 Raritan Rd","07203",40.64511041692783,-74.27271886397402
"07036","Linden","NJ","Aldi","1705 W Edgar Rd","07036",40.6115246,-74.2525277
"07036","Linden","NJ","Eagle Supermarket","1427 Saint George Ave","07203",40.64900054482469,-74.24408858461558
"07036","Linden","NJ","Walmart Grocery Pickup and Delivery","1601 W Edgar Rd","07036",40.612722,-74.247571
"07036","Linden","NJ","Krauzers","Saint Georges Ave.","07065",40.60991110781245,-74.2877720132999
"07036","Linden","NJ","Superfresh","not_available","07036",40.626027,-74.268531
"07036","Linden","NJ","Save A Lot","1600 E Saint Georges Ave","07036",40.6491324,-74.2411341
"07036","Linden","NJ","Home Fresh Market","355 W St Georges Ave","07036",40.631397,-74.269516
"07036","Linden","NJ","Universal Supermarket","2325 Elizabeth Ave","07065",40.61689466122187,-74.26671254121808
"07036","Linden","NJ","ShopRite of Linden","637 W. Edgar Rd., Aviation Plaza","07036",40.61854553222656,-74.24578094482422
"07036","Linden","NJ","Save-A-Lot","1600 E St. Georges Ave","07036",40.649117,-74.24099
"07039","Livingston","NJ","ShopRite of Livingston","483 S. Livingston Ave.","07039",40.77527715473071,-74.32145542487352
"07039","Livingston","NJ","Kam Man Food 金門超市","200 State Route 10","07936",40.80985426043924,-74.3741687413742
"07039","Livingston","NJ","Kings Food Markets","255 S Livingston Ave","07039",40.786644458402115,-74.31324232396484
"07039","Livingston","NJ","Prime Foods Market","613 W Mount Pleasant Ave","07039",40.797768,-74.355066
"07039","Livingston","NJ","South Mountain Market","581 Northfield Ave #C","07052",40.77010541734513,-74.28214003304531
"07039","Livingston","NJ","Ricky's Indian Bazaar","320 Route 10 West","not_available",40.804755,-74.366338
"07040","Maplewood","NJ","Whole Foods Market","2245 Springfield Ave.","07088",40.7170552041893,-74.28654430825806
"07040","Maplewood","NJ","Kings Food Markets","159 Maplewood Ave","07040",40.73134270020554,-74.27689253453703
"07040","Maplewood","NJ","Ashley Marketplace","1 South Orange Ave","07079",40.746576985833556,-74.25964539611606
"07040","Maplewood","NJ","City Supermarket Newark","525 Irvington Ave","07106",40.73587416023763,-74.24994836897557
"07040","Maplewood","NJ","City Supermarket Irvington","10 Mill Rd","07111",40.7143701858811,-74.24924579091572
"07040","Maplewood","NJ","Ashely Marketplce","1 S Orange Ave","07079",40.746596999999994,-74.259672
"07040","Maplewood","NJ","Zoom Convenience","2190 Springfield Ave","07088",40.718887,-74.28355400000001
"07041","Millburn","NJ","Trader Joe's","187 Millburn Ave","07041",40.72279668901444,-74.29582759743687
"07041","Millburn","NJ","ShopRite of Millburn","220 Main St.","07041",40.717825274279384,-74.30745640753506
"07042","Montclair","NJ","Whole Foods Market","701 Bloomfield Ave","07042",40.81851806413375,-74.22296583745927
"07042","Montclair","NJ","Convenient For You Fruits and Vegetables","17 William St","07052",40.788801,-74.22946800000001
"07045","Montville","NJ","The Village Market","not_available","07045",40.913626,-74.352861
"07047","North Bergen","NJ","Whole Foods Market","1400 Waterfront Terrace","07086",40.75979,-74.02488
"07047","North Bergen","NJ","Big Apple Meat Market","577 9th Ave","10036",40.758187,-73.992946
"07047","North Bergen","NJ","Food Emporium","452 W 43rd St","10036",40.75945116419509,-73.99471060184236
"07047","North Bergen","NJ","ShopRite of Columbia Park","3147 Kennedy Blvd.","07047",40.77646689987575,-74.03496997234897
"07047","North Bergen","NJ","Food Bazaar Supermarket","1425 Kennedy Blvd","07047",40.76428083466181,-74.04372835409988
"07047","North Bergen","NJ","Freshco Markets","6411 Park Ave","07093",40.78935843479516,-74.00591821818729
"07047","North Bergen","NJ","ALDI","2819 Kennedy Blvd","07047",40.7734638,-74.0369121
"07047","North Bergen","NJ","Walmart Supercenter","2100 88th St","07047",40.814014,-74.01454
"07047","North Bergen","NJ","Extra Supermarket","5505 Palisade Ave","07093",40.78504774936888,-74.01681786984669
"07047","North Bergen","NJ","Bandera Supermarket","518 32nd St","07087",40.772907000000004,-74.029358
"07047","North Bergen","NJ","Benny's Liquors & Supermarket","7000 Park Ave","07093",40.79257272329084,-74.0032106786438
"07047","North Bergen","NJ","Bergenline Supermarket","8107 Bergenline Ave","07047",40.803346457052406,-74.00582902959194
"07047","North Bergen","NJ","Las Palmas Supermarket","6155 Bergenline Ave","07093",40.790620000000004,-74.015359
"07047","North Bergen","NJ","Merci Market","350 W 42nd St","10036",40.7577483927282,-73.99231997108348
"07047","North Bergen","NJ","Compare Foods Supermarket","1911 Bergenline Ave","07087",40.764596999999995,-74.034717
"07047","North Bergen","NJ","La Esquina Dominicana","6300 Dewey Ave","07093",40.789833068847656,-74.0094223022461
"07047","North Bergen","NJ","Aileen Grocery & Deli","6108 Park Ave","07093",40.787029,-74.00755
"07047","North Bergen","NJ","Camila's Deli & Grocery","5900 Hudson Ave","07093",40.786455,-74.012827
"07047","North Bergen","NJ","David's Grocery","1620 Bergenline Ave","07087",40.7628,-74.035337
"07047","North Bergen","NJ","Mi Nueva Tienda","7101 Park Ave","07093",40.793365,-74.00285500000001
"07047","North Bergen","NJ","El Nuevo Cubaney Supermarket","6218 Park Ave","07093",40.788097,-74.00648699999999
"07047","North Bergen","NJ","Al-Aqsa Meat Market & Grocery","7424 Bergenline Ave","07047",40.798705,-74.008618
"07047","North Bergen","NJ","Jersey Fruits & Vegetables Market","6516 Park Ave","07093",40.789981309031205,-74.00535273659517
"07047","North Bergen","NJ","5 Brothers Minimarket #2","541 60th St, West New York, NJ 07093","07093",40.78934860229492,-74.0176010131836
"07047","North Bergen","NJ","61st Street Deli","6101 Newkirk Ave","07047",40.793078,-74.02217399999999
"07050","Orange","NJ","Super Supermarket","53 S Jefferson St","07050",40.7747149174882,-74.23809215546096
"07050","Orange","NJ","Bravo Supermarkets","321 Scotland Road","07050",40.767681837866824,-74.24253345569014
"07050","Orange","NJ","CTown Supermarkets","16 N Day St # 26","07050",40.772743,-74.2289578
"07052","West Orange","NJ","ShopRite","1 Rooney Cir","07052",40.79473939369296,-74.25608286401135
"07052","West Orange","NJ","Whole Foods Market","235 Prospect Ave","07052",40.80426058867242,-74.24866478560105
"07054","Parsippany","NJ","Wegmans","34 Sylvan Way","07054",40.838604976741756,-74.43702560936688
"07054","Parsippany","NJ","Top Quality Food Market","818 Rt. 46 West","07054",40.86258686721503,-74.37622420747365
"07054","Parsippany","NJ","Patel Brothers Farmer’s Market","1084-1088 Rt 46 West, Parsippany, NJ 07054","07054",40.863369,-74.385676
"07054","Parsippany","NJ","Daily Food Market","329 US Highway 46","07054",40.85896872777141,-74.35881060000959
"07054","Parsippany","NJ","Subzi Mandi","1449-1625 U.S. 46","07054",40.86403651373891,-74.40216966348622
"07054","Parsippany","NJ","Patel Brothers","364 Parsippany Rd Ste 9B","07054",40.85403840872794,-74.42583990100513
"07054","Parsippany","NJ","D’Mart","196 Route 146 W","07054",40.858494,-74.354884
"07054","Parsippany","NJ","Khan Market","142 US Highway 46","07054",40.85833290427323,-74.35232951394944
"07055","Passaic","NJ","El Mercado de la Ocho","100 8th St","07055",40.85978698730469,-74.10977935791016
"07055","Passaic","NJ","Adam's Food Market","168 Maple Ave","07057",40.85313466709838,-74.11503826193187
"07055","Passaic","NJ","Biedronka","5 Locust Avenue","07057",40.850175,-74.114214
"07055","Passaic","NJ","Kwiki-Mart","137 Main Ave","07057",40.854861,-74.112112
"07057","Wallington","NJ","ShopRite","Paterson Ave.","07057",40.84447173300843,-74.10665052797401
"07057","Wallington","NJ","Food Basics","375 Paterson Ave","07057",40.84409911669348,-74.10626148818152
"07059","Warren","NJ","ShopRite of Stirling","1153 Valley Rd","07980",40.66748449738945,-74.48800795061557
"07059","Warren","NJ","Kings Food Markets","64 Mountain Blvd","07059",40.61722969808764,-74.49453863372506
"07059","Warren","NJ","ACME Markets","177 Washington Valley Rd","07059",40.6148634,-74.4975805
"07059","Warren","NJ","Kings Food Markets","977 Valley Rd","07933",40.667993,-74.479063
"07059","Warren","NJ","Asian Food Market","965 Route 22 W","07060",40.6191881491843,-74.45071117744045
"07059","Warren","NJ","ShopRite of Stirling","1153 Valley Rd.","07980",40.6677914,-74.4934188
"07059","Warren","NJ","A & P Basking Ridge, NJ","King George Road","not_available",40.637932259896544,-74.49658162987357
"07060","Plainfield","NJ","Walmart","1501 Us Highway 22","07069",40.63809426527327,-74.4248636751422
"07060","Plainfield","NJ","Speedy Mart Food Store","17 Johnston Dr","07069",40.63013203316158,-74.44130552878289
"07060","Plainfield","NJ","Asian Food Market","not_available","07069",40.63037275966581,-74.40793155249308
"07060","Plainfield","NJ","BJ's Wholesale Club","not_available","07060",40.625393273514845,-74.42459905159757
"07060","Plainfield","NJ","Key Food Fresh","1200 South Ave","07062",40.63027572631836,-74.39976501464844
"07060","Plainfield","NJ","Twin City Supermarket","600 Park Ave","07060",40.61368531329906,-74.40835813625804
"07060","Plainfield","NJ","Belvidere Food Store","1103 South Ave","07062",40.62894298067034,-74.40270367085982
"07060","Plainfield","NJ","Los Amigos","Somerset st","not_available",40.61966191273557,-74.42566397776838
"07063","Plainfield","NJ","Bravo Supermarkets","1245 W 7th St","07080",40.597083,-74.436336
"07066","Clark","NJ","ShopRite of Clark","76 Central Ave.","07066",40.62859312870476,-74.30549931923802
"07066","Clark","NJ","Whole Foods Market","1255 Raritan Road","07066",40.63149784984362,-74.30422764207012
"07066","Clark","NJ","ACME Markets","1060 Raritan Rd","07066",40.6283967,-74.3160204
"07066","Clark","NJ","Linda's Diet Delites","1040 A Raritan Road","07066",40.62706803124805,-74.31492345963744
"07067","Colonia","NJ","The Fresh Grocer of Colonia","510 Inman Avenue","07067",40.599594,-74.324845
"07067","Colonia","NJ","Subzi Mandi","79 Middlesex Ave","08830",40.57451099061048,-74.32390902253297
"07069","Watchung","NJ","ShopRite of Watchung","1701 Route 22 West","07069",40.65004065083308,-74.40952625873898
"07070","Rutherford","NJ","Aldi","59 State Rt 17","07073",40.831393367429705,-74.09271821379662
"07070","Rutherford","NJ","The Water Store","251 Paterson Ave.","07073",40.83416748046875,-74.09759521484375
"07070","Rutherford","NJ","Carlstadt Ice","517 State Rt 17","07072",40.836490999999995,-74.084659
"07070","Rutherford","NJ","Aiwa Foodstore","149 Ridge Rd","07071",40.812382,-74.116175
"07070","Rutherford","NJ","ShopRite Online Shopping Room","540 New York Ave, Lyndhurst, NJ 07071","07071",40.81248092651367,-74.12020874023438
"07070","Rutherford","NJ","Pod","not_available","07070",40.82933512939072,-74.11766743791532
"07072","Carlstadt","NJ","Shoprite","not_available","07604",40.83858355447191,-74.05375064990778
"07073","East Rutherford","NJ","Woodridge Quick Mart","267 Valley Blvd woodridge Nj  07075","07075",40.851083,-74.084988
"07075","Wood Ridge","NJ","Market Fresh","40 Rosie Sq","07075",40.861440524358784,-74.08896584011366
"07075","Wood Ridge","NJ","CTown Supermarkets","40 Rosie Square","07075",40.86119190072698,-74.08916803834381
"07075","Wood Ridge","NJ","Nick's Quick Mart","183 Boulevard","07604",40.861000061035156,-74.0794906616211
"07076","Scotch Plains","NJ","Trader Joe's","155 Elm St","07090",40.652147,-74.350051
"07076","Scotch Plains","NJ","A And P","not_available","07424",40.645043460200675,-74.35939168381339
"07076","Scotch Plains","NJ","Super Leader","not_available","07076",40.62739,-74.36343
"07076","Scotch Plains","NJ","ShopRite","333 South Ave E","07090",40.65081024169922,-74.337890625
"07078","Short Hills","NJ","Kings Food Markets","778 Morris Tpke","07078",40.722191996492896,-74.33396878243578
"07078","Short Hills","NJ","ShopRite of Springfield","727 Morris Tpke.","07081",40.719332628125834,-74.33122863236429
"07078","Short Hills","NJ","ShopRite of Springfield","727 Morris Tpke","07081",40.7189763,-74.3312175
"07079","South Orange","NJ","Pioneer Market","71 Mount Vernon Pl","07106",40.73635824592961,-74.24059254219159
"07080","South Plainfield","NJ","Walmart","1303 Centennial Ave","08854",40.554326805943646,-74.44079514902113
"07080","South Plainfield","NJ","ShopRite of South Plainfield","3600 Park Avenue","07080",40.57573382058901,-74.39111098913183
"07080","South Plainfield","NJ","Asian Food Market","1300 Centenial Ave","08854",40.553414091644136,-74.43775115843422
"07080","South Plainfield","NJ","Aldi","1620 Park Ave","07080",40.5978848,-74.4018526
"07080","South Plainfield","NJ","Patidar Cash & Carry","not_available","07080",40.55786877707583,-74.41768170674663
"07080","South Plainfield","NJ","Aldi","1321 Centennial Ave","08854",40.552209926059284,-74.43882486442817
"07080","South Plainfield","NJ","Shop Rite","Oak Tree Avenue","07080",40.577513,-74.390637
"07080","South Plainfield","NJ","Sunshine groceries","Stelton rd","08854",40.553557,-74.434894
"07080","South Plainfield","NJ","ACME Markets","907 Oak Tree Rd","07080",40.57865141337896,-74.38957303762436
"07080","South Plainfield","NJ","7-Eleven Plainfield Ave.","2325 Plainfield Ave","07080",40.58699417114258,-74.41845703125
"07081","Springfield","NJ","ShopRite","2401 US Highway 22 W","07083",40.69231338183813,-74.29675666843924
"07081","Springfield","NJ","ShopRite of Union, NJ - Highway 22","2401D Us Highway 22 West","07083",40.6919589,-74.296386
"07081","Springfield","NJ","Welsh Farms","154 Mountain Ave","07081",40.70695114135742,-74.31605529785156
"07081","Springfield","NJ","Foodtown","211 Morris Ave","07081",40.710330963134766,-74.3105239868164
"07081","Springfield","NJ","FoodKing","Meisel ave","not_available",40.709962,-74.298107
"07083","Union","NJ","Lidl","2375 US-22","07083",40.69130135,-74.29477474
"07083","Union","NJ","ShopRite","367 US Highway 22","07205",40.69988003802635,-74.23440354997106
"07083","Union","NJ","Aldi","1020 Commerce Ave","07083",40.70030129765288,-74.28168788552284
"07083","Union","NJ","SuperFresh Supermarket","471 Lyons Ave","07111",40.716162275995494,-74.22335722324122
"07083","Union","NJ","A&J Seabra's Supermarket","1132 Liberty Ave","07205",40.692766319039265,-74.23705772936782
"07083","Union","NJ","Shop Rite Of Hillside","Rt. 22 West","07205",40.7001244903086,-74.23421352577625
"07086","Weehawken","NJ","Made In Ecuador","4004 Bergenline Ave","07087",40.776519,-74.025823
"07086","Weehawken","NJ","El Especialito","3510 Bergenline Ave","07087",40.773746490478516,-74.02739715576172
"07086","Weehawken","NJ","Latin American Deli & Grocery","4906 Broadway","07087",40.780228,-74.01579
"07086","Weehawken","NJ","Los Hermanos Supermarket","2606 Bergenline Ave","07087",40.769076969348944,-74.03162167791407
"07086","Weehawken","NJ","TAKA Dog Walk","845 Blvd East","07086",40.7628413,-74.0212114
"07086","Weehawken","NJ","Las Cinco Familias Grocery","2303 Bergenline Ave","07087",40.767245,-74.032977
"07086","Weehawken","NJ","Eli's Grocery","205 34th St","07087",40.771414,-74.025592
"07086","Weehawken","NJ","West Food Grocery","4522 Park Ave","07086",40.777538,-74.017584
"07086","Weehawken","NJ","The Morales Mexican Deli & Grocery","3615 New York Ave","07087",40.77397,-74.02635
"07087","Union City","NJ","Value Fresh Market","1212 Summit Ave","07307",40.75629,-74.044334
"07087","Union City","NJ","CTown Supermarkets","506 Central Ave","07307",40.75193656657147,-74.04510161978311
"07087","Union City","NJ","La Sorpresa","1319 Summit Ave","07087",40.76253306647237,-74.04094519129062
"07093","West New York","NJ","Boulevard East Liquor & Deli","6315 Kennedy Blvd E","07093",40.78763961791992,-74.00382232666016
"07093","West New York","NJ","Fiesta Supermarket","5500 Bergenline Ave","07093",40.785526275634766,-74.01847839355469
"07093","West New York","NJ","KEA Supermarket","5601 Hudson Ave","07093",40.784915999999996,-74.014673
"07093","West New York","NJ","Puebla Grocery","7122 Bergenline Ave","07047",40.797245025634766,-74.01005554199219
"07093","West New York","NJ","Moya Meat Market","6015 Park Ave","07093",40.786006,-74.009188
"07093","West New York","NJ","Latinos Supermarket","6418 Hudson Ave","07093",40.79071044921875,-74.0094985961914
"07093","West New York","NJ","Colina Grocery","6127 Palisade Ave","07093",40.79008102416992,-74.01258850097656
"07093","West New York","NJ","El Rey Farmer's Market","6124 Palisade Ave","07093",40.789846000000004,-74.012135
"07093","West New York","NJ","Charly's Mini Market","5412 Madison St","07093",40.785920000000004,-74.020011
"07093","West New York","NJ","Maritza & Jennifer Deli & Grocery","6401 Bergenwood Ave","07047",40.794788,-74.018201
"07093","West New York","NJ","Cuba Deli & Grocery","6401 Hudson Ave","07093",40.79079055786133,-74.00985717773438
"07093","West New York","NJ","Nino Grocery","6401 Broadway","07093",40.78997039794922,-74.00836944580078
"07093","West New York","NJ","O & C Deli Grocery","6052 Tyler Pl","07093",40.789283752441406,-74.01380157470703
"07093","West New York","NJ","Park Avenue Grocery & Convenience","7001 Park Ave","07093",40.792755,-74.00332
"07094","Secaucus","NJ","Green Farmers Market","101 Plaza Ctr","07094",40.79145798384259,-74.0569467746038
"07094","Secaucus","NJ","Walmart Grocery Pickup","400 Park Pl","07094",40.790654414567,-74.0442140701947
"07095","Woodbridge","NJ","Wegmans","15 Woodbridge Center Dr","07095",40.54852379878902,-74.29680284067433
"07095","Woodbridge","NJ","Walmart","360 Us Highway 9 Route N","07095",40.53548799,-74.29376528
"07095","Woodbridge","NJ","Aldi","450 King Georges Rd","07095",40.5356541,-74.2981945
"07095","Woodbridge","NJ","Euroasia's Organics Inc","655 Amboy Avenue, 401/D","07095",40.5624762,-74.2860158
"07102","Newark","NJ","Seabra Foods","219 Chestnut St","07105",40.723171664206816,-74.1665101318727
"07102","Newark","NJ","Whole Foods Market","633 Broad St","07102",40.74005477916467,-74.16991365014131
"07102","Newark","NJ","CTown Supermarkets","120 Clinton Ave","07114",40.72475044417089,-74.18241530656815
"07102","Newark","NJ","Hallmark House Convenience Store","10 Hill St","07102",40.73164749145508,-74.17533874511719
"07102","Newark","NJ","Aloevine Organics","436 Mulberry Street, # 428","07114",40.7234527,-74.1747456
"07102","Newark","NJ","JJ Martin Group","90 South St","07114",40.72375333,-74.1749
"07102","Newark","NJ","Empório Supermarket","not_available","07114",40.72378921508789,-74.17868041992188
"07102","Newark","NJ","Aloevine","100 south street","07114",40.723328,-74.1744499
"07102","Newark","NJ","Garcia Grocery","735 Dr Martin Luther King Jr Blvd","07102",40.727054595947266,-74.18365478515625
"07102","Newark","NJ","A & J Seabras Supermarket","65 Pacific St","07105",40.725941,-74.16630699999999
"07103","Newark","NJ","Food Depot","75 1st St","07107",40.74801223034595,-74.18748846299219
"07103","Newark","NJ","Save-A-Lot","545 Springfield Ave","07103",40.731015871518075,-74.20450390972958
"07103","Newark","NJ","Murry's","186-208 W Market St","07103",40.741956917933635,-74.18796047320119
"07103","Newark","NJ","Food Depot Supermarket","75 1st St, Newark, NJ 07107","07107",40.748050689697266,-74.1878890991211
"07103","Newark","NJ","KAS - SUPERMARKET","Central ave","07103",40.74532228004172,-74.19447294417218
"07104","Newark","NJ","Fine Fare","323 Mount Prospect Ave","07104",40.76290483,-74.171588
"07104","Newark","NJ","Birardi","495 N 5th St","07107",40.765111,-74.182469
"07104","Newark","NJ","Leo's Super Market","199 Summer Ave","07104",40.758334000000005,-74.171801
"07104","Newark","NJ","?uestion Mart","392 Broad St","07104",40.748374,-74.170292
"07104","Newark","NJ","Mt. Prospect Grocery","321 Mount Prospect Ave","07104",40.762217,-74.171887
"07106","Newark","NJ","Fine Fair Supermarket","not_available","07106",40.742984771728516,-74.22825622558594
"07106","Newark","NJ","San Miguel","18th Avenue","07111",40.73559730394189,-74.2206523645144
"07106","Newark","NJ","R M R Supermarket","191 Myrtle Ave","07111",40.732352,-74.223844
"07106","Newark","NJ","Bernard Supermarket","243 Stuyvesant Ave","07106",40.738065,-74.231945
"07106","Newark","NJ","CTown Supermarkets","910 18th Ave","07106",40.73844475883164,-74.22488942742348
"07107","Newark","NJ","Exclusive Imports LLC","248 N 9th St","07107",40.764371000000004,-74.188478
"07107","Newark","NJ","Bravo Supermarkets","260 Roseville Ave","07107",40.75969239922131,-74.18966214016666
"07108","Newark","NJ","Extras Supermarket","107 Willoughby St","07112",40.71274441718222,-74.21800421036467
"07108","Newark","NJ","ecowas","765 Springfield Ave","07111",40.728705,-74.216813
"07108","Newark","NJ","Los Tiburones Supermarket","566 Bergen St","07108",40.72465133666992,-74.19856262207031
"07111","Irvington","NJ","food choice","Springfield Ave.","07111",40.72893299069874,-74.23726314288834
"07111","Irvington","NJ","Supremo Food Market","914 Springfield Ave","07111",40.728930942215406,-74.23726033151056
"07111","Irvington","NJ","Superfresh","Lyons ave","07112",40.7107526,-74.2150569
"07111","Irvington","NJ","Extra Supermarket","719 Irvington Ave","07040",40.7288800515005,-74.23727005290961
"07114","Newark","NJ","Twin City Supermarket","1016 Sherman Ave","07208",40.68711218337891,-74.20593952511697
"07114","Newark","NJ","Europa Pombalense Supermarket","724 Jefferson Ave","07201",40.679204999999996,-74.205449
"07201","Elizabeth","NJ","IGA Supermarkets Plus","not_available","07201",40.662836,-74.199792
"07201","Elizabeth","NJ","Super Supermarket","903 Elizabeth Ave","07201",40.65987014770508,-74.20503234863281
"07201","Elizabeth","NJ","Supremo Food Market","25 S Broad St","07202",40.66042049613873,-74.21580598417007
"07201","Elizabeth","NJ","Carniceria Mundo Hispano","866 Elizabeth Ave","07201",40.659040000000005,-74.204463
"07201","Elizabeth","NJ","super supermarket","712 1st Ave","07201",40.658201,-74.202939
"07201","Elizabeth","NJ","Eagle Supermarket","1102 Elizabeth Ave","07201",40.661613,-74.21176700000001
"07202","Elizabeth","NJ","ShopRite of Elizabeth","865 W. Grand St.","07202",40.66359090270523,-74.23970305537318
"07202","Elizabeth","NJ","Food Bazaar Supermarket","211 Elmora Ave","07202",40.664499859485005,-74.23184501874606
"07202","Elizabeth","NJ","Superfood Market place","Fulton St","07206",40.64710427507656,-74.19066014818402
"07202","Elizabeth","NJ","L & J supermarket","East Jersey & First Str","07206",40.64835241780508,-74.18779995165505
"07203","Roselle","NJ","Chestnut Hill Supermarket","147 Chestnut St","07204",40.663089296823635,-74.26426328846009
"07205","Hillside","NJ","Rupa Food Market","1323 Alina St","07208",40.68743288256284,-74.22194045989644
"07205","Hillside","NJ","Save A Lot","1303 North Broad St","07205",40.6948244,-74.2149061
"07206","Elizabethport","NJ","Agoreana Supermarket","237 2nd St","07206",40.652923,-74.183774
"07206","Elizabethport","NJ","San Lazaro Minimart","not_available","07206",40.65321252502023,-74.18215867748674
"07302","Jersey City","NJ","ShopRite of Metro Plaza","400 Marin Blvd.","07302",40.72312890949524,-74.03994050858924
"07302","Jersey City","NJ","Hudson Greene Market","77 Hudson St","07302",40.71483898644368,-74.03503300977411
"07302","Jersey City","NJ","Key Fresh & Natural","574 Jersey Ave","07302",40.723194113764215,-74.0457164962838
"07302","Jersey City","NJ","Sprove Market Place","70 Christopher Columbus Dr","07302",40.71917484219776,-74.04107338899537
"07302","Jersey City","NJ","Prime Food Market","180 10th St","07302",40.72882261278684,-74.04131057308672
"07302","Jersey City","NJ","P&K Food Market","170 Newark Ave","07302",40.72110312235823,-74.04490773338101
"07302","Jersey City","NJ","La Conga Supermarket","352 Grove St","07302",40.72052161271338,-74.04271261850927
"07302","Jersey City","NJ","Jetro","1 Amity St","07304",40.7203879081925,-74.06362943301738
"07302","Jersey City","NJ","Liberty Mart","225 Grand St","not_available",40.715179974597966,-74.04323385606163
"07302","Jersey City","NJ","Steven's Market","not_available","07302",40.72299326396015,-74.04874216612693
"07302","Jersey City","NJ","Monegros","not_available","07304",40.71034506860793,-74.05993505559142
"07302","Jersey City","NJ","Nha Trang Market","251 Newark Ave","07302",40.722733577503654,-74.04844434801566
"07302","Jersey City","NJ","Vimpex Grocery","34-36 Coles St","07302",40.722855441618805,-74.04751685498854
"07302","Jersey City","NJ","Choice Canning Company Inc.","15 Exchange Pl","07302",40.715859,-74.03337900000001
"07302","Jersey City","NJ","Salmans Grocery","190 York St","07302",40.71675324247426,-74.04265880584717
"07304","Jersey City","NJ","Bergen Fruit & Vegetable","787 Bergen Ave","07306",40.725868,-74.068088
"07304","Jersey City","NJ","Extra Supermarket","360 Martin Luther King Jr Dr","07305",40.710636140344285,-74.07750844087519
"07304","Jersey City","NJ","Exito Fresh Market","113 Monticello Ave","07304",40.718624,-74.072008
"07304","Jersey City","NJ","CHM Asian Food Mart","217 Summit Ave","07304",40.722742,-74.065976
"07304","Jersey City","NJ","Shelly's Supermarket","700 Bergen Ave","07306",40.723934173583984,-74.06979370117188
"07304","Jersey City","NJ","Galord Foods","2525 John F Kennedy Blvd","07304",40.72323888880622,-74.07482139229435
"07304","Jersey City","NJ","Big Saving Supermarket","751 Ocean Ave","07305",40.71203475830199,-74.07535503138647
"07304","Jersey City","NJ","Grind General Store","293 Suydam Ave","07304",40.709603,-74.060598
"07305","Jersey City","NJ","ACME Markets","321 Route 440","07305",40.7105326,-74.1018231
"07305","Jersey City","NJ","ACME Markets Pharmacy","321 State Rt 440","07305",40.7105982,-74.1019857
"07306","Jersey City","NJ","CTown Supermarkets","885 Bergen Ave","07306",40.729676717052776,-74.06603962182999
"07306","Jersey City","NJ","Supremo Food Market","323 Palisade Ave","07307",40.73965573504591,-74.04725997889516
"07306","Jersey City","NJ","Apna Bazaar Cash & Carry","2975 John F Kennedy Blvd","07306",40.7349996165381,-74.06316894696009
"07306","Jersey City","NJ","Patels Cash and Carry","782 Newark Ave","07306",40.73557626184033,-74.06409622085945
"07306","Jersey City","NJ","Minar Hallal Meat & Grocery","771 Newark Ave","07306",40.73534383162904,-74.06386474465067
"07306","Jersey City","NJ","FilStop","683 Newark Ave","07306",40.734739,-74.06004899999999
"07306","Jersey City","NJ","Sabzi Mandi","815 Newark Ave","07306",40.735242,-74.06496700000001
"07306","Jersey City","NJ","Twin City Supermarket","216 Sip Ave","07306",40.732240999999995,-74.069845
"07306","Jersey City","NJ","Super Bazaar","658 Newark Ave","07306",40.73469924926758,-74.05883026123047
"07306","Jersey City","NJ","Sub Hub Market Fresh","2815 John F Kennedy Blvd","07306",40.73197,-74.06684
"07306","Jersey City","NJ","Angeles Grocery","50-64 Hutton St","07307",40.744489,-74.047196
"07306","Jersey City","NJ","Subh Laxmi","Broadway","not_available",40.73627090208403,-74.07160914843139
"07306","Jersey City","NJ","Bhavani Cash & Carry","821 Newark Ave","07306",40.73535919189453,-74.06591033935547
"07307","Jersey City","NJ","La Faraona","367 Palisade Ave","07307",40.741421,-74.046224
"07307","Jersey City","NJ","Singh Farm Deli","252 Central Ave","07307",40.743406,-74.050878
"07401","Allendale","NJ","ACME Markets","45 De Mercurio Dr","07401",41.0289522980397,-74.1282060541497
"07405","Butler","NJ","Green Life Market","1388 State Rt 23","07405",40.996647910054385,-74.35195372934511
"07407","Elmwood Park","NJ","Broadway Food Palace","23-08 Broadway","07410",40.922370864290514,-74.11241823672586
"07407","Elmwood Park","NJ","Foodmart","not_available","07407",40.898585886319474,-74.11263771031703
"07407","Elmwood Park","NJ","Acme","58 Broadway","07407",40.918060879223745,-74.12697941064829
"07407","Elmwood Park","NJ","Food mart","Market St.","not_available",40.89879256833656,-74.11232227250599
"07410","Fair Lawn","NJ","ShopRite Liquors","35-07 Broadway","07410",40.92570338274827,-74.10091127523923
"07410","Fair Lawn","NJ","ShopRite","17-17 River Rd","07410",40.93840960113202,-74.13792149985808
"07410","Fair Lawn","NJ","Super Fresh Supermarket","937 Lincoln Ave","07452",40.95082473754883,-74.14529418945312
"07410","Fair Lawn","NJ","Key Food Supermarket","Lincoln Avenue","not_available",40.950987279041605,-74.14557484872137
"07410","Fair Lawn","NJ","Krauszer's Food Store","not_available","07514",40.92222242444656,-74.14023359467242
"07410","Fair Lawn","NJ","cvs fairlawn nj","not_available","07410",40.93042755126953,-74.13194274902344
"07410","Fair Lawn","NJ","The Food Showcase","24-28 Fair Lawn Ave","07410",40.93963623046875,-74.11856842041016
"07416","Franklin","NJ","Walmart","230 NJ-23","07416",41.11586161959932,-74.57953163804996
"07416","Franklin","NJ","Weis Markets","140 State Rt 23","07416",41.11190530053455,-74.57775823450514
"07416","Franklin","NJ","ShopRite of Franklin","270 Route 23","07416",41.117521953720896,-74.57972460106805
"07416","Franklin","NJ","ShopRite of Franklin","Route 23","07416",41.1385153,-74.5718399
"07417","Franklin Lakes","NJ","ShopRite of Wyckoff","430 Greenwood Avenue","07481",41.0134723,-74.1700289
"07417","Franklin Lakes","NJ","Market Basket","300 Sicomac Ave","07481",40.98461534007515,-74.17118779046692
"07417","Franklin Lakes","NJ","Krauszers","Yawpo Ave","07436",41.02556025433469,-74.24021552234935
"07417","Franklin Lakes","NJ","Giant Farmers Market","350 Ramapo Valley Rd","07436",41.0241813659668,-74.24068450927734
"07420","Haskell","NJ","Peapod","4 union ave","not_available",41.018730937087874,-74.29874423087423
"07421","Hewitt","NJ","ShopRite","23 Marshall Hill Rd","07480",41.132489935597945,-74.36572932189668
"07421","Hewitt","NJ","Q&S Convenience Food Store","1952 Union Valley Rd","07421",41.153044,-74.352023
"07421","Hewitt","NJ","A&P","Rte 94","not_available",41.127425922394664,-74.37291957358815
"07421","Hewitt","NJ","ShopRite of West Milford","23 Marshall Hill Road","07480",41.1316298,-74.3654816
"07421","Hewitt","NJ","ShopRite of West Milford","Union Valley-Marshall Hill","07480",41.1313311,-74.3675449
"07422","Highland Lakes","NJ","ACME Markets","530 County Route 515 Unit 1","07462",41.1944643,-74.4834879
"07422","Highland Lakes","NJ","Healthy Thymes Natural Market","265 New Jersey 94","07462",41.19608660658377,-74.4933818998682
"07424","Little Falls","NJ","ShopRite of Little Falls","171 Browertown Rd.","07424",40.88223057807616,-74.21213452105593
"07424","Little Falls","NJ","Fairway Market","1510 US 46 West","07424",40.88473739110345,-74.20996964538598
"07424","Little Falls","NJ","India Farmers market","not_available","07512",40.893847,-74.231886
"07424","Little Falls","NJ","Union Food Store","Union blvd","07512",40.903615,-74.21269476413727
"07430","Mahwah","NJ","ShopRite of Ramsey","2 Interstate Plaza","07446",41.06773923570188,-74.13762195978197
"07430","Mahwah","NJ","Uncle Giuseppe’s","10 Triangle Plz","07446",41.06277194679516,-74.12352472831249
"07430","Mahwah","NJ","ACME Markets (Acme)","125 Franklin Turnpike","07430",41.0990633,-74.1446481
"07430","Mahwah","NJ","Walmart","250 Route 59","10901",41.11301660431022,-74.10724090089019
"07430","Mahwah","NJ","ALDI","1300 NJ-17","07446",41.07323367019575,-74.13974219893927
"07430","Mahwah","NJ","ShopRite of Tallman","250 Route #59","10901",41.11239223996214,-74.10624193105087
"07430","Mahwah","NJ","Mrs. Green's Natural Market","130 Route 59","10901",41.1138916015625,-74.1229476928711
"07430","Mahwah","NJ","New Apna Bazaar","not_available","07446",41.063633715833916,-74.12885049885145
"07430","Mahwah","NJ","Eagle Super Store","27 Lafayette Ave","10901",41.11588,-74.15329200000001
"07432","Midland Park","NJ","ACME Markets","136 Lake St","07432",40.9829086,-74.1403892
"07432","Midland Park","NJ","Kings Food Markets","85 Godwin Ave","07432",40.98427367506131,-74.13862336438277
"07435","Newfoundland","NJ","ACME Markets","5774 Berkshire Valley Rd","07438",41.036779110261286,-74.50252623872069
"07436","Oakland","NJ","ShopRite of Oakland","14 Post Road","07436",41.014558139441164,-74.25659606446222
"07436","Oakland","NJ","Work","14 Post Rd","07436",41.014583587646484,-74.25637817382812
"07442","Pompton Lakes","NJ","Maria Lupe","not_available","07442",41.00467593403393,-74.29178282244362
"07442","Pompton Lakes","NJ","Veré CBD","226 Van Ave # 454","07442",41.0042362,-74.285122
"07444","Pompton Plains","NJ","Hometown Market Deli & Catering","574 Newark Pompton Tpke Ste 13","07444",40.967281,-74.293961
"07450","Ridgewood","NJ","Whole Foods Market","44 Godwin Ave","07450",40.978417587813986,-74.12259307781991
"07450","Ridgewood","NJ","Kings Food Markets","112 N Maple Ave","07450",40.98118654517493,-74.11322263004091
"07450","Ridgewood","NJ","Kilroy's Wonder Market","288 Rock Rd","07452",40.962112779055076,-74.12740866098245
"07450","Ridgewood","NJ","jmart","not_available","07450",40.980553117842824,-74.1191642863198
"07450","Ridgewood","NJ","Manoto Persian Grocery","28 Wilsey Sq","07450",40.97956085205078,-74.12212371826172
"07456","Ringwood","NJ","A&p","not_available","07436",41.05986001077873,-74.27558196779961
"07457","Riverdale","NJ","Target","94 State Rt 23","07457",40.989761,-74.325836
"07457","Riverdale","NJ","Walmart","48 State Rt 23","07457",40.99316114329795,-74.31193218477517
"07458","Saddle River","NJ","Giant Farmers Market","19 Wyckoff Ave","07463",41.00956473089808,-74.1216784506036
"07461","Sussex","NJ","ACME Markets","455 Route 23 N","07461",41.2034716,-74.6000041
"07461","Sussex","NJ","A&P Fresh Market","455 State Rt 23","07461",41.2038459777832,-74.60108184814453
"07470","Wayne","NJ","Trader Joe's","910 Hamburg Turnpike","07470",40.96123505125891,-74.24245856437041
"07470","Wayne","NJ","Whole Foods Market","Valley Road","07470",40.9307,-74.22651
"07470","Wayne","NJ","ShopRite of Wayne","625 Hamburg Turnpike","07470",40.95472299043372,-74.2204600316076
"07470","Wayne","NJ","Corrado's Market","201 Berdan Ave","07470",40.96623564710352,-74.24427131399575
"07470","Wayne","NJ","ShopRite of Wayne","625 Hamburg Tpk","07470",40.954805,-74.22101409999999
"07470","Wayne","NJ","Trader Joe’s","not_available","07470",40.959834,-74.230421
"07481","Wyckoff","NJ","Super Stop & Shop","337 Franklin Ave","07481",41.01347572423103,-74.16698419546329
"07481","Wyckoff","NJ","Nicholas Markets Foodtown of North Haledon","1068 High Mountain Rd","07508",40.972343,-74.191732
"07481","Wyckoff","NJ","The Fresh Grocer of North Haledon","1068 High Mountain Road","07508",40.9723123,-74.191426
"07481","Wyckoff","NJ","Food Town","168 High Mountain Road","07598",40.97209855091006,-74.1917699525645
"07501","Paterson","NJ","Bravo Supermarkets","67 Broadway","07505",40.91919852152602,-74.17234214682384
"07501","Paterson","NJ","PriceRite of Paterson","301 Main Street","07505",40.9150079,-74.17203359999999
"07501","Paterson","NJ","Super Supermarket","160 W Broadway","07522",40.922755185222435,-74.17819133705613
"07501","Paterson","NJ","New Town Supermarket","20th Ave. and Chestnut St.","07505",40.91028735,-74.17178502
"07501","Paterson","NJ","Victors grocery n deli","45 market st","not_available",40.915312404635095,-74.17609387041001
"07501","Paterson","NJ","Chino's","Summer street","07501",40.90839678108148,-74.16374881321154
"07501","Paterson","NJ","CTown Supermarkets","680 Main St","07503",40.902901777354145,-74.16737079620361
"07501","Paterson","NJ","Belki's Grocery","356 Union Ave","07502",40.919561,-74.187286
"07503","Paterson","NJ","CTown Supermarkets","444 20th Ave","07513",40.90746913170539,-74.15046378670382
"07503","Paterson","NJ","Super Food Fair","956 Market St","07513",40.90186481953519,-74.14154594435648
"07503","Paterson","NJ","Carisma Liquors And Grocery","234 Vreeland Ave","07504",40.90566635131836,-74.14013671875
"07504","Paterson","NJ","El Bohio Food Market","510 Park Ave","07504",40.913360595703125,-74.1435546875
"07504","Paterson","NJ","Gala Fresh Farms","498 E 30th St","07504",40.90967559814453,-74.14720916748047
"07504","Paterson","NJ","Food Basics","510 East 30th Street","07504",40.91065163974279,-74.14613248176593
"07506","Hawthorne","NJ","Lakeview Farms","153 Central Ave","07506",40.95515931531916,-74.1532883024416
"07508","Haledon","NJ","Super Supermarket","408 Haledon Ave","07508",40.93825612124838,-74.18183136184982
"07508","Haledon","NJ","Food Town","not_available","07481",40.9494071669173,-74.17364484398085
"07514","Paterson","NJ","CTown Supermarkets","444 Madison Ave","07524",40.9256531,-74.1521175
"07514","Paterson","NJ","Bravo Supermarkets","74-76 East 15th Street","07524",40.933990342135985,-74.15432917790986
"07601","Hackensack","NJ","Walmart Supercenter","1 Teterboro Landing Drive","07608",40.862474182467494,-74.06250338193419
"07601","Hackensack","NJ","ShopRite of Hackensack","500 South River Street","07601",40.86272364992792,-74.03474628567638
"07601","Hackensack","NJ","Aldi","492 Main St","07601",40.8943629,-74.0387339
"07601","Hackensack","NJ","Cedar Market","646 Cedar Ln","07666",40.89119089309265,-74.02824009020797
"07601","Hackensack","NJ","Sunrise Oriental Products","253 Main St","07601",40.886777,-74.041703
"07601","Hackensack","NJ","ShopRite","459 Taylor Ave","07606",40.862634,-74.041837
"07601","Hackensack","NJ","Aldis","not_available","07601",40.885937,-74.04347
"07601","Hackensack","NJ","Dazo Grocery","not_available","07603",40.87909,-74.0283
"07601","Hackensack","NJ","Krauszer's Food Stores","River rd","07646",40.91137921209441,-74.02524819298586
"07601","Hackensack","NJ","Modern Bazaar","275 Main St","07601",40.886893343892744,-74.04114026299648
"07601","Hackensack","NJ","International Food Warehouse","370 Essex St","07644",40.8869743347168,-74.0649185180664
"07601","Hackensack","NJ","Annapurna Indian Grocery","561 Cedar Ln","07666",40.89034652709961,-74.02535247802734
"07601","Hackensack","NJ","CTown Supermarkets","154 State St","07601",40.88343207108044,-74.04480189085007
"07601","Hackensack","NJ","La Costena Market","Essex St","07601",40.880035,-74.053165
"07603","Bogota","NJ","Welsh Farms","Queen Anne Road","not_available",40.867310334953665,-74.02220426854068
"07603","Bogota","NJ","Minar Halal Meat & Grocery","258 Degraw Ave","07666",40.875240000000005,-74.021293
"07603","Bogota","NJ","Oaxaca Grocery & Mexican Food","284 Queen Anne Rd","07666",40.873649,-74.021464
"07604","Hasbrouck Heights","NJ","Aldi","4 Memorial Dr","07644",40.87547431691102,-74.08569595436347
"07604","Hasbrouck Heights","NJ","Route 17 Farmers Market","not_available","07073",40.86674508829957,-74.08273758775529
"07605","Leonia","NJ","ShopRite of Palisades Park","201 Roosevelt Ave.","07650",40.85222052169084,-74.0042456616212
"07605","Leonia","NJ","Comminity Blood Drive","not_available","07650",40.852409,-74.004667
"07606","South Hackensack","NJ","QesoGeo","19 Harding Pl","07643",40.855953,-74.04335
"07607","Maywood","NJ","Whole Foods Market","300 Bergen Town Center","07652",40.91431692837788,-74.05785160955287
"07607","Maywood","NJ","H Mart Asian Supermarket","60 NJ-17","07652",40.91564576284581,-74.07219208146556
"07607","Maywood","NJ","NetCost Market","221 NJ-4","07652",40.91632869739438,-74.05293723860845
"07620","Alpine","NJ","Riverdale Food Market Inc","501 Riverdale Ave","10705",40.915206854920555,-73.90200654199027
"07620","Alpine","NJ","ShopRite of Greenway Plaza","23 Prospect Street, Greeway Plaza","10701",40.932511838355225,-73.90069768279946
"07620","Alpine","NJ","Shoprite","not_available","10701",40.93950302926907,-73.89785828832022
"07620","Alpine","NJ","Top Tomato","420 S Broadway","10705",40.91881871530346,-73.89576849454794
"07620","Alpine","NJ","Shop Fair of Yonkers","113 New Main St","10701",40.933501,-73.89694399999999
"07620","Alpine","NJ","One Family Deli, Grocery","173 Woodworth Ave","10701",40.943410664467486,-73.89835781294464
"07620","Alpine","NJ","Waterfront Market","1 Pier Pointe St","10701",40.93615458174088,-73.9031502783634
"07620","Alpine","NJ","NSA Supermarket","South broadway","not_available",40.9240004399731,-73.89488982252392
"07620","Alpine","NJ","Hala Market","376 S. Broadway","10705",40.92227952376898,-73.89553289824653
"07621","Bergenfield","NJ","Super Stop & Shop","20 Washington Ave","07628",40.9364393,-73.9951923
"07621","Bergenfield","NJ","American Pinoy Food Mart","not_available","07621",40.927401,-73.99591099999999
"07621","Bergenfield","NJ","Ramz Oriental Store","30-32 North Washington Avenue","07621",40.928962,-73.9960399
"07621","Bergenfield","NJ","Grand & Essex Market","89 New Bridge Rd","07621",40.915307,-74.001508
"07621","Bergenfield","NJ","Apana Bazaar Supermarket","101C Portland Ave","07621",40.92425537109375,-73.99760437011719
"07621","Bergenfield","NJ","ALDI","433 S Washington Ave","07621",40.9137232,-73.9965009
"07624","Closter","NJ","Whole Foods Market","45 Vervalen Street","07624",40.970626995482256,-73.95634707897197
"07624","Closter","NJ","Target","29 Vervalen St","07624",40.97114965661364,-73.95763483182107
"07624","Closter","NJ","Stop & Shop","400 Demarest Ave","07624",40.9690313,-73.962986
"07624","Closter","NJ","Old Hook Farm Natural Foods Market","650 Old Hook Rd","07630",40.978942,-73.997618
"07626","Cresskill","NJ","Kings Food Markets","70 Union Ave","07626",40.940876,-73.960311
"07626","Cresskill","NJ","Emanu-el","not_available","07670",40.92834242467457,-73.96412882708827
"07626","Cresskill","NJ","Picnic Basket at Cresskill","28 Union Ave","07626",40.941652000000005,-73.961585
"07626","Cresskill","NJ","Ethia Inc.","300 Knickerbocker Rd Ste 2200","07626",40.9419094,-73.9763613
"07628","Dumont","NJ","Krauzers","11A Grant Ave","07628",40.948795318603516,-73.98810577392578
"07630","Emerson","NJ","Super Stop & Shop","600 Kinderkamack Rd","07630",40.9822288,-74.026334
"07630","Emerson","NJ","ShopRite of Emerson","425 Old Hook Rd.","07630",40.98111025019059,-74.00680358599563
"07631","Englewood","NJ","ShopRite of Englewood","40 Nathaniel Place","07631",40.89631627242584,-73.9753664354495
"07631","Englewood","NJ","Englewood Farmer's Market","Depot Square","07631",40.897162903098284,-73.97340397324646
"07631","Englewood","NJ","Supreme Oil Company Incorporated","80 S Dean St","07631",40.890656,-73.976855
"07632","Englewood Cliffs","NJ","FOOD UNIVERSE","Nagle Avenue","10040",40.860268,-73.92871
"07632","Englewood Cliffs","NJ","Antillana","not_available","10040",40.86152845975457,-73.92783898095493
"07642","Hillsdale","NJ","ShopRite","372 Broadway","07642",41.01275164598643,-74.04149864884002
"07642","Hillsdale","NJ","Kings Food Markets","381 Washington Ave","07642",41.001233837337644,-74.0410394148318
"07642","Hillsdale","NJ","Kings","not_available","07676",40.99905451885492,-74.03625767275793
"07642","Hillsdale","NJ","La Morenita Deli And Grocery","66 Park Ave","07642",41.003652,-74.040113
"07643","Little Ferry","NJ","H Mart","260 Bergen Tpke","07643",40.855814332611054,-74.03303761638901
"07644","Lodi","NJ","ShopRite of Lodi","175 Main Street","07644",40.87927942403509,-74.08481162202838
"07644","Lodi","NJ","Circle 7 food mart","Route 46","07644",40.881688227664604,-74.09003955235202
"07645","Montvale","NJ","Wegman's","100 Mercedes Drive","07645",41.049923539178536,-74.05972489472694
"07645","Montvale","NJ","The Fresh Market","32 Chestnut Ridge Rd","07645",41.048312860216306,-74.07158743406593
"07645","Montvale","NJ","Montvale Market","not_available","07645",41.059514,-74.052201
"07646","New Milford","NJ","ShopRite of New Milford","250 River Road","07646",40.944378,-74.02157
"07646","New Milford","NJ","ShopRite","814 River Rd","07646",40.9282663322975,-74.02741131643728
"07646","New Milford","NJ","Oradell Mini Market","not_available","07649",40.94951699000346,-74.02080233067184
"07647","Northvale","NJ","ShopRite of Northvale","246 Livingston Ave.","07647",41.01238959547901,-73.94549798124643
"07647","Northvale","NJ","Woo-Ri Mart","269 Livingston St Ste I","07647",41.01106957573133,-73.94457264875565
"07650","Palisades Park","NJ","Hanmi Mart & Liquor","220 Broad Ave","07650",40.845939,-73.99894300000001
"07652","Paramus","NJ","ShopRite of Rochelle Park","220 W. Passaic Street","07662",40.914647654330984,-74.08042430877686
"07652","Paramus","NJ","Trader Joe's","404 Rt 17 N","07652",40.94822015641983,-74.07086661513647
"07652","Paramus","NJ","Big Lots","634 N State Rt 17","07652",40.9637989015165,-74.07602332468602
"07652","Paramus","NJ","Fairway Market","30 E Ridgewood Ave","07652",40.96658613590193,-74.07511198758604
"07652","Paramus","NJ","Harold's Kosher Market","67A East Ridgewood Ave","07652",40.96762134575171,-74.07297346915743
"07657","Ridgefield","NJ","H&Y Marketplace","1 Remsen Pl","07657",40.832030928961935,-74.01076688926497
"07657","Ridgefield","NJ","Fine Fare Supermarkets","Shaler Blvd","07657",40.832975,-74.002512
"07660","Ridgefield Park","NJ","Village IGA","201 Main St","07660",40.8570893618075,-74.02489426421948
"07661","River Edge","NJ","K F Supermarket","625 Kinderkamack Rd","07661",40.92950105667114,-74.03442
"07661","River Edge","NJ","Arek Mediterranean Groceries","470 Kinderkamack Rd","07661",40.924129,-74.034038
"07661","River Edge","NJ","Yasai Net Plus","490 Kinderkamack Rd","07661",40.924129,-74.034038
"07663","Saddle Brook","NJ","Acme","75 Mayhill St","07663",40.8989494,-74.0923955
"07663","Saddle Brook","NJ","Petmatrix LLC","160 Pehle Ave Ste 302A","07663",40.9058645,-74.0984502
"07663","Saddle Brook","NJ","Subzi  market","Market st","not_available",40.896535,-74.095519
"07666","Teaneck","NJ","Freihofer's Bakery Outlet","1426 Teaneck Rd","07666",40.90059280395508,-74.00021362304688
"07666","Teaneck","NJ","Glatt Express","1400 Queen Anne Rd","07666",40.90160617468313,-74.0058931506339
"07666","Teaneck","NJ","Gaia Life Foods LLC","1152 Summit Avenue","07666",40.89146,-73.9990399
"07670","Tenafly","NJ","Lazzaras & Sons","11 W Railroad Ave","07670",40.924425,-73.96521700000001
"07675","Westwood","NJ","Trader Joe's","20 Irvington St","07675",40.992950282972664,-74.03583471588809
"07675","Westwood","NJ","Lander Market","688 Westwood Ave","07675",40.99565124511719,-74.00428009033203
"07675","Westwood","NJ","Foodtown","not_available","07675",41.014408,-73.982238
"07675","Westwood","NJ","Foodtown of Old Tappan","216 Old Tappan Road","07675",41.0142317,-73.9829451
"07676","Township Of Washington","NJ","Fresh Grocer","315 Pascack Rd","07676",40.9866306,-74.064956
"07676","Township Of Washington","NJ","The Fresh Grocer of Washington Township","315 Pascack Road","07676",40.9865101,-74.0627834
"07701","Red Bank","NJ","Whole Foods Market","471 State Route 35","07701",40.37514933006295,-74.08783226196186
"07701","Red Bank","NJ","Super Stop & Shop","850 State Route 35","07748",40.38980445649122,-74.10037860274315
"07701","Red Bank","NJ","Acme","Prospect Ave.","not_available",40.338849467555455,-74.04084550671452
"07701","Red Bank","NJ","Super Foodtown of Red Bank","362 Broad St","07701",40.339588,-74.064127
"07701","Red Bank","NJ","ACME Markets","576 River Rd","07704",40.3608189,-74.0423237
"07701","Red Bank","NJ","ACME Markets","507 Prospect Ave","07739",40.3390648,-74.0404756
"07702","Shrewsbury","NJ","Trader Joe's","1031 Broad St","07702",40.316515836390494,-74.06110922921302
"07702","Shrewsbury","NJ","ShopRite of Shrewsbury","1151 Shrewsbury Avenue","07702",40.31560290053758,-74.06762746927737
"07702","Shrewsbury","NJ","Shop Rite","not_available","07702",40.31557167608755,-74.06775016706683
"07702","Shrewsbury","NJ","Acne Food Store","not_available","07724",40.316125868427534,-74.07069704624097
"07712","Asbury Park","NJ","Wegmans","1104 Highway 35","07712",40.239539882754066,-74.03962030690154
"07712","Asbury Park","NJ","Walmart Supercenter","3575 State Route 66","07753",40.22488657976948,-74.08493451651344
"07712","Asbury Park","NJ","ShopRite of Neptune","2200 Highway 66","07753",40.22476855822489,-74.04353340943216
"07712","Asbury Park","NJ","Super Xtra Supermarket","1007 Memorial Dr","07712",40.22373190169812,-74.01295091987708
"07712","Asbury Park","NJ","Super Foodtown of Ocean","1560 State Highway 35","07712",40.250558,-74.04062
"07712","Asbury Park","NJ","Shalom Foods","104 Norwood Ave","07723",40.254377000000005,-74.00070500000001
"07712","Asbury Park","NJ","waterpocalypse in Monmouth County","not_available","07712",40.26061248779297,-74.04412841796875
"07712","Asbury Park","NJ","The Hawk's Nest","400 Cedar Ave","07764",40.278048993974025,-74.00654633608434
"07716","Atlantic Highlands","NJ","Super Foodtown of Atlantic Highlands","3 Bayshore Plaza","07716",40.409158,-74.041398
"07716","Atlantic Highlands","NJ","foodtown","route 35","not_available",40.41387,-74.04228
"07718","Belford","NJ","ShopRite Meat dept (628)","Hwy 35","not_available",40.41201462729214,-74.09346959985355
"07719","Belmar","NJ","Whole Foods Market","1933 State Road 35","07719",40.15476552029173,-74.0565673894402
"07719","Belmar","NJ","Super Foodtown of Sea Girt","2204 State Highway 35","08750",40.134759,-74.061967
"07719","Belmar","NJ","ALDI","1919 State Route 35","07719",40.157308,-74.054109
"07719","Belmar","NJ","ACME","2007 State Route 35","07719",40.152607,-74.0571686
"07719","Belmar","NJ","ShopRite of Belmar","1801 Route 35","07719",40.1676110178571,-74.0484463051163
"07719","Belmar","NJ","ACME Markets","2007 Route 35","07719",40.1523932,-74.0571753
"07719","Belmar","NJ","Stop And Shop","not_available","08742",40.19229688163372,-74.05422108488898
"07719","Belmar","NJ","Super Foodtown","1734 State Route 35","07719",40.1689338684082,-74.04608917236328
"07720","Bradley Beach","NJ","QuickChek","1000 Main St","07720",40.2066486282475,-74.0164907062048
"07720","Bradley Beach","NJ","Abuelita Food Market","408 Main St","07720",40.20148,-74.018274
"07722","Colts Neck","NJ","Delicious Orchards","36 Route 34 S","07722",40.283093529514986,-74.17333844944592
"07722","Colts Neck","NJ","ACME Markets","616 Newman Springs Rd","07738",40.3320768,-74.119161
"07722","Colts Neck","NJ","Jersey Pride","not_available","07738",40.33163183333333,-74.11980958333334
"07724","Eatontown","NJ","ShopRite","145 New Jersey 36","07764",40.29570639803013,-74.03170094565719
"07724","Eatontown","NJ","Lidl","136 New Jersey 35","07724",40.2958978899789,-74.054130426946
"07724","Eatontown","NJ","C-Town Supermarket","not_available","07740",40.285463654838196,-74.07915820254742
"07724","Eatontown","NJ","ShopRite of West Long Branch","Rt. 36 & 71","07764",40.294671,-74.0282157
"07726","Englishtown","NJ","Wegmans","55 US Highway 9","07726",40.28997622472595,-74.29803851818185
"07726","Englishtown","NJ","Walmart Supercenter","326 W Main St","07728",40.243445293014155,-74.293630705085
"07726","Englishtown","NJ","ShopRite of Marlboro","280 Us Highway 9","07751",40.34225640172593,-74.30603691795733
"07726","Englishtown","NJ","Trader Joe’s","4331 US Highway 9","07728",40.281622,-74.292614
"07726","Englishtown","NJ","Whole Foods Market","113 Route 9 South","07726",40.35206316833705,-74.30946394396454
"07726","Englishtown","NJ","Netcost Market","700 Tennent Rd","07726",40.31527321738606,-74.30695923205776
"07726","Englishtown","NJ","Livoti's Old World Market","160 US Highway 9","07726",40.34897531929828,-74.3054568187339
"07726","Englishtown","NJ","Key food","300 Gordons Corner Rd","07726",40.31885985089384,-74.35954632676108
"07726","Englishtown","NJ","Nature Unlimited","160 Village Center Dr","07728",40.24102783203125,-74.30780029296875
"07726","Englishtown","NJ","Foodtown","not_available","07726",40.31546680856193,-74.3067641802773
"07726","Englishtown","NJ","Trader Joe's","4331 US Highway 9 #3","07728",40.2808983,-74.2936707
"07727","Farmingdale","NJ","Farmingdale Shop N Bag","68 Main St","07727",40.195036808984355,-74.16621896105148
"07727","Farmingdale","NJ","Pantry 1","not_available","07731",40.154993993855555,-74.230650917188
"07727","Farmingdale","NJ","Kapamilya Philippine Grocery","4228 US Highway 9","07731",40.14910888671875,-74.22769927978516
"07728","Freehold","NJ","ShopRite","3285 Rt. 9","07728",40.243169773191426,-74.2759483184751
"07728","Freehold","NJ","ACME Markets","3241 US Hwy 9","07728",40.21939443912065,-74.26367466508054
"07728","Freehold","NJ","New City Super Food Market","West Main Street","not_available",40.26026394282045,-74.27546973692668
"07728","Freehold","NJ","Fine fare","80 Throckmorton St","07728",40.261091,-74.278891
"07728","Freehold","NJ","ShopRite of Freehold","South St. & Rt. #9","07728",40.2431786,-74.27577219999999
"07728","Freehold","NJ","Mellon Farms","45 South St","07728",40.25840759277344,-74.27362823486328
"07728","Freehold","NJ","Foodtown","597 Park Ave","07728",40.25015855818182,-74.26991264122834
"07728","Freehold","NJ","Bakery Commissary","201 Commerce Dr.","07728",40.2520237,-74.2400337
"07728","Freehold","NJ","La Palma","25 Broad St","07728",40.25996780395508,-74.2787857055664
"07728","Freehold","NJ","La Malinche","57 Throckmorton St","07728",40.26018142700195,-74.27689361572266
"07730","Hazlet","NJ","ShopRite of Hazlet","3120 State Hwy 35","07730",40.41935565809959,-74.18387754895656
"07730","Hazlet","NJ","LiDL","2973 New Jersey 35","07730",40.4179151757068,-74.1763681898763
"07730","Hazlet","NJ","ALDI","3020 State Route 35","07730",40.4174928,-74.1810326
"07730","Hazlet","NJ","Aldi","3067-3069 New Jersey 35","07730",40.420029659875205,-74.18036638637957
"07730","Hazlet","NJ","auldi","not_available","07730",40.42490768432617,-74.18895721435547
"07731","Howell","NJ","ShopRite of Howell","4594 Route 9 South","07731",40.14027073094938,-74.22716500364386
"07731","Howell","NJ","Walmart Supercenter","4900 U.s. Hwy #9","07731",40.1310839450197,-74.22579062972581
"07731","Howell","NJ","Shloimy's Kosher World","95 E Kennedy Blvd","08701",40.10764488126176,-74.21732783587922
"07731","Howell","NJ","Aldi","5010 US Highway 9","07731",40.1290524,-74.223935
"07731","Howell","NJ","Snack Bar At Shoprite","not_available","08701",40.108781654757045,-74.22268453265374
"07731","Howell","NJ","water fountain by exit sign in s&s","not_available","08527",40.111698159573116,-74.2513727471556
"07731","Howell","NJ","La Familia Deli Grocery","2010 W County Line Rd","08527",40.11869430541992,-74.25506591796875
"07731","Howell","NJ","Kolos Market","171 E Kennedy Blvd","08701",40.1078987121582,-74.21553039550781
"07731","Howell","NJ","Jackson Shoprite","221 N County Line Rd","08527",40.11850140399581,-74.25101742887907
"07731","Howell","NJ","Npgs","2080 w countyline rd","not_available",40.1211099559327,-74.25827839269664
"07731","Howell","NJ","Kigh Co.","31 S Westfield Rd","07731",40.141039,-74.2117648
"07734","Keansburg","NJ","Main Street Deli & Grocery","240 Main St","07734",40.443592817060356,-74.1293925506721
"07735","Keyport","NJ","Krauser's Convenience Store","825 S Concourse","07735",40.44409942626953,-74.2176284790039
"07740","Long Branch","NJ","Fine Fare","320 3rd Ave","07740",40.29429618594128,-73.9876416641664
"07740","Long Branch","NJ","Brazilian Marketplace","142 Brighton Ave","07740",40.284294,-73.988541
"07740","Long Branch","NJ","Grand national supermarket","Broadway","07740",40.306177,-73.991654
"07740","Long Branch","NJ","Brazilian Meat Boutique & More","492 Joline Ave","07740",40.307105,-74.000045
"07740","Long Branch","NJ","The Marketplace","612 2nd Ave","07740",40.284559,-73.986435
"07746","Marlboro","NJ","Asian Food Markets","79 S Main St","07746",40.30360395879436,-74.2518214653107
"07746","Marlboro","NJ","Food Emporium","460 route 520","07746",40.33449172973633,-74.24478912353516
"07747","Matawan","NJ","Walmart","1126 Us Highway 9","08857",40.44822447667566,-74.3010077716691
"07747","Matawan","NJ","ShopRite","318 Lloyd Rd","07747",40.39576281889304,-74.22190036805054
"07747","Matawan","NJ","Aldi","1043 US Route 9","08857",40.449617,-74.2958157
"07747","Matawan","NJ","Kwik Shop","not_available","07747",40.405465,-74.24345699999999
"07747","Matawan","NJ","Pathmark","1043 US Highway 9","08857",40.45054626464844,-74.29815673828125
"07748","Middletown","NJ","ShopRite","1361 State Route 35","07748",40.401755370696556,-74.12080532440426
"07748","Middletown","NJ","Livoti's Old World Market","not_available","07748",40.39862122869772,-74.1107107127179
"07748","Middletown","NJ","Super Foodtown of Port Monmouth","426 State Route 36","07758",40.424508,-74.102231
"07748","Middletown","NJ","Asian Food Market","1281-1283 State Route 35","07748",40.4001167440688,-74.11777445933222
"07748","Middletown","NJ","ShopRite of Middletown","Rt 35 & Harmony Road","07748",40.402654,-74.1245441
"07750","Monmouth Beach","NJ","Andy K's Monmouth Beach Mart","72 Riverdale Ave","07750",40.33053970336914,-73.98294067382812
"07751","Morganville","NJ","Walmart Supercenter","2825 Highway Route 18","08857",40.37393143043812,-74.31891648164938
"07751","Morganville","NJ","Acme","Ferry Rd.","08857",40.38307921307162,-74.30940726766946
"07751","Morganville","NJ","Tropical Hut","3345 Us Highway 9","08857",40.388663728183715,-74.30902701869667
"07751","Morganville","NJ","ALDI","623 Texas Rd.","07751",40.36427767,-74.302345
"07751","Morganville","NJ","Costco","not_available","07751",40.363495714776306,-74.24175993483853
"07753","Neptune","NJ","Aldi","15 NJ Hwy 35","07753",40.210371919228756,-74.02865767478943
"07753","Neptune","NJ","Norkus Foodtown","35 & 3rd ave","07753",40.202124,-74.028168
"07760","Rumson","NJ","Andy K's","Ocean Ave","07760",40.359990115955874,-73.97436245607602
"07764","West Long Branch","NJ","ALDI","200 State Hwy Route 36","07764",40.2962221,-74.0257176
"07764","West Long Branch","NJ","Exito Farmermarket","not_available","07764",40.286978,-74.017737
"07801","Dover","NJ","ShopRite","314 State Route 15 S","07885",40.90530982710077,-74.57023288571459
"07801","Dover","NJ","ShopRite Liquors of Rockaway","437 Route 46 East","07801",40.88474668882078,-74.53532588062153
"07801","Dover","NJ","Walmart","220 Enterprise Dr","07866",40.90762226332544,-74.56277016299718
"07801","Dover","NJ","ShopRite of Wharton","314 Route 15","07885",40.9049487,-74.5703109
"07801","Dover","NJ","Bravo Supermarkets","36-42 West Blackwell St","07801",40.88375306866597,-74.56051443934876
"07801","Dover","NJ","ShopRite Wine & Spirits","437 U.S. 46","07801",40.88468546288299,-74.53545065616237
"07801","Dover","NJ","Picatinny Arsenal Commissary","Building 3323","07806-5000",40.951221997880545,-74.5377429721006
"07801","Dover","NJ","Prepared Foods","not_available","07801",40.88491639588602,-74.53535126774285
"07801","Dover","NJ","Bravo Supermarkets","120 EAST BLACKWELL ST","07801",40.88458251953125,-74.552001953125
"07801","Dover","NJ","Shop Rite","Route 46","07849",40.90399151892893,-74.51858552846952
"07803","Mine Hill","NJ","A & P","not_available","07834",40.86883135835619,-74.59815975883087
"07821","Andover","NJ","ShopRite","80-90 US Highway 206","07874",40.9343672719982,-74.71893974998164
"07821","Andover","NJ","Shop Rite Wine & Liquors","90 US Highway 206 #80","07874",40.93532612132674,-74.71944235747995
"07821","Andover","NJ","ShopRite of Byram","90-80 Rt. 206 North","07874",40.9348715,-74.718996
"07821","Andover","NJ","Ray Foods","not_available","07843",40.922977,-74.66487
"07823","Belvidere","NJ","Belvidere Lins Food Mart LLC","253 Water St","07823",40.82972084548835,-75.07851311477182
"07823","Belvidere","NJ","Waldbaums","133-11 20th Ave","11356",40.779231,-75.031623
"07825","Blairstown","NJ","Nykun's Store","331 US Highway 46","07838",40.87016194041725,-74.91348917464099
"07825","Blairstown","NJ","ACME Markets","152 Route 94","07825",40.9837031,-74.9969887
"07825","Blairstown","NJ","Nature's Harvest","28 Main St","07825",40.98287862,-74.96104473
"07827","Montague","NJ","Walmart Supercenter","220 Route 6 & 209","18337",41.350118436579976,-74.73406774819823
"07827","Montague","NJ","ShopRite","10 Rt. 23","07827",41.35106111761196,-74.68421495075904
"07827","Montague","NJ","ShopRite of Montague","10A Route 23, Tri-State Mall","07827",41.350722,-74.6838992
"07827","Montague","NJ","ShopRite","10 A Rt 23 Tri State Mall","07827",41.2956937,-74.7839936
"07828","Budd Lake","NJ","Walmart","40 International Dr S","07836",40.882088751839966,-74.70813721299233
"07828","Budd Lake","NJ","Super A&P","not_available","07828",40.858078552797394,-74.76591746707854
"07828","Budd Lake","NJ","Krauszer's Food","382 US 46","07828",40.86046600341797,-74.75872802734375
"07828","Budd Lake","NJ","786 Market","151 US 46","07828",40.878868103027344,-74.73159790039062
"07830","Califon","NJ","Aqui Market","Route 513","07830",40.726203,-74.845329
"07832","Columbia","NJ","Super Foodtown of East Stroudsburg","232 Fox Run Ln Ste 102","18302",41.06235351101811,-75.0721415824013
"07832","Columbia","NJ","The Village Center At Marshall's Creek","not_available","18301",41.042267626413945,-75.12743305522648
"07832","Columbia","NJ","Super Foodtown of East Stroudsburg","232 Fox Run Ln","18302",41.062121,-75.07211
"07832","Columbia","NJ","Price Chopper","Route 209","not_available",41.008966985598384,-75.1317318591206
"07832","Columbia","NJ","Grandma's Cuisine","2583 Milford Rd","18301",41.04150742292404,-75.12924246490002
"07834","Denville","NJ","ACME","123 E Main St","07834",40.8889274,-74.4800532
"07834","Denville","NJ","Trader Joe's","3056 State Route 10 West","07834",40.866833,-74.50757
"07834","Denville","NJ","Aldi","212 US Highway 46","07866",40.88965115547871,-74.51466858386993
"07834","Denville","NJ","Foodtown","559 E Main St","07834",40.874551,-74.481887
"07834","Denville","NJ","Corrado's Market","3130 RT. 10 WEST","not_available",40.87107,-74.51756
"07834","Denville","NJ","ShopRite of Rockaway","Route 46 East","07866",40.8937069,-74.506667
"07834","Denville","NJ","algud","Morris Plains","07950",40.84527483071131,-74.48192954063416
"07836","Flanders","NJ","Shop Rite Supermarket","90 Bartley Flanders Rd","07836",40.83447272077177,-74.71213109532252
"07836","Flanders","NJ","Weis Market","293 US Highway 206","07836",40.833116219141736,-74.70723459072218
"07836","Flanders","NJ","ShopRite of Flanders","90 Bartley Rd.","07836",40.8178055,-74.7247424
"07836","Flanders","NJ","ShopRite of Flanders","90 Bartley Road","07836",40.835609436035156,-74.71172332763672
"07840","Hackettstown","NJ","Walmart Supercenter","1885 State Route 57 Ste 100","07840",40.8167052785772,-74.84200694252742
"07840","Hackettstown","NJ","Shop Rite Wines & Liquors","80 Main St","07840",40.8546464412186,-74.83358158059613
"07840","Hackettstown","NJ","ShopRite","1965 New Jersey 57","07840",40.82333594015637,-74.83613921478488
"07840","Hackettstown","NJ","Weis Markets","2045 NJ-57","07840",40.82762428309155,-74.83466812896432
"07840","Hackettstown","NJ","ShopRite of Mansfield","1965 Rt. 57 West & Allen St.","07840",40.8240755,-74.8339318
"07840","Hackettstown","NJ","ShopRite Deli","not_available","07840",40.827667236328125,-74.83673858642578
"07847","Kenvil","NJ","Ledgewood Farms","1013 U.S. 46","not_available",40.88064675561136,-74.64473092586736
"07848","Lafayette","NJ","Shop Rite #283","White Lake Road","07871",41.076603,-74.65755
"07848","Lafayette","NJ","Stop & Shop","5 Town Center Dr","07871",41.0421701,-74.6335899
"07848","Lafayette","NJ","ShopRite of Sparta","18 North Village Blvd.","07871",41.0764162,-74.6565282
"07848","Lafayette","NJ","Grand Union #3554","60 Sparta Ave","07871",41.038455963134766,-74.64222717285156
"07849","Lake Hopatcong","NJ","Fresh Emporium Food Market","757 NJ-15 S","not_available",40.96139593331231,-74.59652423858643
"07849","Lake Hopatcong","NJ","Purple Dragon pickup","Ridge Road","not_available",40.97932,-74.59425
"07852","Ledgewood","NJ","ShopRite","281 State Route 10 E #4","07876",40.86780225136853,-74.64800685747436
"07852","Ledgewood","NJ","ShopRite of Succasunna","281-031 Rt. 10 & Commerce Blvd.","07876",40.86731458364796,-74.6482264995575
"07853","Long Valley","NJ","A&P","513","07853",40.7857295,-74.7819563
"07853","Long Valley","NJ","Perfect Snax, LLC","1 E Mill Rd","07853",40.784232,-74.779676
"07857","Netcong","NJ","ShopRite Supermarket","75 U.S. 46","07857",40.89701181044141,-74.70542192322438
"07857","Netcong","NJ","ShopRite of Netcong","75 Us Highway 46","07857",40.8968354,-74.7052657
"07857","Netcong","NJ","MERTONAS PRODUCE","1 CARMINE DR","07857",40.899237,-74.697699
"07857","Netcong","NJ","ShopRite","75 Rt 46","07857",40.896826000000004,-74.70534
"07860","Newton","NJ","Walmart","26 Hampton House Rd","07860",41.07026679149715,-74.73926436082847
"07860","Newton","NJ","ShopRite","125 Water St","07860",41.065695072897455,-74.74521494749692
"07860","Newton","NJ","Weis Markets","121 Water St","07860",41.06498,-74.746376
"07860","Newton","NJ","Redbox","127 Water St","07860",41.06374727290031,-74.74657494556024
"07860","Newton","NJ","Christmas Music Hell","not_available","07860",41.06288579803135,-74.74649412255978
"07860","Newton","NJ","ShopRite of Newton","125 Water St. (Rt. 206 North)","07860",41.0655329,-74.7448709
"07869","Randolph","NJ","Weis Markets","146 Center Grove Rd","07869",40.86358925943589,-74.57119117708216
"07869","Randolph","NJ","ACME Markets","690 Millbrook Ave","07869",40.82682,-74.5719891
"07869","Randolph","NJ","Burrini's Olde World Market","1204 Sussex Tpke","07869",40.82610763093957,-74.57451373743477
"07869","Randolph","NJ","Shop Rite Succasunna","not_available","07869",40.861632,-74.611402
"07882","Washington","NJ","ShopRite","2 Club House Dr","07882",40.73885107818897,-74.97578135715675
"07882","Washington","NJ","ShopRite of Washington, NJ- Rt 31","2 Clubhouse Drive @ Rt. 31 South","07882",40.7386782,-74.9755619
"07882","Washington","NJ","ShopRite","2 Club House Dr at Rte 31 S","07882",40.73936080932617,-74.97490692138672
"07882","Washington","NJ","town market","not_available","07882",40.752472088448265,-75.0052733693959
"07901","Summit","NJ","Kings Food Markets","784 Old Springfield Ave","07901",40.71253581058726,-74.38458174510774
"07920","Basking Ridge","NJ","Wightman's Farms","1111 Mt Kemble St","07960",40.73888819733499,-74.53911046293337
"07920","Basking Ridge","NJ","ShopRite of Bernardsville","93 Morristown Road","07924",40.719336109893575,-74.56228429444653
"07920","Basking Ridge","NJ","Kings Food Markets","450 Route 206N","07921",40.65435077671463,-74.61347660967284
"07920","Basking Ridge","NJ","Kings Food Markets","100 Morristown Rd","07924",40.72050875629209,-74.56292606679449
"07920","Basking Ridge","NJ","Dean's Natural Food Market","25 Mountainview Blvd","07920",40.64431,-74.57768
"07920","Basking Ridge","NJ","ShopRite","93 Morristown Rd","07924",40.71903610229492,-74.56248474121094
"07921","Bedminster","NJ","The Fresh Market","75 Washington Valley Rd","07921",40.646925664071595,-74.63965736078273
"07921","Bedminster","NJ","Patel Cash and Carry","2800","not_available",40.6259643,-74.66409209999999
"07921","Bedminster","NJ","A&P","1-3 Washington Valley Rd","07921",40.64706572905911,-74.6397021155804
"07922","Berkeley Heights","NJ","Central Farmers Market","598 Central Ave","07974",40.6972078760738,-74.40536410873142
"07922","Berkeley Heights","NJ","Fresh & Wholesome Market","501 Springfield Ave","07922",40.68391799926758,-74.44241333007812
"07927","Cedar Knolls","NJ","ShopRite of Greater Morristown","178 E. Hanover Ave.","07927",40.81369061648642,-74.46890178606982
"07927","Cedar Knolls","NJ","Walmart","235 Ridgedale Ave","07927",40.80984932073321,-74.4576212675393
"07927","Cedar Knolls","NJ","Foodtown","not_available","07981",40.80826056808573,-74.4469325338842
"07928","Chatham","NJ","ShopRite of Chatham","641 Shunpike Road","07928",40.74571856069377,-74.43134177543728
"07928","Chatham","NJ","Whole Foods Market","222 Main St","07940",40.75355391514896,-74.40566946074597
"07928","Chatham","NJ","ACME Markets","1260 Springfield Ave","07974",40.7048657,-74.4040758
"07928","Chatham","NJ","Kings Food Markets","393 Main St","07928",40.742160671398494,-74.38846421939503
"07928","Chatham","NJ","Whole Foods Market","Chatham","not_available",40.740868,-74.38382
"07930","Chester","NJ","ShopRite of Chester","195 US Highway 206 S","07930",40.780407174217004,-74.6946737156533
"07930","Chester","NJ","ShopRite of Chester, NJ","Rt 206 Maple Avenue","07930",40.7811148,-74.6954297
"07932","Florham Park","NJ","Trader Joe's","176 Columbia Turnpike","07932",40.78933684606052,-74.39153327365133
"07932","Florham Park","NJ","Kings Food Markets","184 Columbia Tpke","07932",40.78954724972092,-74.39277591777659
"07932","Florham Park","NJ","Blue Clivia","36 Woodbine Rd","07932",40.763311,-74.392667
"07945","Mendham","NJ","Kings Food Markets","86 E Main St","07945",40.78299654573395,-74.58892484403258
"07950","Morris Plains","NJ","ShopRite of Greater Morristown","178 E Hanover Ave","07960",40.8124203,-74.4701422
"07950","Morris Plains","NJ","ACME Markets","329 Speedwell Ave","07950",40.8223242,-74.4797692
"07950","Morris Plains","NJ","Burrinis","not_available","07950",40.82942,-74.479327
"07960","Morristown","NJ","Kings Food Markets","191 South St","07960",40.790564720014714,-74.47487453616324
"07960","Morristown","NJ","Whole Foods Market","110 Washington Street","07960",40.799249773175376,-74.48873720850797
"07960","Morristown","NJ","7-Eleven","50 Morris St","07960",40.7978793,-74.4778854
"07960","Morristown","NJ","L.C. Supermarkets","139 Speedwell Ave","07960",40.80220413208008,-74.48175811767578
"07960","Morristown","NJ","Kings Morristown","not_available","07960",40.79164735808394,-74.49165970323627
"07960","Morristown","NJ","Morristown Meat Market","Morris","not_available",40.798072,-74.476714
"07960","Morristown","NJ","Health Shoppe","66 Morris St","07960",40.79790727595532,-74.47695401190234
"07960","Morristown","NJ","La Catrachita Grocery","19 Martin Luther King Ave","07960",40.80246,-74.47548
"07960","Morristown","NJ","Pink Delivery Cart Inc.","55 Madison Ave Ste 400","07960",40.787706,-74.467819
"07960","Morristown","NJ","Golds","150 Morris St","07960",40.79643018503201,-74.47312116622925
"08002","Cherry Hill","NJ","Wegmans","2100 Marlton Pike W","08002",39.92260967830716,-75.03480645236044
"08002","Cherry Hill","NJ","ACME Markets","400 W Cuthbert Blvd","08108",39.907448,-75.058785
"08002","Cherry Hill","NJ","Whole Foods Market","1558 Kings Highway North","08034",39.915753271228596,-75.01142557846998
"08002","Cherry Hill","NJ","Trader Joe's","775 Haddonfield Rd","08002",39.9290522,-75.0321194
"08002","Cherry Hill","NJ","ShopRite of Garden State Pavilion","2240 W. Marlton Pike","08002",39.92930363054033,-75.04304667068004
"08002","Cherry Hill","NJ","Walmart","500 Route 38","08002",39.938239871136034,-75.04469600273656
"08002","Cherry Hill","NJ","MOM's Organic Market","1631 Kings Hwy N","08034",39.91455361055055,-75.00816037843265
"08002","Cherry Hill","NJ","Fast And Friendly","129-131 W Mill Rd","08052",39.94906929696309,-74.9959914719786
"08002","Cherry Hill","NJ","Ammon Mediterrran Market","not_available","08002",39.939329,-75.008952
"08002","Cherry Hill","NJ","Cherry Hill Food Store","1503 Marlton Pike E","08034",39.909490360270816,-74.98828219400693
"08002","Cherry Hill","NJ","Genuardi's","not_available","08034",39.94304561616404,-75.02763845794458
"08002","Cherry Hill","NJ","J & J Food Market","145 Haddon Ave","08108",39.91038545,-75.04871608
"08002","Cherry Hill","NJ","McFarlans Market","Park Ave","08109",39.95142517123524,-75.04878941839824
"08002","Cherry Hill","NJ","Lidl","400 Route 38","08002",39.93690872192383,-75.05050659179688
"08003","Cherry Hill","NJ","ShopRite of Marlton","307 West Route 70","08053",39.89559515927223,-74.93232543957483
"08003","Cherry Hill","NJ","ShopRite of Evesham Road","400 E. Evesham Rd.","08003",39.8615458315107,-74.97319452283396
"08003","Cherry Hill","NJ","Whole Foods Market","940 Route 73 North","08053",39.90793554202792,-74.93812934475443
"08003","Cherry Hill","NJ","Aldi's","651 Route 70 W","08053",39.8963167,-74.9373184
"08003","Cherry Hill","NJ","Han-Ah-Reum Asian Market","1720 Marlton Pike E","08003",39.90818472062745,-74.97723479681184
"08003","Cherry Hill","NJ","Friendly Food Market","Greentree Rd","08003",39.90558928920596,-74.96517275853464
"08003","Cherry Hill","NJ","Ashland Food Market & Deli","10 S Burnt Mill Rd","08043",39.860179849492795,-75.00744554375173
"08005","Barnegat","NJ","ACME Markets","912 W Bay Ave","08005",39.7594115,-74.2462109
"08005","Barnegat","NJ","Walmart","525 Route 72 W","08050",39.70107737403355,-74.2755010700085
"08005","Barnegat","NJ","ALDI","451 Martin Truex Jr Blvd","08050",39.703464,-74.2761335
"08005","Barnegat","NJ","ShopRite","501 Route 9","08758",39.79616430556625,-74.19913882778054
"08005","Barnegat","NJ","ShopRite of Waretown","501 Route 9 In The Towne Center","08758",39.7964891,-74.198337
"08005","Barnegat","NJ","Pathmart","Rt 72 E","0050",39.70453950901449,-74.28028302280927
"08005","Barnegat","NJ","The Store","not_available","08005",39.766348,-74.255435
"08007","Barrington","NJ","ShopRite of Lawnside","130 N. White Horse Pike","08045",39.867749839252866,-75.04192663795817
"08007","Barrington","NJ","Heritage's Dairy Store","Clements Bridge Rd","not_available",39.8541700372302,-75.06551180630693
"08008","Beach Haven","NJ","ShopRite","295 Route 72 E","08050",39.69798160974389,-74.26882339288315
"08008","Beach Haven","NJ","ACME Markets","9600 Long Beach Blvd","08008",39.6039406,-74.2111918
"08008","Beach Haven","NJ","Murphy's Marketplace","9 S Bay Ave","08008",39.56317474098239,-74.24020368164344
"08008","Beach Haven","NJ","Neptune Market","8014 Long Beach Blvd","08008",39.707845657907725,-74.13358150640957
"08008","Beach Haven","NJ","ACME Markets","609 E Bay Ave","08050",39.6846455,-74.2393476
"08008","Beach Haven","NJ","Anchor Produce Market","2012 Long Beach Blvd","08008",39.6678817733102,-74.16096874995162
"08008","Beach Haven","NJ","Walmart Supercenter","631 Rt. 9 South","08087",39.62048566303267,-74.31912869251391
"08008","Beach Haven","NJ","Island Market","5715 Long Beach Blvd","08008",39.622776,-74.19572
"08008","Beach Haven","NJ","Ocean Bay Market","102 S 1st St","08008",39.65401831059556,-74.17231030573275
"08008","Beach Haven","NJ","ShopRite of Manahawkin","295 Route 72","08050",39.6869243,-74.2519315
"08008","Beach Haven","NJ","DeFiglio's Market","not_available","08008",39.63971257532261,-74.18359194432416
"08009","Berlin","NJ","Walmart Supercenter","265 N Route 73","08091",39.80834842229477,-74.9282028782743
"08009","Berlin","NJ","ShopRite","200 N Route 73","08091",39.8066825655377,-74.93456039910255
"08009","Berlin","NJ","ShopRite of Berlin","200 Route 73 North","08009",39.7957173,-74.9244166
"08009","Berlin","NJ","Heritage's","11 White Horse Pk.","08009",39.79026682709978,-74.92822418996586
"08010","Beverly","NJ","ACME Markets","23 Levitt Pkwy","08046",40.051595,-74.8911671
"08010","Beverly","NJ","Aldi","4225 Route 130","08010",40.0396297,-74.9154646
"08012","Blackwood","NJ","Walmart Supercenter","3501 Route 42","08012",39.7257649932917,-75.05072716931153
"08012","Blackwood","NJ","ShopRite of Chews Landing","1200 Chews Landing Rd.","08021",39.81845702119532,-75.03757762257104
"08012","Blackwood","NJ","Walmart Supercenter","2000 Clements Bridge Rd Ste 100","08096",39.844000574917146,-75.09149637427005
"08012","Blackwood","NJ","ShopRite of Laurel Hill","1224 Blackwood & Clementon Rd","08021",39.80336413955514,-75.02536118030548
"08012","Blackwood","NJ","ShopRite","382 Egg Harbor Rd","08080",39.7475717,-75.0752659
"08012","Blackwood","NJ","Walmart Grocery Pickup and Delivery","2000 Clements Bridge Rd Ste 10","08096",39.844239,-75.091648
"08012","Blackwood","NJ","ACME Markets","415 Egg Harbor Rd","08080",39.7477513,-75.0753565
"08012","Blackwood","NJ","Save A Lot","803 Blackwood Clementon Rd","08021",39.805234000000006,-75.021406
"08012","Blackwood","NJ","ALDI","30 S White Horse Pike","08084",39.84096308736773,-75.01570388674736
"08012","Blackwood","NJ","Natural Health","2001 College Dr","08021",39.79838220000001,-75.0258041
"08012","Blackwood","NJ","So It Is African Market","569 Blackwood Clementon Rd","08021",39.80514144897461,-75.01802825927734
"08012","Blackwood","NJ","ALDI","4601 Route 42","08012",39.744042860166964,-75.04544556140905
"08012","Blackwood","NJ","ShopRite of English Creek","3003 Black Horse Pike","08234",39.7235418,-75.0270763
"08012","Blackwood","NJ","ShopRite of Sewell","382 Egg Harbor Road","08080",39.7528274,-75.0751744
"08012","Blackwood","NJ","Gris Jorners Turnip Patch","not_available","08080",39.723676,-75.048455
"08012","Blackwood","NJ","Heritage's Dairy Stores","808 S Black Horse Pike","08012",39.78980310058042,-75.05849024329316
"08012","Blackwood","NJ","Gris Jorners Pickle Patch","not_available","08081",39.74861460413873,-75.03280708909737
"08014","Bridgeport","NJ","Fare & Square","3117 W 9th St","19013",39.83335494995117,-75.3980712890625
"08015","Browns Mills","NJ","ACME Markets","18 Broadway","08015",39.975722426000196,-74.58157360553741
"08016","Burlington","NJ","ShopRite of Burlington","1817 Mount Holly Road","08016",40.05339262991019,-74.84076465941048
"08016","Burlington","NJ","Walmart Supercenter","2106 Mount Holly Rd","08016",40.04789245559622,-74.84236003974095
"08016","Burlington","NJ","Selecto Supermarket","Pond St","19077",40.0981778621481,-74.85607263250219
"08016","Burlington","NJ","Roebling Town Market","1275 Hornberger Ave","08554",40.116093745107186,-74.78485542498376
"08016","Burlington","NJ","The Break Room","not_available","08554",40.116486,-74.78482
"08016","Burlington","NJ","Indian Grocery Mart","115 Rt 130","08016",40.072539623452286,-74.85234364824876
"08016","Burlington","NJ","Hell On Earth","400","08046",40.02940148333333,-74.87912296666667
"08016","Burlington","NJ","Green Apple Mart","400 John F Kennedy Way, Unit 20","08046",40.029696,-74.878729
"08016","Burlington","NJ","Dollar Mart","400 Suite 120 John F Kennedy Way, Willingboro Township, NJ 08046","08046",40.02919279761776,-74.8797604998538
"08016","Burlington","NJ","Mattsons Market","1609 Mount Holly Rd","08016",40.05663803105036,-74.84588031067484
"08016","Burlington","NJ","Lovelands (Lovelands-Burlington Super Market)","not_available","08016",40.07574011782935,-74.85743789688316
"08016","Burlington","NJ","Big Brown Turd","323 Brook St","19007",40.102678000000004,-74.846335
"08016","Burlington","NJ","Save-A-Lot","811 N Route 130","08016",40.069065,-74.867773
