"zip","city","state","name","address","postalCode","lat","lon"
"10001","New York","NY","505W37","505 W 37th St","10018",40.75690858825211,-73.99800734510892
"10001","New York","NY","Equinox High Line","100 10th Ave","10011",40.74370943522512,-74.00697437112993
"10001","New York","NY","The Victory","561 10th Ave","10036",40.75927433585485,-73.99646791200374
"10001","New York","NY","New York Sports Clubs","270 8th Ave","10011",40.7455891,-73.9980521
"10001","New York","NY","CrossFit NYC","50 W 28th St","10001",40.74589871935009,-73.99009029202607
"10001","New York","NY","The Gym at The Seymour","261 W 25th St","10001",40.746437,-73.996667
"10001","New York","NY","Mid-City Gym & Tanning","345 W 42nd St","10036",40.75810868499696,-73.9917226956553
"10001","New York","NY","Crunch Fitness - 38th Street","1385 Broadway","10018",40.7527285,-73.98757789999999
"10001","New York","NY","Crunch Fitness","215 W 23rd Street","10011",40.74459291621539,-73.9961439371109
"10001","New York","NY","Blink Fitness","308 Eighth Avenue","10001",40.746814872713934,-73.99714359666314
"10001","New York","NY","Instrata Fitness Club","10 E 29th St","10016",40.744928018590294,-73.98605361590715
"10001","New York","NY","La Palestra at The Orion","350 W 42nd St Fl 30","10036",40.75772039595812,-73.992309354557
"10001","New York","NY","Blink Fitness","5 Bryant Park","10018",40.75392992737025,-73.98549777906953
"10001","New York","NY","Blink Fitness","127 W 30th St","10001",40.748047017352285,-73.99095741364096
"10001","New York","NY","Bally Total Fitness","139 W 32nd St","10001",40.74910397275352,-73.9902348600804
"10001","New York","NY","AKT in Motion","1182 Broadway Fl 2","10001",40.74552986897266,-73.98838928526743
"10001","New York","NY","Chelsea Recreation Center","430 W 25th St","10001",40.74850943654036,-74.00215994542747
"10001","New York","NY","Chelsea Stratus","101 W 24th St","10011",40.743888902802986,-73.99251737878426
"10001","New York","NY","Boss NYC","221 W 37th St","10018",40.75355118662439,-73.99017386346797
"10001","New York","NY","Herald Towers Gym","50 W 34th St","10001",40.7495744933703,-73.98744111837577
"10001","New York","NY","DanceBody","1158 Broadway Fl 4","10001",40.7445736,-73.98863109999999
"10001","New York","NY","Equinox Bryant Park","129 West 41st St","10036",40.75468,-73.985466
"10001","New York","NY","TWF Performance Lab","525 W 26th St","10001",40.75018302371518,-74.00415301322937
"10001","New York","NY","Orange Theory Fitness","321 W 37th St","10018",40.75452567938067,-73.9929757879358
"10001","New York","NY","New York Sports Club","230 W 41st St","10036",40.7556365007444,-73.98886692593805
"10001","New York","NY","The Gym at The Atlas","66 W 38th St Fl 5","10018",40.751910352973866,-73.9858935506665
"10001","New York","NY","Body By Simone","606 W 26th St","10001",40.7509412012032,-74.00593450777127
"10001","New York","NY","Gym at The York","not_available","not_available",40.752452,-73.989712
"10001","New York","NY","Manhattan Plaza Climbing Gym","not_available","10036",40.75959479300676,-73.99389381736232
"10002","New York","NY","Equinox SoHo","69 Prince St","10012",40.72397271279325,-73.9970421147778
"10002","New York","NY","WillyB Crossfit","285 Grand St","10002",40.71761703491211,-73.99248504638672
"10002","New York","NY","Equinox Orchard Street","200 Orchard St","10002",40.72237017311023,-73.98793738659782
"10002","New York","NY","Hamilton Fish Recreation Center","128 Pitt St","10002",40.7204271839729,-73.98139883649768
"10002","New York","NY","GYM NYC","227 Mulberry St","10012",40.72264592062656,-73.99637717903293
"10002","New York","NY","Ludlow Fitness","100 Delancey St","10002",40.71888145043661,-73.98895495410055
"10002","New York","NY","Chinatown YMCA","273 Bowery","10002",40.72365373657811,-73.9924958478201
"10002","New York","NY","Forward__Space","24 Spring St","10012",40.721333,-73.995265
"10002","New York","NY","Project by Equinox","267 Mulberry St.","10012",40.723875548890625,-73.99552991560462
"10002","New York","NY","Hillman Gym","530 Grand St","10002",40.71513343509779,-73.98117571779109
"10002","New York","NY","ConBody","294 Broome St","10002",40.718699834462385,-73.99202821520288
"10002","New York","NY","East River Cooperative Fitness Center","457 Fdr Dr","10002",40.713404357124546,-73.9786178955956
"10002","New York","NY","Wii Fit Gym ~ Vegan Central","not_available","10002",40.71506118774414,-73.98038482666016
"10002","New York","NY","CHKA","34 Avenue A","10009",40.72333526611328,-73.98519134521484
"10002","New York","NY","Conbody","121 Ludlow St Fl 2","10002",40.719703674316406,-73.98880767822266
"10002","New York","NY","Arabella 101 Gym","101 Avenue D","10009",40.7234634199053,-73.97666192332518
"10002","New York","NY","William Fitness","65 Columbia St","10002",40.717647552490234,-73.98015594482422
"10002","New York","NY","285 Gym","285 Lafayette St","10012",40.72406768798828,-73.99571990966797
"10002","New York","NY","275 South St Gym","275 South St","10002",40.7107048034668,-73.98771667480469
"10002","New York","NY","Schafers gym","Kent ave","10002",40.713998,-73.976629
"10002","New York","NY","The Ludlow Gym","188 Ludlow St","10002",40.72208842603433,-73.98692301248481
"10002","New York","NY","Gym","not_available","10007",40.71653989287713,-73.99687107972214
"10002","New York","NY","Iron & Silk Fitness","155 E 3rd St","10009",40.72356027206864,-73.98502138147265
"10002","New York","NY","EQX Men's Steam Room","Prince Street","not_available",40.724023,-73.997211
"10002","New York","NY","AdvantageFit NYC Private Fitness Trainers","178 Bowery","10012",40.720619201660156,-73.99434661865234
"10003","New York","NY","Blink Fitness","16 E 4th St","10012",40.72786868539725,-73.99356230572482
"10003","New York","NY","Crunch Fitness - Union Square","113 4th Avenue","10003",40.73267299331333,-73.98994904264866
"10003","New York","NY","NYSC Flagship Astor Place","4 Astor Pl","10003",40.72996743980256,-73.99234344976432
"10003","New York","NY","Stuytown Outdoor Fitness Park","14th And 1st Ave Park","10009",40.73161216062664,-73.98093523657569
"10003","New York","NY","Switch Playground 12th Street","130 E 12th St","10003",40.732184325593934,-73.98869947016881
"10003","New York","NY","Zeckendorf Towers Pool","1 Irving Pl","10003",40.73479185873289,-73.98764606816657
"10003","New York","NY","Rumble Boxing - NoHo","700 Broadway","10003",40.7284098,-73.9937922
"10003","New York","NY","New York Health and Racquet Club","270 Park Ave S","10010",40.73914434247855,-73.98734536441805
"10003","New York","NY","Gym At Union Square South","1 Union Sq S","10003",40.73436355448503,-73.99037266031351
"10003","New York","NY","CorePower Yoga","32 W 18th St","10011",40.73925485518326,-73.9937888626369
"10003","New York","NY","New York Health & Racquet Club","62 Cooper Sq","10003",40.72919667,-73.99088333
"10003","New York","NY","CityRow","80 5th Ave","10011",40.73582907457837,-73.99357894304146
"10003","New York","NY","Blink Fitness","98 Avenue A","10009",40.72566805864742,-73.9835690315461
"10003","New York","NY","Barry's Bootcamp","419 Lafayette St","10003",40.7289365661847,-73.99224109396116
"10003","New York","NY","Work Train Fight","636 Broadway Rm 204","10012",40.726382875668484,-73.99584194137591
"10003","New York","NY","190 East 7th GYM","190 E 7th St","10009",40.724584847331734,-73.98088189840506
"10003","New York","NY","New York Health & Racquet Club","24 E 13th St","10003",40.7347458,-73.99298999999999
"10003","New York","NY","Nimble Fitness","42 E 12th St","10003",40.73356404075049,-73.99186238130014
"10003","New York","NY","Orangetheory Fitness","51 Astor Pl","10003",40.72978865998068,-73.99014832764867
"10003","New York","NY","Face Gym","670 Broadway","10012",40.72727,-73.99518
"10003","New York","NY","New York Sports Club","10 Irving Pl","10003",40.7345097578335,-73.98830290770735
"10003","New York","NY","Big City Volleyball","86 4th Ave","10003",40.731976,-73.99074499999999
"10003","New York","NY","Definitions Personal Fitness","19 Union Sq W","10003",40.73597871124003,-73.99128369135686
"10003","New York","NY","Yoga Vida","666 Broadway","10012",40.7270016507027,-73.99522462200933
"10003","New York","NY","NYU Palladium Athletic Facility","140 E 14th St","10003",40.7334614461341,-73.98823252490317
"10004","New York","NY","Equinox Wall Street","14 Wall St","10005",40.70727326752029,-74.01054311858566
"10004","New York","NY","New York Health & Racquet Club","39 Whitehall St","10004",40.70293312976079,-74.01274864446879
"10004","New York","NY","Crossfit Wall Street","60 New St","10004",40.70554386423745,-74.01213909064103
"10004","New York","NY","20 Exchange Place Gymnasium","20 Exchange Pl","10005",40.70614064913209,-74.00935632342313
"10004","New York","NY","Retro Fitness","1 NY Plaza","10004",40.70232285555402,-74.01201089896813
"10004","New York","NY","Complete Body","10 Hanover Sq","10005",40.70434084081434,-74.00916057926591
"10004","New York","NY","Andaz Wall Street Gym","75 Wall St","10005",40.705125057929344,-74.00781159711502
"10004","New York","NY","Pure Barre Financial District","80 Pine St Lbby 1","10005",40.70657626896267,-74.00696972019936
"10004","New York","NY","New York Sports Clubs","30 Broad St Frnt 1","10004",40.7062734,-74.0116551
"10004","New York","NY","45 Wall Gym","45 Wall St","10005",40.70620692082801,-74.00944933306226
"10004","New York","NY","95 Wall Gym","not_available","10005",40.70456765664886,-74.0073567896332
"10004","New York","NY","Pure Barre","80 Pine St","10005",40.706446,-74.0069185
"10004","New York","NY","Trinity Boxing Club","116 Duane Street","10007",40.70891090598323,-74.0133789212536
"10004","New York","NY","29 Tiffany Place Gym","29 Tiffany Pl","11231",40.68629837036133,-74.0008316040039
"10004","New York","NY","Crunch - FiDi","140 Broadway","10005",40.708614,-74.010013
"10004","New York","NY","Cove Club Gym","2 S End Ave","10280",40.707916259765625,-74.0172119140625
"10004","New York","NY","300lb","Rector","not_available",40.70890413696351,-74.01700722813396
"10004","New York","NY","The Gym @ the Ocean","1 West St","10004",40.705531,-74.015977
"10004","New York","NY","Bcor Bootcamp","Freedom Way","07305",40.70501585495841,-74.04473184156141
"10004","New York","NY","Fitness Collective","120 Union St","11231",40.684114,-74.002586
"10004","New York","NY","Genesis Wellness","65 Broadway","10006",40.70758519464314,-74.01320732058345
"10004","New York","NY","20 West Street Gym","20 west street, level 6","10004",40.706180572509766,-74.01560974121094
"10004","New York","NY","Gym @ The Terrace Club","380 Rector Pl","10280",40.70899473841247,-74.01835776369661
"10004","New York","NY","Gym @ Riverwatch","70 Battery Pl","10280",40.707281,-74.017656
"10004","New York","NY","90 Washington Gym","90 Washington St","10006",40.70835531164328,-74.01457253949101
"10005","New York","NY","55 John St Gym","55 John St","10038",40.70913314819336,-74.00753021240234
"10005","New York","NY","Hampton Inn Fitness Center","Hampton Inn Manhattan Downtown-Financial District","not_available",40.703116,-74.012283
"10005","New York","NY","The Broad Exchange Building","25 Broad St","10004",40.70590702182451,-74.01075566898875
"10005","New York","NY","Liberty Plaza Private Gym","10 Liberty St","10005",40.707524107732006,-74.00848337450441
"10005","New York","NY","FRBNY Fitness Center","33 Liberty St","10045",40.708108001647375,-74.0088085801454
"10005","New York","NY","100 Maiden Lane GYM","100 Maiden Ln","10038",40.706845710256246,-74.0073964781299
"10005","New York","NY","holiday inn express fitness center","126 Water St","10005",40.705585,-74.007229
"10005","New York","NY","15 Cliff St Gym","15 Cliff St","10038",40.708155771046926,-74.00524479111627
"10005","New York","NY","99 John St Gym","99 John St","10038",40.70841902520256,-74.0057434589471
"10005","New York","NY","Complete Body Personal Training Studio","80 John St","10038",40.70825947478887,-74.00668397166586
"10005","New York","NY","71 Broadway Gym","71 Broadway","10006",40.70808373854244,-74.01207811336964
"10006","New York","NY","Equinox Brookfield Place","225 Liberty St","10281",40.712704,-74.014995
"10006","New York","NY","New York Mariott Downtown Gym","85 West St","10006",40.70948028564453,-74.0145263671875
"10006","New York","NY","Fitness Center","Marriott New York Downtown","10006",40.70944111575748,-74.01439320686792
"10006","New York","NY","Fitness Center","150 Greenwich St","10007",40.710289001464844,-74.01195526123047
"10006","New York","NY","Sweat @ W Downtown","123 Washington St","10006",40.70924758911133,-74.01367950439453
"10006","New York","NY","Le Rivage Gym","21 West St","10006",40.7066793693765,-74.0155928924543
"10006","New York","NY","Bow Flex Gym","225 Rector Pl","10280",40.70953369140625,-74.01576232910156
"10006","New York","NY","The Liberty Club","200 Rector Pl","10280",40.70798359778121,-74.01553643615308
"10006","New York","NY","37 Wall Street Gym","37 Wall St","10005",40.70673262707614,-74.01002735731272
"10006","New York","NY","YogaRoni Therapy","15 Broad St","10005",40.7064181,-74.01062480000002
"10006","New York","NY","RVM Fitness Center","40 Rector St Fl 16","10006",40.708774,-74.014363
"10006","New York","NY","Millenium Hilton Gym","55 Church St","10007",40.71167268972019,-74.01114851053406
"10006","New York","NY","88 Greenwich Gym","88 Greenwich St","10006",40.70778072272267,-74.01371784655481
"10006","New York","NY","Plus One Fitness","2 World Financial Ctr","10281",40.7118486232288,-74.01546940388585
"10007","New York","NY","Equinox Tribeca","54 Murray St","10007",40.71409860726041,-74.0096857179283
"10007","New York","NY","CrossFit 212 TriBeCa","281 Broadway","10007",40.714537431170484,-74.00599852611592
"10007","New York","NY","Fithouse","93 Worth St","10013",40.71640604066419,-74.00455455593485
"10007","New York","NY","111 Worth Gym","111 Worth St","10013",40.71595824632135,-74.0039386637146
"10007","New York","NY","Blink Fitness","111 Nassau Street","10038",40.71086470390997,-74.00731219136071
"10007","New York","NY","New York by Gehry Gym","8 Spruce St.","10038",40.71065538319971,-74.00570922556336
"10007","New York","NY","Pure Barre","110 Reade St","10013",40.71606640188512,-74.00844227422238
"10007","New York","NY","CorePower Yoga","25 Hudson St","10013",40.71679495478195,-74.00907084227009
"10007","New York","NY","The Helena Gym","601 W 57th St","10019",40.71427625954067,-74.00596671807583
"10007","New York","NY","B East Tribeca","291 Broadway","10007",40.711073,-74.002836
"10007","New York","NY","PROnatal Fitness","120 Warren St","10007",40.71636199951172,-74.01251983642578
"10007","New York","NY","New York Sports Club City Halll","217 Broadway","10007",40.711769104003906,-74.00884246826172
"10007","New York","NY","Laura's Gym","50 Franklin St","10013",40.717143,-74.002501
"10007","New York","NY","Trinity Boxing Club NYC","116 Duane St","10007",40.71550750732422,-74.00675201416016
"10007","New York","NY","Brooklyn Bridge Boot Camp","Printing House Square","10007",40.710447489419565,-74.00235722816555
"10007","New York","NY","Moving Visions Dance","19 Murray St Fl 3","10007",40.713668,-74.008047
"10007","New York","NY","Lafayette's Gym","Lafayette Street New York, NY 10007","not_available",40.71410426090165,-74.00340036923637
"10007","New York","NY","Aloft Gym","4953 Ann street","10038",40.710506,-74.00644
"10007","New York","NY","TrainGo","280 Broadway","10007",40.7146847,-74.0059615
"10007","New York","NY","Fulton gym","106 Fulton St","10038",40.709894,-74.006849
"10007","New York","NY","89 Murray Gym","89 Murray St","10007",40.71562957763672,-74.01211547851562
"10007","New York","NY","1 Key 2 Life Fitness","107 Chambers St","10007",40.715278000000005,-74.007963
"10007","New York","NY","Gym @ Tribeca Tower","105 Duane St","10007",40.715839313690935,-74.00628872087515
"10007","New York","NY","mind and body builders","78 Reade St","10007",40.71539306640625,-74.00716400146484
"10009","New York","NY","Oval Fitness","532 E 20th St","10009",40.73336939402212,-73.97591867849607
"10009","New York","NY","Gym @ 110","not_available","10003",40.732978,-73.987659
"10009","New York","NY","Village Green Gym","311 E 11th St","10003",40.730201721191406,-73.98529052734375
"10009","New York","NY","City Fitness","242 E 14th St","10003",40.732284,-73.985476
"10009","New York","NY","The ""Gym"" @ Avenue C Records","725-727 E 9th St","10009",40.724989,-73.976579
"10009","New York","NY","InYourPace Fitness","Manhattan, NY 10019","10009",40.7280880803685,-73.97963762283325
"10009","New York","NY","Model Building - Gym","E 7th St.","not_available",40.72543749493236,-73.98131132125854
"10009","New York","NY","Bison's Layer Gym","not_available","10009",40.73106199048042,-73.98143901085048
"10009","New York","NY","The Gym at The Stanton","196 Stanton St","10002",40.71998596191406,-73.98291778564453
"10010","New York","NY","Asser Levy Recreation Center","392 Asser Levy Pl","10010",40.7363337173512,-73.97569399316195
"10010","New York","NY","Manhattan Place Health Club","630 1st Ave","10016",40.74515330979293,-73.97250108871965
"10010","New York","NY","Waterside Plaza Swim & Health Club","35 Waterside Plz","10010",40.73827157994876,-73.97364789895104
"10010","New York","NY","View 34 Fitness Center","401 E 34th St","10016",40.74365058988965,-73.97204497150554
"10010","New York","NY","Equinox Gramercy","315 Park Ave S","10010",40.74074907098539,-73.98577092778955
"10010","New York","NY","Barry's Bootcamp","107 E 27th St","10016",40.74253219691085,-73.984151651167
"10010","New York","NY","Rumble Training - Flatiron/Chelsea","49 W 23rd St","10010",40.7425443,-73.9913831
"10010","New York","NY","Complete Body","22 W 19th St","10011",40.73967934739564,-73.99281107116433
"10010","New York","NY","Orangetheory Fitness","124 W 23rd St","10011",40.74329160813928,-73.99372598674132
"10010","New York","NY","Limelight Fitness","656 Avenue of the Americas","10010",40.74123,-73.9938
"10010","New York","NY","The Fhitting Room","31 W 19th St","10011",40.739856864845336,-73.99319384310543
"10010","New York","NY","Sony Fitness Center","25 Madison Ave","10010",40.7419319152832,-73.98702239990234
"10010","New York","NY","Windsor Court Gym","155 E 31st St","10016",40.7444089,-73.9802622
"10010","New York","NY","Row House","233 East 34th Street, Ground Floor","10016",40.74523,-73.97654
"10010","New York","NY","Kips Bay Towers Fitness Center","343 E 30th St Bsmt","10016",40.74163196674377,-73.97556132682608
"10011","New York","NY","Equinox Greenwich Avenue","97 Greenwich Ave","10014",40.73756890683277,-74.00177725483236
"10011","New York","NY","Barry's Bootcamp","135 W 20th St","10011",40.74164734518163,-73.99576918937264
"10011","New York","NY","Chelsea Piers Fitness","60 Chelsea Piers","10011",40.7466449,-74.01005700000002
"10011","New York","NY","Liftonic","13 Gansevoort St","10014",40.739480700539566,-74.00525142018896
"10011","New York","NY","Refine Method","131 Perry St","10014",40.73496122634544,-74.00756833990988
"10011","New York","NY","Pure Barre West Village","554 Hudson St","10014",40.73534948707436,-74.00598295489362
"10011","New York","NY","151 West 16th Street","not_available","10011",40.73985630202713,-73.99780206666328
"10011","New York","NY","F45 Training Flatiron","123 W 20th St","10011",40.7414905753182,-73.99529464308742
"10011","New York","NY","TMPL West Village","not_available","10014",40.734065,-74.002564
"10011","New York","NY","21 Chelsea Gym","120 W 21st St","not_available",40.74172460307028,-73.99470532021245
"10012","New York","NY","CURRENT","342 Canal St","10013",40.7203,-74.00345
"10012","New York","NY","Switch Playground SoHo","180 Avenue of the Americas","10013",40.72594565282432,-74.00394265793933
"10012","New York","NY","WundaBar","B, 21 Thompson St","10013",40.72288010131353,-74.00449789694352
"10012","New York","NY","Cordell Fitness","255 Centre St Fl 2","10013",40.720914486656255,-73.99775933710677
"10012","New York","NY","Physique 57","161 Ave of the Americas","10013",40.725883426523026,-74.00378718082742
"10012","New York","NY","Pvolve","415 W Broadway Fl 2","10012",40.7248649597168,-74.0014419555664
"10012","New York","NY","Drive495","495 Broadway Fl 2","10012",40.722008502032416,-73.99978774741236
"10012","New York","NY","Mile High Run Club","28 E 4th St","10003",40.7273827,-73.9924454
"10012","New York","NY","Brace Wellness","151 Spring St","10012",40.72450256347656,-74.00138854980469
"10012","New York","NY","Greenfoot Gym","654 Broadway","10012",40.726810455322266,-73.99518585205078
"10012","New York","NY","One To One Gym","598 Broadway Fl 3","10012",40.72521458975466,-73.99688940661133
"10012","New York","NY","Chuck Norris Total Gym 1700","not_available","60051",40.729931,-74.004014
"10012","New York","NY","Sheraton Fitness","370 Canal St Fl 2","10013",40.720847588551194,-74.00442552887158
"10012","New York","NY","Soho Mews Gym","311 W Broadway","10013",40.72163772583008,-74.0037841796875
"10012","New York","NY","Hanson Fitness","42 Wooster St","10013",40.72242554176341,-74.00255834479437
"10012","New York","NY","Clockwork Jiu Jitsu","650 Broadway 2nd Floor","10012",40.72672499190883,-73.9953901441803
"10013","New York","NY","Barry's Bootcamp","1 York St","10013",40.721128035611365,-74.00539755821228
"10013","New York","NY","The Gym @ The Riverhouse","2 River Ter","10282",40.71530124536505,-74.01611965779145
"10013","New York","NY","Two Sigma 100 AoA","100 Avenue of the Americas","10013",40.7232766712472,-74.00492429493308
"10013","New York","NY","Crunch - Tribeca","80 Leonard St","10013",40.717195410510364,-74.00512799620634
"10013","New York","NY","DOGPOUND","1 Renwick St.","10013",40.724496417243046,-74.00902589928198
"10013","New York","NY","Anderson's Martial Arts","394 Broadway Fl 3","10013",40.719125437374025,-74.00219244378997
"10013","New York","NY","Goldman Sachs Fitness Exchange","200 West St","10282",40.71467511393658,-74.01441163188711
"10013","New York","NY","Dancebody","23 Leonard St","10013",40.718709999999994,-74.007571
"10013","New York","NY","J Train","505 Greenwich St","10013",40.725701,-74.008896
"10013","New York","NY","IP Fitness Center","350 Greenwich St","10013",40.718505859375,-74.01066589355469
"10014","New York","NY","Equinox Printing House","421 Hudson St","10014",40.72997832429907,-74.00712496239795
"10014","New York","NY","Tony Dapolito Recreation Center","3 Clarkson Street","10014",40.7293151683473,-74.00519386928597
"10014","New York","NY","Gotham Gym","600 Washington St","10014",40.730950250825344,-74.00900698213964
"10014","New York","NY","Fitness Center @ 110 Horatio","110 Horatio St","10014",40.738576,-74.00923399999999
"10014","New York","NY","SurfSet Fitness April Pop-up","Chelsea Market","10014",40.74262331045646,-74.00714445727561
"10014","New York","NY","Station NYC","235 W 15 th st","10011",40.740698,-74.00202
"10014","New York","NY","Sequoia Gym","222 W 14th St","10011",40.7388916015625,-74.00130462646484
"10014","New York","NY","I AM Yoga & Fitness","not_available","11225",40.72713531766661,-74.00545029067902
"10014","New York","NY","Empower gym","W4th","not_available",40.733561959372516,-74.00281075951123
"10014","New York","NY","The West Coast Gym","95 Horatio St","10014",40.73958097300538,-74.00812020023182
"10014","New York","NY","Maritime Gym","9th ave","07107",40.74229954251473,-74.00409026749415
"10014","New York","NY","The St. Germain Building Gym","33 Greenwich Ave","10014",40.73491287231445,-74.00032043457031
"10014","New York","NY","WILLSPACE","254 W 10th St Ste B","10014",40.733725853137656,-74.00628236760791
"10016","New York","NY","Equinox Park Avenue","1 Park Ave","10016",40.746093,-73.98135
"10016","New York","NY","Blink Fitness","600 Third Avenue","10016",40.749334,-73.975913
"10016","New York","NY","New York Sports Clubs","3 Park Ave","10016",40.7466308,-73.9806914
"10016","New York","NY","Blink Fitness","125 Park Ave","10017",40.7516639,-73.9776847
"10016","New York","NY","Tudor City Place Gym","5 Tudor City Pl","10017",40.74822371538265,-73.97024191430063
"10016","New York","NY","NEO FIFTH","420 Fifth Ave, Sub-Cellar","10018",40.750530813681124,-73.98329206512332
"10016","New York","NY","Selvin Fitness","185 Madison Ave Fl 3","10016",40.7478096730616,-73.98268461227417
"10016","New York","NY","Smart Workout","124 E 40th St","10016",40.750214562751495,-73.97729526909036
"10016","New York","NY","Whitney Gym","not_available","10016",40.747074,-73.972938
"10016","New York","NY","Gym @ The EDITION","not_available","10010",40.740973,-73.987594
"10016","New York","NY","Pure Power Boot Camp","38 E 32nd St","10016",40.74615710962747,-73.9829507289668
"10016","New York","NY","JKM Fitness","50 Lexington Ave","10010",40.74029601957652,-73.98428808144891
"10017","New York","NY","New York Sports Clubs","200 Park Ave Fl 3 Fl 3","10166",40.753516848377515,-73.97678945006545
"10017","New York","NY","Equinox East 54th Street","250 East 54th Street","10022",40.757346,-73.966992
"10017","New York","NY","Equinox East 44th Street","420 Lexington Ave","10170",40.752687,-73.975323
"10017","New York","NY","New York Sports Club","575 Lexington Ave","10022",40.757025,-73.9713969
"10017","New York","NY","Blink Fitness","240 E 54th St","10022",40.757466,-73.967448
"10017","New York","NY","New York Sports Clubs","885 Second Ave","10017",40.75360558611844,-73.96997921842001
"10017","New York","NY","New York Health & Racquet Club","132 E 45th St","10017",40.752895290505386,-73.97448078654293
"10017","New York","NY","Aerial Arts NYC","359 East 49th","10022",40.75495572563759,-73.96975540237747
"10017","New York","NY","Vanderbilt YMCA","224 E 47th St","10017",40.7533773,-73.97102199999999
"10017","New York","NY","Equinox East 43rd Street","521 5th Ave","10175",40.754089,-73.9799
"10017","New York","NY","Manhattan Athletic Club","277 Park Ave","10172",40.75550372427263,-73.97385045410454
"10017","New York","NY","East 54th St Recreation Center","348 E 54th St","10022",40.756668695470516,-73.9649602952561
"10017","New York","NY","MTCO","Madison Ave","10017",40.75331364097581,-73.97865089079907
"10017","New York","NY","L'Ecole Gym","212 E 47th St","10017",40.753249708210184,-73.97180840441746
"10017","New York","NY","Gym @ 211 East 51st","211 E 51st St","10022",40.75644302368164,-73.96955871582031
"10017","New York","NY","Krav NYC","250 E 49th St, New York, NY 10017","10017",40.75425338745117,-73.96965789794922
"10017","New York","NY","WeWork Tower 49 eGYM","12 E 49th St","10017",40.75737762451172,-73.97686767578125
"10017","New York","NY","Fit46 Fitness Center","55 W 46th St","10036",40.75710107531618,-73.98109317102733
"10017","New York","NY","Tiger Fitness Center","101 Park Ave","10178",40.751991,-73.977793
"10018","New York","NY","Life Time Sky","605 West 42nd Street","10036",40.76115126873309,-73.99913217426928
"10018","New York","NY","CorePower Yoga","24 West 40th Street, Mezzanine Level","10018",40.75323868505545,-73.98320268159922
"10018","New York","NY","Equinox West 50th Street","1633 Broadway","10019",40.761912,-73.984268
"10018","New York","NY","River Place Sports Club","650 W. 42nd St (One River Place)","10036",40.76121148425384,-74.00071614506635
"10018","New York","NY","Morgan Stanley Gym","1585 Broadway","10019",40.75985207317243,-73.98507102126582
"10018","New York","NY","Club 7 By Iowa Sports","620 W 42nd St","10036",40.76082717166776,-73.99912031260314
"10018","New York","NY","Strand Health Club","500 W 43rd Street, Rooftop","10036",40.76026860311266,-73.99516109671953
"10018","New York","NY","Gotham West Gym","530 W 45th St","10036",40.76243933596467,-73.99665459661443
"10018","New York","NY","Hudson Crossing Gym","400 W 37th St","10018",40.7554661743803,-73.99534070848941
"10018","New York","NY","Archstone Midtown Gym","250 W 50th St","10019",40.76191476005061,-73.98616339316068
"10019","New York","NY","NYSC Elite Hell’s Kitchen","355 W 49th St","10019",40.762559,-73.988117
"10019","New York","NY","Equinox Columbus Circle","10 Columbus Cir","10019",40.76874192651226,-73.98214593908337
"10019","New York","NY","New York Athletic Club","180 Central Park S","10019",40.766608638100195,-73.97868835262496
"10019","New York","NY","Equinox","45 Rockefeller Plaza","10111",40.75918,-73.977784
"10019","New York","NY","Pure Barre","200 Central Park S Apt 207","10019",40.7666871,-73.9795594
"10019","New York","NY","Crunch Fitness - 54th Street","250 W 54th Street","10019",40.76422022925652,-73.98350268602366
"10019","New York","NY","Equinox 53rd Street","10 East 53rd Street","10022",40.76004,-73.975161
"10019","New York","NY","10WEA Gym","not_available","10023",40.771635,-73.990303
"10019","New York","NY","Fitness Center","80 Columbus Cir | Mandarin Oriental","10023",40.768116249364546,-73.98302801203664
"10019","New York","NY","my gym","22 W 66th St","10023",40.77276298298607,-73.97985078126533
"10019","New York","NY","Archstone Clinton Gym (Avalon Clinton Gym)","515 W 52nd St","10019",40.76642157358299,-73.9915416231907
"10019","New York","NY","New York Sports Clubs","1221 Avenue of the Americas","10020",40.7591511,-73.9816863
"10019","New York","NY","New York Sports Club","61 W 62nd St","10023",40.7709533,-73.9827714
"10019","New York","NY","South Park Tower","124 W 60th St","10019",40.77045556272212,-73.98557434159635
"10019","New York","NY","The Gym at The Westport","56th St","not_available",40.76824122121323,-73.99013728731654
"10019","New York","NY","Physique 57","24 W 57th St","10019",40.76374341560388,-73.97559190296822
"10019","New York","NY","NBC Health & Fitness Center","30 Rockefeller Plz","10112",40.7592043792817,-73.97885282098204
"10019","New York","NY","U.S. Athletic Training Center","515 Madison Ave Fl 3","10022",40.759712627748826,-73.97388864561682
"10019","New York","NY","New York Health & Racquet Club","110 W 56th St","10019",40.763765783744795,-73.97852609877663
"10019","New York","NY","Avalon Clinton South Gym","510 W 52nd St","10019",40.766300275016114,-73.99169018458308
"10019","New York","NY","The Westmore Gym","333 W 57th St","10019",40.76778030395508,-73.98429107666016
"10019","New York","NY","Oasis Club Gym","30 W 63rd St","10023",40.770748138427734,-73.9810791015625
"10020","New York","NY","Moore Capital Fitness Center","not_available","10020",40.760473,-73.982101
"10020","New York","NY","NewsFitness","1211 Avenue of the Americas Fl 3","10036",40.7592138658256,-73.98254315806051
"10020","New York","NY","30 Rock Gym","not_available","10112",40.759188491748795,-73.97884925101809
"10020","New York","NY","NewsFitness Center, News Corp. HQ","1211 Avenue of the Americas","10036",40.75912428133664,-73.98239052114803
"10020","New York","NY","MCM Gym","1251 Avenue of the Americas","10020",40.75941214563514,-73.9803709963009
"10020","New York","NY","The Jewel - Finess Center","11 W 51st St","10019",40.75993728637695,-73.97766876220703
"10021","New York","NY","Lycée Français de New York","505 E 75th St","10021",40.76867121028199,-73.95172135979784
"10021","New York","NY","Footbridge to East River Pathway","E. 78th Street","not_available",40.76958930130034,-73.9484703540802
"10021","New York","NY","Equinox East 61st Street","330 E 61st St","10065",40.761151,-73.961958
"10021","New York","NY","Equinox","1429 2nd Ave","10021",40.77046,-73.957387
"10021","New York","NY","Equinox East 63rd Street","817 Lexington Avenue","10065",40.7644886843313,-73.96651148383634
"10021","New York","NY","Bristol Gym","not_available","10022",40.758304,-73.9654826
"10021","New York","NY","Sokol New York","420 E 71st St","10021",40.766653159251426,-73.95533533866734
"10021","New York","NY","Crunch Fitness - 59th Street","1109 2nd Avenue","10022",40.76024460802107,-73.96461067907435
"10021","New York","NY","Barry's Bootcamp","1216 2nd Ave","10065",40.763501,-73.962023
"10021","New York","NY","Gym @ The York","435 E 79th St","10075",40.772036055720754,-73.95076871556721
"10021","New York","NY","Crunch","1131 3rd Ave","10065",40.76610327292864,-73.96329050447581
"10021","New York","NY","Refine Method","340 E 71st St","10021",40.76731526713521,-73.9568866274976
"10021","New York","NY","Regenerate 82","506 E 82nd St","10028",40.773077690538436,-73.94832704446911
"10021","New York","NY","Coleman Tower 5th Floor Gym","1330 1st Ave","10021",40.76760911337239,-73.95583333460657
"10021","New York","NY","Shock Therapy","153 E 70th St","10021",40.769109,-73.962856
"10021","New York","NY","Gymtime","1520 York Ave","10028",40.77199212174999,-73.94956521462328
"10021","New York","NY","ICE NYC","330 E 59th St","10022",40.76011254023884,-73.96295510114648
"10021","New York","NY","TS Fitness","328 East 61st Street","10065",40.76108,-73.96217
"10021","New York","NY","New York Health & Racquet Club","1433 York Ave","10075",40.769621598773064,-73.95194078711984
"10021","New York","NY","Pure Barre","1237 2nd Ave","10065",40.764187,-73.961979
"10021","New York","NY","Lasdon Gym","420 E 70th St","10021",40.7659821246782,-73.95579239310923
"10021","New York","NY","The Fhitting Room Penthouse","201 E 67th St","10065",40.766466038164914,-73.96262874941318
"10021","New York","NY","InForm Fitness","201 E 56th St","10022",40.75964512381219,-73.96795173107569
"10021","New York","NY","The Gym @ Sutton Terrace","450 E 63rd St","10065",40.76104289702826,-73.9592956207103
"10021","New York","NY","Continental Towers Gym","301 E 79th St","10075",40.77351427067124,-73.95448723346685
"10021","New York","NY","CITYROW Upper East Side","1409 3rd Avenue","10075",40.7747965,-73.9566699
"10021","New York","NY","Gym - not worthy of its name","231 E 55th St","10022",40.75855255126953,-73.96692657470703
"10021","New York","NY","Gym At The Royale","188 East 64th Streer","10065",40.764569,-73.964879
"10021","New York","NY","1175 York Avenue Exercise Room","not_available","10021",40.761200022282246,-73.95775598593448
"10022","New York","NY","New York Sports Clubs","502 Park Ave","10022",40.7632407,-73.970328
"10022","New York","NY","Transform Fitness","133 E 58th St","10022",40.761654435371526,-73.96880991270498
"10022","New York","NY","480 Park Avenue Fitness Center","480 Park Ave","10022",40.76236402966738,-73.97049979852969
"10022","New York","NY","PHYT NYC","139 E 57th St Fl 5","10022",40.760898,-73.969053
"10023","New York","NY","Equinox West 76th Street","344 Amsterdam Avenue","10024",40.78145984590626,-73.97964993963983
"10023","New York","NY","Equinox Sports Club New York","160 Columbus Ave","10023",40.77439,-73.981231
"10023","New York","NY","Momentum Fitness","246 Columbus Avenue","10023",40.77712924060159,-73.97901535034178
"10023","New York","NY","CorePower Yoga","2030 Broadway, Suite 202","10023",40.776861442798776,-73.9818026887538
"10023","New York","NY","JCC Manhattan","334 Amsterdam Ave","10023",40.78108527114601,-73.97999819384735
"10023","New York","NY","Crossfit NYC - Upper West Side","157 Columbus Ave","10023",40.77441561462417,-73.98109653863574
"10023","New York","NY","140 Riverside  gym","140 Riverside Blvd","10069",40.777169693486975,-73.98910184314049
"10023","New York","NY","Barry's Bootcamp","72-74 W 69th St","10023",40.775306,-73.979857
"10023","New York","NY","Pure Barre","412 Columbus Ave","10024",40.782449685154994,-73.975171584002
"10023","New York","NY","Pure Yoga West","204 W 77th St","10024",40.7816589375539,-73.97954526697957
"10023","New York","NY","JCC Health Club","344 Amsterdam Ave","10024",40.781079619931674,-73.98010811343265
"10023","New York","NY","Body Evolutions","140 W 72nd St","10023",40.777877,-73.980619
"10023","New York","NY","Refine Method","117 West 72nd Street","10023",40.77793374,-73.97925271
"10023","New York","NY","Columbus Place Fitness","1 Columbus Pl","10019",40.768824103367415,-73.98531271426724
"10023","New York","NY","West End Sports Club","75 W End Ave","10023",40.77427170261052,-73.98890358612437
"10023","New York","NY","Sessanta Club","229 W 60th St","10023",40.7716630284897,-73.98912898988371
"10023","New York","NY","Soul Cycle West 72","117 W 72nd St","10023",40.777889251708984,-73.97935485839844
"10023","New York","NY","Gym In 2 Columbus","2 Columbus Ave","10023",40.76942825317383,-73.98487854003906
"10023","New York","NY","Gym @ The Concerto","200 W 60th St","10023",40.7707320706327,-73.98796146215182
"10023","New York","NY","AIRE gym","200 W 67th St","10023",40.77487478049209,-73.98454111837488
"10023","New York","NY","Fitness Center","165 Lincoln Center Plaza","10023",40.774122,-73.983964
"10023","New York","NY","Gym @ 120 R","not_available","10069",40.77636004797031,-73.98933023866726
"10024","New York","NY","New York Sports Clubs","2527 Broadway","10025",40.7937718,-73.9728384
"10024","New York","NY","Equinox West 92nd Street","2465 Broadway","10025",40.79196,-73.974096
"10024","New York","NY","Independence Harbor Gym/Fitness","361 River Rd","07020",40.808074951171875,-73.98481750488281
"10024","New York","NY","Fitness Factory Health Club","521 River Rd","07020",40.8116967829569,-73.98173661135063
"10024","New York","NY","Crunch Fitness - 83rd Street","162 W 83rd Street","10024",40.78526946430776,-73.9758449792862
"10024","New York","NY","Gym @ Enclave at the Cathedral","400 W 113th St","10025",40.804095469723656,-73.96083902781244
"10024","New York","NY","Princeton House Gym","215 W 95th St","10025",40.79402,-73.971682
"10024","New York","NY","Gym @ 2373 Broadway","2373 Broadway","10024",40.788856506347656,-73.97673034667969
"10024","New York","NY","Columbus pre-school & gym","606 Columbus Ave","10024",40.788868,-73.97085600000001
"10024","New York","NY","Rebound NYC, Inc.","not_available","10025",40.79388979751202,-73.97245726741676
"10024","New York","NY","New Amsterdam Fencing Academy","2726 Broadway","10025",40.800064317067,-73.96802419301096
"10024","New York","NY","Westmont Gym","730 Columbus Ave","10025",40.792564392089844,-73.968017578125
"10024","New York","NY","Elliot's Gym","86th St","10024",40.78627402677029,-73.97459203209304
"10024","New York","NY","2250 Broadway Gym","2250 Broadway","10024",40.784755,-73.978593
"10024","New York","NY","ZogSports - Sara Anderson (PS 9)","100 West 84th Street at Columbus","10024",40.78518215533849,-73.97363355040684
"10024","New York","NY","Laureate Gym","2150 Broadway Fl 4","10023",40.7813835144043,-73.98089599609375
"10024","New York","NY","51 West Gym","51 W 106th St Bsmt","10025",40.79899215698242,-73.96150207519531
"10024","New York","NY","Steve Yi Fitness","371 Amsterdam Ave","10024",40.782107,-73.97868000000001
"10024","New York","NY","Gym at the Vaux","372 Central Park W","10025",40.793021692442075,-73.96528860999747
"10024","New York","NY","X 93 Fitness, LLC","673 Amsterdam Ave","10025",40.79202807404827,-73.97190854142404
"10024","New York","NY","Mind Over Matter Heath and Fitness","126 W 96th St","10025",40.793067,-73.968728
"10025","New York","NY","Gym On The Go","Manhattan Ave","10027",40.80392481146722,-73.95838329302796
"10025","New York","NY","Gateway Tower Fitness Center","2098 Frederick Douglass Blvd","10026",40.80271911621094,-73.95622253417969
"10025","New York","NY","Gym","1 Morningside Dr","10025",40.80210712023747,-73.96129720428054
"10025","New York","NY","Big City Volleyball","97th","not_available",40.794762092421195,-73.9687541851705
"10025","New York","NY","Liberated Fitness","1005 Columbus Ave","10025",40.80137,-73.960971
"10025","New York","NY","The Columbia - play room","275 W 96th St","10025",40.795230865478516,-73.97206115722656
"10025","New York","NY","Dan Delivers Fitness","310 West 93rd Street","10025",40.79358,-73.97547
"10025","New York","NY","The Lyric Gym","255 W 94th St","10025",40.79359354186302,-73.9726747680789
"10025","New York","NY","272 Manhattan Avenue gym","272 Manhattan Ave","10026",40.801913,-73.958737
"10025","New York","NY","Park West Village Member Gym","382 Central Park W","10025",40.793556213378906,-73.96566009521484
"10026","New York","NY","Blink Fitness","27 W. 116th Street","10026",40.80145767263983,-73.94761681602881
"10026","New York","NY","New York Sports Clubs","1400 5th Ave","10026",40.80026799294257,-73.94701855704307
"10026","New York","NY","Jae's Gym","276 W 119th St, New York, NY 10026","10026",40.80593490600586,-73.95354461669922
"10026","New York","NY","Pretty Hard Body","108 W 116th St Ste 1A","10026",40.8021206,-73.9505625
"10026","New York","NY","Dekhana Wellness Inc","51 Saint Nicholas Ave Apt 2","10026",40.800462,-73.952854
"10027","New York","NY","Blink Fitness","301 W 125th St","10027",40.81053900386885,-73.95146041913011
"10027","New York","NY","Strivers Gardens Gym","300 W 135th St","10030",40.81667638068392,-73.94769605876681
"10027","New York","NY","Gym @ The Balton","West 127th Street - Ground Floor","10027",40.81189605924731,-73.95093119549304
"10027","New York","NY","The Fit Lab Harlem","224 W 141st St","10030",40.81962,-73.94269399999999
"10027","New York","NY","Douglas Park Gym","not_available","10027",40.812197,-73.950316
"10027","New York","NY","Harlem Holistic Center","115 W 128th St","10027",40.81002990374954,-73.94483887388094
"10027","New York","NY","Element Fitness @ Harlem","124th Street","11356",40.807707894961936,-73.9476436794841
"10027","New York","NY","INSANITY BOOTCAMP","not_available","10026",40.81743011114237,-73.95992157466415
"10027","New York","NY","Arc Athletics","646 W 131st St","10027",40.81843566894531,-73.95951843261719
"10027","New York","NY","Re-Re's Gym","not_available","10031",40.817434656610565,-73.9539577950392
"10027","New York","NY","2002 Fifth Avenue Gym","2002 5th Ave","10035",40.805908203125,-73.94288635253906
"10027","New York","NY","Hariett Tubman Gym","8th Ave.","10027",40.80971567798243,-73.95057689881722
"10027","New York","NY","Manhattan School of Music Workout Room","134 Claremont Ave","10027",40.81273,-73.961178
"10027","New York","NY","CCNY Towers Gym","401 W 130th St, The City College of New York, New York, NY 10027","10027",40.814632415771484,-73.95096588134766
"10027","New York","NY","Keep Moving Fitness","236 W 135th St","10030",40.81570053100586,-73.94506072998047
"10027","New York","NY","Massage Chair @ PF","317 Lenox Ave","not_available",40.80842331830966,-73.94504909223159
"10027","New York","NY","The Little Gym of Harlem","258 Saint Nicholas Ave","10027",40.8093147277832,-73.95265197753906
"10028","New York","NY","Pure Yoga East","203 E 86th St","10028",40.778723478644714,-73.95377186715457
"10028","New York","NY","Crunch","1438 3rd Ave","10028",40.776010084941554,-73.95641908049589
"10028","New York","NY","Equinox East 85th Street","203 E 85th St","10028",40.778000936515156,-73.95414335182961
"10028","New York","NY","Bio Fitness Center","E 84th st","10128",40.776651,-73.953208
"10028","New York","NY","Mile High Run Club - UES","1251 Lexington Ave","10028",40.778612426619915,-73.95625717765851
"10028","New York","NY","SLT E 87","201 E 67th St Fl 4","10065",40.779588143130866,-73.95375186326818
"10028","New York","NY","EVF Performance","1623 York Ave","10028",40.77562494620712,-73.94740183923969
"10028","New York","NY","Big City Volleyball","110 E 88th St","10128",40.781009674072266,-73.95539855957031
"10028","New York","NY","305 Fitness","1440 3rd Ave","10028",40.775943269169765,-73.95604125683425
"10028","New York","NY","Tower Club Gym/Pool","340 E 93rd St","10128",40.781165,-73.94672
"10028","New York","NY","1095 Park Avenue","1095 Park Ave","10128",40.781891658858484,-73.95585448670242
"10028","New York","NY","401 E. 89th Street Gym","401 E 89th St","10128",40.77880278445461,-73.947245976286
"10028","New York","NY","Brearley Field House","353 E 87th St","10128",40.77794663322817,-73.94937814314801
"10028","New York","NY","CorePower Yoga","1253 Lexington Avenue","10028",40.7784805,-73.9561277
"10028","New York","NY","Crossfit UES","not_available","10028",40.77596826794456,-73.94748869405474
"10028","New York","NY","Andover Gym","not_available","10128",40.77776818,-73.94646875
"10028","New York","NY","RIPPED Fitness","1432 2nd Ave","10021",40.77043348084257,-73.95712589824171
"10028","New York","NY","Concrete Jungle 2.0","1690 2nd Ave","10128",40.778648376464844,-73.95085144042969
"10028","New York","NY","ABC Wii Rec Center","E 81st St","10028",40.77540115,-73.955456
"10029","New York","NY","92nd Street Y","1395 Lexington Ave","10128",40.78307716230362,-73.95277200725201
"10029","New York","NY","Club Normandie","225 E 95th St","10128",40.784920890143646,-73.94853276492782
"10029","New York","NY","One Carnegie Hill Health Club","215 E 96th St","10128",40.78508311450944,-73.94809288449594
"10029","New York","NY","Simple Body Training","not_available","10035",40.79832,-73.93906
"10029","New York","NY","Revolutionary Fitness","1637 Park Ave","10029",40.79896545410156,-73.94317626953125
"10029","New York","NY","ChaiseFitness","1395 Lexington Ave Lowr Level","10128",40.78306516804938,-73.95264774585988
"10029","New York","NY","Mirada Gym","161 E 110th St","10029",40.794613,-73.943427
"10029","New York","NY","Crossfit Concrete Jungle","309 E 94th St","10128",40.782758706068456,-73.94729157655303
"10029","New York","NY","The Little Gym of the Upper East Side","207 E 94th St","10128",40.783731,-73.949344
"10029","New York","NY","1510 Gym","1510 Lexington Ave","10029",40.78694544974976,-73.95080686188713
"10029","New York","NY","Insanity Gym","218 E 118th St, New York, NY 10035","10035",40.79866027832031,-73.93824768066406
"10029","New York","NY","Make It Personal Bootcamp","not_available","10029",40.7951633805655,-73.95267776828368
"10029","New York","NY","ISH Yoga","155 E 105TH ST, 2ND FLOOR","10029",40.791604,-73.9462345
"10029","New York","NY","Union Settlement","237 E 104th St","10029",40.78955892782194,-73.94417838101656
"10029","New York","NY","Embelesar 118 Gym","152 E 118th St","10035",40.79933629037157,-73.94031385088944
"10029","New York","NY","1760 Basement Gym","1760 3rd Ave","10029",40.786109924316406,-73.94892883300781
"10029","New York","NY","Crossfit Metropolis","156 E 100th St","10029",40.78820597637237,-73.94869510882322
"10029","New York","NY","Gym @ The Parkview","108 E 96th St","10128",40.7860107421875,-73.95207977294922
"10029","New York","NY","Monterey Swim and Health Club","175 E 96th St","10128",40.78551197191574,-73.94992340484116
"10029","New York","NY","119th & Third Gym","181 E 119th St","10035",40.80033604069565,-73.93850815005871
"10029","New York","NY","165 Gym","165 East 118th street","10035",40.79979705810547,-73.939453125
"10029","New York","NY","Bally's Total Fitness","1915 3rd Ave","10029",40.7909801092395,-73.9431564769077
"10030","New York","NY","New York Sports Clubs","303 W 145th St","10039",40.82313942156929,-73.94206338445656
"10030","New York","NY","Beacon Mews Sportscenter","34 W 139th St","10037",40.815567846199556,-73.93737419138682
"10030","New York","NY","Robert Kennedy Community Center","34 W 134th St","10037",40.8129494352426,-73.93981771685891
"10031","New York","NY","Riverbank State Park Athletics","not_available","10032",40.826267230356784,-73.95609880737962
"10031","New York","NY","The Gym @ Ellington On The Park","not_available","10039",40.82525524877591,-73.94089134843102
"10031","New York","NY","The Gym","The Heights","not_available",40.834339,-73.94521
"10031","New York","NY","NYC Fitness","3552 Broadway Fl 2","10031",40.826827314380814,-73.9499844420922
"10031","New York","NY","604 Gym","604 Riverside Dr","10031",40.82258987426758,-73.95559692382812
"10032","New York","NY","Blink Fitness","4200 Broadway, Suite 1.3","10033",40.848562,-73.936941
"10032","New York","NY","J Hood Wright Recreation Center","175th Street","10032",40.848321591923686,-73.94069526484999
"10032","New York","NY","Bard Hall Gym","50 Haven Ave","10032",40.84187695246908,-73.94181154961517
"10032","New York","NY","Sweat & Pain Gym","West 174th Street","10033",40.84376521264976,-73.93498420715332
"10032","New York","NY","Insanity","503 W 170th St","10032",40.8415,-73.936449
"10032","New York","NY","The Grinnell Gym","800 Riverside Dr","10032",40.834771,-73.945975
"10032","New York","NY","Insanity","not_available","10033",40.84578616771835,-73.94291943820092
"10033","New York","NY","Lucille Roberts","1387 Saint Nicholas Ave","10033",40.848487133551245,-73.93463619433982
"10033","New York","NY","YM & YWHA","54 Nagle Ave","10040",40.85994908287512,-73.9293349281792
"10033","New York","NY","Castle Village Gym","160 Cabrini Blvd","10033",40.85332107543945,-73.93975067138672
"10033","New York","NY","Studio In The Heights","500 Fort Washington Ave","10033",40.851797999999995,-73.937596
"10033","New York","NY","Booty by Rudi","205 Pinehurst Avenue 3L","10033",40.8548439,-73.9378676
"10033","New York","NY","187 Fitness","4470 Broadway","10040",40.85710144042969,-73.93222045898438
"10033","New York","NY","Bogardus Exclusive Gym","1 Bogardus Pl, New York, NY 10040","10040",40.8588981628418,-73.92926025390625
"10033","New York","NY","66 Overlook Gym","66 Overlook Ter","10040",40.855127,-73.935497
"10033","New York","NY","Max Stern Gym at YU","500 W 185th St","10033",40.85057830810547,-73.92986297607422
"10034","New York","NY","Treadmill","1730 Andrews Ave","10453",40.85000228881836,-73.91735076904297
"10034","New York","NY","207 ST Fitness Club","3961 10th Ave","10034",40.86725997924805,-73.91668701171875
"10034","New York","NY","The Gym","200 Dyckman St, New York, NY 10040","10040",40.86478805541992,-73.92721557617188
"10034","New York","NY","Alumni Gymnasium - CUNY Bronx Community College","2155 Dr Martin L King Jr Blvd","10453",40.85668339161032,-73.91125482743519
"10034","New York","NY","Inwood Boxing Association","651 Academy St","10034",40.866135,-73.924524
"10035","New York","NY","CL Tower","203 E 121st St","10035",40.801102159284085,-73.93719518622376
"10035","New York","NY","Loft 1","526 E 138th St","10454",40.807026,-73.918665
"10035","New York","NY","Millrock Plaza Gym","345 E 93rd St","10128",40.781804,-73.946187
"10035","New York","NY","Shore Towers Gym","not_available","11102",40.795350449077105,-73.92547950376793
"10035","New York","NY","Chesapeake Residents Fitness Center","345 E 94th St","10128",40.78242214718059,-73.94574940460886
"10035","New York","NY","NYCPM Gym","53 E 124th St","10035",40.80500411987305,-73.94032287597656
"10035","New York","NY","Gym On The Go","Lexington Ave","10035",40.8062457740778,-73.93578406544992
"10035","New York","NY","Women's World of Boxing","2147 2nd Avenue","10029",40.793549,-73.940495
"10035","New York","NY","RFK Bronx Gym","Randall's Island","10035",40.795872267790095,-73.9216675384581
"10035","New York","NY","MK Athletic Club","263 Pleasant Ave","10029",40.79397201538086,-73.93423461914062
"10036","New York","NY","Gym at The Claridge’s","101 W 55th St","10019",40.76347732543945,-73.97821807861328
"10036","New York","NY","Ogilvy Fitness","636 11th Ave","10036",40.763460561220136,-73.99629149162
"10037","New York","NY","Lt Joseph P Kennedy Jr Community Center Gym","34 West 134th Street","not_available",40.81260785559189,-73.93969908127347
"10037","New York","NY","Harlem CrossFit","not_available","10037",40.81719356788495,-73.93513753753648
"10038","New York","NY","Chinatown Sports Club","225 Park Row","10038",40.71346361482596,-73.99868667811342
"10038","New York","NY","Just Train","6 Maiden Ln","10038",40.70947002162219,-74.00983963357307
"10038","New York","NY","254 Front Street Fitness Center","254 Front St","10038",40.70839309692383,-74.00074768066406
"10039","New York","NY","Gauchos Gym","478 Gerard Ave","10451",40.81827008416447,-73.92953596949266
"10044","New York","NY","Manhattan Park Gym #4","40 River Rd","10044",40.76616083413673,-73.94596979621014
"10044","New York","NY","Roosevelt Island Racquet Club","281 Main St","10044",40.75700859851768,-73.9553264149013
"10044","New York","NY","Riverwalk gym","415 Main St","10044",40.758234318336136,-73.95366492893776
"10044","New York","NY","Riverwalk Gym (455)","455 Main St","10044",40.759240999999996,-73.95251999999999
"10044","New York","NY","Pop Physique","355 E 62nd St","10065",40.761917,-73.961057
"10044","New York","NY","Rooftop Gym","not_available","11101",40.751913220476546,-73.9400603970903
"10044","New York","NY","315 E. 68th St.  Fitness Club","315 E 68th St","10065",40.766231536865234,-73.95956420898438
"10044","New York","NY","Remorca Fitness","171 East 74th Street, Suite 1-4","10021",40.771396101000754,-73.96033119539194
"10044","New York","NY","Scholar's Residence Gym","504 E 63rd St","10065",40.76061,-73.957473
"10044","New York","NY","Octagon Gym","888 Main St","10044",40.76856098184305,-73.94421090514523
"10044","New York","NY","Pavilion Fitness Center","500 E 77th St","10162",40.76945166190846,-73.95031285347737
"10044","New York","NY","Manhattan Park Gym","20 River Rd","10044",40.76591047366576,-73.94664073849377
"10044","New York","NY","Royal York Fitness Center","64th Street","10065",40.76175632339524,-73.95909638734676
"10065","New York","NY","Eastside kinesthetic Center","133 E 55th St","10022",40.759879999999995,-73.97021600000001
"10065","New York","NY","Tasha Ingram Fitness","139 E 57th St","10022",40.76100158691406,-73.96868896484375
"10065","New York","NY","Crunch Fitness - 66th Street","1131 3rd Avenue","10065",40.76623463,-73.96282276
"10069","New York","NY","La Palestra at the Aldyn","400 W 63rd St","10069",40.774517352832156,-73.99066389105948
"10069","New York","NY","Caliber Sports Club","66th","not_available",40.77895773625028,-73.98849808812169
"10069","New York","NY","33 WEA Gym","33 W End Ave","10023",40.77343583598292,-73.99016188299578
"10069","New York","NY","Element Fitness Center","555 W 59th St","10019",40.77165603637695,-73.98959350585938
"10069","New York","NY","160 RSB Fitness Center","160 Riverside Blvd","10069",40.777438206151785,-73.98836689600915
"10069","New York","NY","200 Riverside Blvd Spa/Gym","200 Riverside Blvd","10069",40.779012,-73.98771500000001
"10069","New York","NY","63 West Gym","W 64th Street","10023",40.77390567639826,-73.98794162681638
"10069","New York","NY","Avery Fitness Center","100 Riverside Blvd","10069",40.77570343017578,-73.98948669433594
"10069","New York","NY","Caliber","101 W End Ave","10023",40.774974381932815,-73.98782662608579
"10069","New York","NY","242 West 61st Street Gym","242 W 61st St","10023",40.772353,-73.988885
"10075","New York","NY","Avonova Fitness Center","219 E 81st St","10028",40.77547073364258,-73.95536041259766
"10075","New York","NY","180 Gym","180 E 79th St","10075",40.77424621582031,-73.95793914794922
"10075","New York","NY","Jodi's Gym","244 E 84th St","10028",40.776673391852924,-73.953031243875
"10075","New York","NY","The Mario's Gym","451 E 83rd St","10028",40.77431106567383,-73.94898223876953
"10075","New York","NY","Carlyle Gym","not_available","10075",40.774323,-73.962815
"10075","New York","NY","Fitness Room at The Dunhill","401 E 84th St","10028",40.77556228637695,-73.94991302490234
"10075","New York","NY","Gym @ Wellington Tower","350 E 82nd St","10028",40.77423686505074,-73.95172119140625
"10075","New York","NY","Uptown Gym Team","E200 82","10028",40.775677109309974,-73.95531817292168
"10075","New York","NY","Moving Strength TRX/Pilates Studio","349 E 82nd St, New York, NY 10028","10028",40.774547019372655,-73.95186601526352
"10075","New York","NY","Boaz Fitness","128 E 72nd St","10021",40.770433000000004,-73.962888
"10103","New York","NY","Ballet Class","not_available","10019",40.7614543695869,-73.97676151192863
"10103","New York","NY","Museum Towers Gym","15 W 53rd St Fl 8","10019",40.76115583664135,-73.97756524403752
"10110","New York","NY","Pilates on Fifth","501 5th Ave Rm 2200","10017",40.753564089302046,-73.98057103157043
"10110","New York","NY","Penn Club Palestra Fitness Center","30 W 44th St","10036",40.755279541015625,-73.98172760009766
"10119","New York","NY","Body + Mind NYC","251 W 30th St #9FW","10001",40.74946483978135,-73.99303183011946
"10119","New York","NY","Penn South Gym","9 Avenue A","10009",40.75054340922518,-73.99428289448876
"10128","New York","NY","Equinox East 92nd Street","203 East 92nd Street","10128",40.7825,-73.95058
"10128","New York","NY","Asphalt Green","555 E 90th St","10128",40.779061977935854,-73.9440952293109
"10128","New York","NY","Synergy Fitness Clubs","1781 2nd Ave.","10128",40.78234716485186,-73.94870988344918
"10153","New York","NY","Gym","not_available","10153",40.76316572534213,-73.97262340885295
"10154","New York","NY","gym source","40E 52nd Street","10022",40.758185650749226,-73.97344988870044
"10165","New York","NY","Lucille Roberts","50 E 42nd St","10017",40.7524656,-73.9789419
"10165","New York","NY","Ildi Pekar Skin Care","315 Madison Ave Rm 2600","10017",40.752421000000005,-73.979112
"10170","New York","NY","Method Fitness","132 E 43rd St #443","10017",40.75170135498047,-73.9748306274414
"10170","New York","NY","MetLife 200 Park","200 Park Ave Fl 3","10166",40.753649,-73.976656
"10170","New York","NY","Trump World Tower Gym","not_available","10017",40.75236243536285,-73.97612444499029
"10171","New York","NY","Intercontinental Barclay New York Fitness Center","111 E 48th St, New York, NY 10017","10017",40.755550384521484,-73.97364044189453
"10173","New York","NY","Cornell Club NY Fitness Center","6 E 44th St","10017",40.754339951118546,-73.9791031452449
"10199","New York","NY","Olivia Rooftop Gym","315 W 33rd St Fl 36","10001",40.752221266162316,-73.99461676409634
"10271","New York","NY","[solidcore]","20 Pine St","10005",40.707725524902344,-74.00984954833984
"10278","New York","NY","ICE Gym @ Federal Building","26 Federal Plaza, 5th Floot","10278",40.715717316441236,-74.0048133189984
"10278","New York","NY","Saranac Gym","95 Worth St","10013",40.71615219116211,-74.0037612915039
"10279","New York","NY","Gym @ Barclay Tower","10 Barclay St","10007",40.71236,-74.009429
"10280","New York","NY","The Club at Gateway","375 S End Ave","10280",40.711349545118146,-74.0178961185848
"10280","New York","NY","200 Rector Club","200 Rector Place","not_available",40.708509,-74.016447
"10280","New York","NY","The Gym At Soundings","280 Rector Pl Fl 2","10280",40.70858383178711,-74.0166015625
"10280","New York","NY","Millennium Tower Gym","30 West St","10004",40.706025054005224,-74.01660969311916
"10280","New York","NY","Amex Gym","not_available","10281",40.714054,-74.014463
"10280","New York","NY","Gym @ Ritz","West St.","10280",40.7052211229818,-74.01730561050853
"10280","New York","NY","Gym @ Hudson Tower","not_available","10280",40.710231,-74.017948
"10280","New York","NY","75 West Street Gym","110 Washington And 75 West","10006",40.70924682080935,-74.01465480418481
"10280","New York","NY","Gym@marriot","Marriot","10280",40.71160572694045,-74.01468901072462
"10282","New York","NY","Solaire Fitness Center","not_available","10282",40.716678717169856,-74.01623128803637
"10282","New York","NY","Asphalt Green","212 N End Ave","10282",40.716035466649885,-74.01481525101102
"10282","New York","NY","22 River Terrace Gym","22 River Ter","10282",40.71720969207093,-74.0152927100357
"10282","New York","NY","Gym @ Verdesian","211 N End Ave","10282",40.716132590223566,-74.01459106559241
"10282","New York","NY","Liberty Luxe Gym","200 N End Ave","10282",40.71598491463425,-74.01437634622152
"10282","New York","NY","Gym @ St. John's","101 Murray St","10007",40.71544647216797,-74.01262664794922
"10282","New York","NY","Tribeca Green Gym","North End Ave","10282",40.716842841635966,-74.01460040617347
"10282","New York","NY","River & Warren Gym","212 Warren St","10282",40.717273,-74.015828
"10282","New York","NY","Health Club","450 N End Ave","10282",40.717132568359375,-74.01376342773438
"10282","New York","NY","Liberty Green Gym","300 N End Ave","10282",40.71645702793296,-74.01409655561106
"10301","Staten Island","NY","Crunch Fitness","364 Bay Street","10301",40.63372313,-74.07620268
"10301","Staten Island","NY","Dolphin Fitness Club","2071 Clove Rd.","10304",40.60535077101491,-74.082943113109
"10301","Staten Island","NY","Zumba","27 Hudson Street","not_available",40.62485012,-74.08172504
"10301","Staten Island","NY","BSP Training","1071 Targee St","10304",40.60194778442383,-74.09110260009766
"10301","Staten Island","NY","Fitness Center @ The Hamilton","36 Hamilton Ave.","10301",40.64485549926758,-74.07878112792969
"10301","Staten Island","NY","Y.M.C.A. North Shore","not_available","10310",40.62485570338642,-74.11419768587496
"10301","Staten Island","NY","Zumba With Gina","Hills North Club House North Dr","10305",40.602845,-74.07139
"10301","Staten Island","NY","Prime Function Fitness","861 Castleton Ave","10310",40.63495007327215,-74.11102036901973
"10301","Staten Island","NY","Staten Island YMCA Broadway Branch","651 Broadway","10310",40.625047015382,-74.1138324913528
"10301","Staten Island","NY","BSL Gym","34 Bay Street Landing","10301",40.63796615600586,-74.07469940185547
"10301","Staten Island","NY","YMCA","663 Broadway","10310",40.624666,-74.113833
"10301","Staten Island","NY","Dolphin Fitness Clubs","400 Victory Blvd","10301",40.63240611327179,-74.0869948918307
"10301","Staten Island","NY","P90X","not_available","10301",40.613993,-74.108678
"10301","Staten Island","NY","Spiro Sports Center Gym","1 Campus Road","10301",40.61546970936131,-74.09545280191739
"10302","Staten Island","NY","LA Fitness","1565 Forest Ave","10302",40.62504927804894,-74.13927625287252
"10302","Staten Island","NY","CKO Kickboxing Westerleigh","1267 Forest Avenue","10302",40.62671051383335,-74.13176819384489
"10302","Staten Island","NY","cko kickboxing","Forest Ave","10302",40.626307707810746,-74.13169417591995
"10302","Staten Island","NY","Lioness's Gym","not_available","10302",40.62910101622177,-74.14082996948376
"10302","Staten Island","NY","P.I. Fitness","1595 Forest Ave","10302",40.624845,-74.141639
"10303","Staten Island","NY","Grissy's Gym","My Livingroom","10314",40.61896392723585,-74.1644712527654
"10303","Staten Island","NY","P90x","not_available","10314",40.61472252644918,-74.1770905570307
"10304","Staten Island","NY","B.B.X. Kickboxing","1300 Hylan Blvd","10305",40.596492767333984,-74.08497619628906
"10304","Staten Island","NY","D-Fine Yourself","not_available","10305",40.58781425512576,-74.09127277060352
"10304","Staten Island","NY","Inspirations In Dance LLC","1698 Victory Boulevard","10314",40.6130994,-74.12025059999999
"10304","Staten Island","NY","Results Fitness","1749 Victory Blvd","10314",40.613229641124995,-74.12175650124557
"10304","Staten Island","NY","Now Its Cardio Time","not_available","10306",40.579634,-74.093368
"10304","Staten Island","NY","Believe Fitness","2112 Richmond Rd.","10306",40.581335391493184,-74.11168539233284
"10304","Staten Island","NY","Dento Teki Na Judo & Jujitsu Dojo","1669 Richmond Rd","10304",40.5892282,-74.1019395
"10304","Staten Island","NY","Recliner Workout","Dongan Hills Ave","10305",40.58166432674381,-74.0885728597641
"10305","Staten Island","NY","US Coast Guard Gym","204 Maloney Dr","10305",40.60397490021017,-74.06280317218558
"10306","Staten Island","NY","LA Fitness","3231 Richmond Ave","10312",40.55986667454659,-74.16727596254569
"10306","Staten Island","NY","Retro Fitness","2590 Hylan Blvd","10306",40.56789100324659,-74.11062136480751
"10306","Staten Island","NY","Unbeaten Crossfit","2271 Hylan Boulevard","10306",40.575709,-74.105202
"10306","Staten Island","NY","Evolve-33","58 New Dorp Plz S","10306",40.5732839,-74.11696490000001
"10306","Staten Island","NY","Insanity","Dig Deeper!!!","10306",40.5596789151891,-74.14474076476306
"10306","Staten Island","NY","Retro Fitness","2385 Richmond Ave","10314",40.58956413498796,-74.16565396441183
"10306","Staten Island","NY","MRG Fitness Inc.","31 First street","10306",40.57502718162267,-74.12065744400024
"10306","Staten Island","NY","Brooklyn Gym Dance","174 Suffolk Ave","10314",40.601314544677734,-74.12789154052734
"10306","Staten Island","NY","New Dorp Fitness","231 New Dorp lane","not_available",40.573496,-74.115972
"10306","Staten Island","NY","Try Hard Fitness","2381 Hylan Blvd Ste 3","10306",40.573116302490234,-74.10758209228516
"10306","Staten Island","NY","Intoxx Fitness","3295 Amboy Rd","10306",40.561156,-74.13570899999999
"10306","Staten Island","NY","GBRC-Greenbelt Recreation Center","501 Brielle Ave","10314",40.59189454799448,-74.13875411816379
"10306","Staten Island","NY","Dolphin Fitness","3295 Amboy Rd #5","10306",40.5610091784629,-74.13580193969985
"10306","Staten Island","NY","Nautilus Women Fitness And Aerobic Center","2795 Richmond Ave","10314",40.5768549051716,-74.16678762731426
"10306","Staten Island","NY","BaseMent Gym","239 st Andrews road","10306",40.57375924415039,-74.142459897215
"10306","Staten Island","NY","Tiger Schulmann's Mixed Martial Arts","363 New Drop Lane","10306",40.57101420670398,-74.11042263219477
"10306","Staten Island","NY","Tiger Schulmann's Mixed Martial Arts","2955 Veterans Road West","10309",40.569475419698676,-74.10973907262783
"10306","Staten Island","NY","Wowy","not_available","10312",40.55199606132077,-74.1646833971803
"10306","Staten Island","NY","Transformation Fitness Studio","151 Richmond Hill Rd","10314",40.586705,-74.16331
"10307","Staten Island","NY","Intoxx Fitness","236 Richmond Valley Rd","10309",40.52072827749458,-74.23631864348867
"10307","Staten Island","NY","Casa De Victor","not_available","10307",40.50407,-74.246707
"10307","Staten Island","NY","Only-The-Stromg-Gym","Harbortown Blvd, Perth Amboy, NJ 08861","08861",40.51750562414682,-74.2509830432028
"10308","Staten Island","NY","YMCA","3939 Richmond Ave","10312",40.54245303385158,-74.16304289619244
"10309","Staten Island","NY","Retro Fitness","2965 Veterans Rd W","10309",40.5274284,-74.2339189
"10309","Staten Island","NY","CrossFit 103","not_available","10309",40.537494,-74.240939
"10309","Staten Island","NY","Atlas Gym","2298 Arthur Kill Rd","10309",40.555885314941406,-74.21255493164062
"10309","Staten Island","NY","Frequency Elite","505 Sharrotts Rd","10309",40.538340000000005,-74.23557199999999
"10309","Staten Island","NY","Planet Fitness","Veterans Road Nature Preserve, 1948-2438 Veterans Rd W","10309",40.53372792112514,-74.22466464664552
"10309","Staten Island","NY","Endure Cycling Studios","95 Page Ave","10309",40.52190631788164,-74.23502683639526
"10309","Staten Island","NY","Orangetheory Fitness","1275 Woodrow Rd","10309",40.5421456,-74.2074313
"10309","Staten Island","NY","Nxt Level","Industrial loop","not_available",40.548906918023455,-74.22066382830232
"10309","Staten Island","NY","The MAX Challenge of Staten Island Woodrow","971 Rossville Ave","10309",40.550750732421875,-74.21070098876953
"10309","Staten Island","NY","Frequency fitness studios","Arthur Kill road","10306",40.52249058346336,-74.23871267541773
"10309","Staten Island","NY","DeMarco's Boxing & Fitness","4916 Arthur Kill Rd","10309",40.52216339111328,-74.23899841308594
"10309","Staten Island","NY","Curves","2361 Hylan Blvd","10306",40.54681994504434,-74.22918810310263
"10309","Staten Island","NY","The Squat Academy","125D Industrial Loop","10309",40.549389,-74.230133
"10309","Staten Island","NY","Captains Quarters","Admiralty loop","10309",40.51351744850511,-74.20200591632097
"10312","Staten Island","NY","Staten Island Judo Jujitsu Dojo","885 Annadale Rd Ste 2","10312",40.5399924,-74.17673359999999
"10312","Staten Island","NY","United Health and Fitness","4569 Amboy Rd, Staten Island, NY 10312","10312",40.54253387451172,-74.16539764404297
"10314","Staten Island","NY","LA Fitness","145 E Service Rd","10314",40.588187618192954,-74.19180726782817
"10314","Staten Island","NY","New York Sports Club","300 W Service Rd","10314",40.5861688,-74.1935239
"10314","Staten Island","NY","Gym","Quinlan ave","not_available",40.6085044144175,-74.15350821736597
"10314","Staten Island","NY","Staten Island Crossfit","3801 Victory Blvd","10314",40.59708162854936,-74.1826428966589
"10451","Bronx","NY","Blink Fitness","570 Melrose Avenue","10455",40.81686134124006,-73.91716695615901
"10451","Bronx","NY","Blink Fitness","744 Saint Anns Ave","10456",40.819348335992856,-73.91037296422388
"10451","Bronx","NY","Blink Fitness","820 Concourse Village West","10451",40.82518468543064,-73.92182500042247
"10451","Bronx","NY","Blink Fitness","744 St. Ann's Ave","10456",40.81947,-73.910522
"10451","Bronx","NY","St. Mary's Recreation Center","450 St Ann's","10455",40.811661764358675,-73.91412194723074
"10451","Bronx","NY","CrossFit Equis","655 Morris Ave","10451",40.81998062133789,-73.92214965820312
"10452","Bronx","NY","Blink Fitness","1490 Macombs Rd","10452",40.8427296432417,-73.91766041116853
"10452","Bronx","NY","Retro Fitness","1231 Edward L Grant Highway","10452",40.83664560175845,-73.92268259017965
"10452","Bronx","NY","A E S T H E T I X","1370 Dr Martin L King Jr Blvd","10452",40.842308044433594,-73.92574310302734
"10452","Bronx","NY","Volleyball @ Jesup","not_available","10452",40.844159,-73.9189875125885
"10453","Bronx","NY","BMK Fitness & Personal Coaching","not_available","10468",40.860095,-73.899967
"10454","Bronx","NY","CrossFit SoBro (South Bronx)","229 Bruckner Blvd","10454",40.807106109371404,-73.91147735194403
"10454","Bronx","NY","The Bronx Box","322 Jackson Ave","10454",40.807089517104146,-73.91152774392162
"10456","Bronx","NY","Retro Fitness","3524 3rd Ave","10456",40.831190278136276,-73.9053954815626
"10456","Bronx","NY","Blink Fitness","1421 Webster Ave","10456",40.8369853,-73.9074503
"10457","Bronx","NY","DIva Sweatbox","not_available","10458",40.854759216308594,-73.887451171875
"10457","Bronx","NY","willpower fitness studio","480 E 176th St","10457",40.84561,-73.898286
"10457","Bronx","NY","Blink Fitness","645 E. Tremont Avenue","10457",40.8459605,-73.8918944
"10458","Bronx","NY","Lucille Roberts","2449 Morris Ave","10468",40.8621123,-73.8998182
"10458","Bronx","NY","APEX - Lehman College","250 Bedford Park Blvd W","10468",40.87484924787048,-73.89329612833
"10458","Bronx","NY","Blink Fitness","3000 Jerome Ave","10468",40.873893,-73.888768
"10458","Bronx","NY","The Wolverine Cage","75 Bronx Science Blvd","10468",40.87715148925781,-73.88970947265625
"10458","Bronx","NY","Gears Fitness","Decatur Ave","10458",40.86902041116445,-73.88222515583038
"10458","Bronx","NY","Blink Fitness","2374 Grand Concourse","10458",40.859372930737685,-73.89831584006254
"10458","Bronx","NY","Urban Total Fitness","2382 Grand Concourse","10458",40.85951614379883,-73.8983383178711
"10458","Bronx","NY","Worldwide Boxing Gym","3134 Jerome Ave","10468",40.875631,-73.887989
"10459","Bronx","NY","Blink Fitness","932 Southern Blvd","10459",40.820086205590364,-73.89192333817783
"10459","Bronx","NY","Daro's Extreme Gym","1123 Close Ave","10472",40.82566103298058,-73.88261374008187
"10459","Bronx","NY","Home gym","not_available","10474",40.8185448,-73.8917558
"10460","Bronx","NY","Morris Park Boxing Club","644 Morris Park Ave","10460",40.8447579601799,-73.86804163032826
"10460","Bronx","NY","Iglesias MMA Academy","611 Morris Park Ave","10460",40.844413,-73.869339
"10460","Bronx","NY","Eric's Door","not_available","10460",40.837221,-73.8643825
"10460","Bronx","NY","boot camp","not_available","10472",40.83361913223835,-73.86530031202312
"10461","Bronx","NY","Bronx House Fitness","990 Pelham Pkwy S","10461",40.85671688449596,-73.86075784360689
"10461","Bronx","NY","Star Fitness","1385 Commerce Ave","10461",40.838018684178934,-73.8413951857843
"10461","Bronx","NY","Blink Fitness","1380 Metropolitan Ave","10462",40.83532458554998,-73.86074223576577
"10461","Bronx","NY","iLoveKickboxing","2007 Colonial Avenue","10461",40.8528708,-73.8280849
"10461","Bronx","NY","LA Fitness","1776 Eastchester Rd","10461",40.84973909541106,-73.84194912982557
"10461","Bronx","NY","New York Sports Clubs","1601 Bronxdale Ave","10462",40.8433776,-73.8568947
"10461","Bronx","NY","Dolphin Fitness","2030 Eastchester Rd","10461",40.85394190070912,-73.843595864553
"10461","Bronx","NY","NEXT LEVEL Personal Training","1624 Bronxdale Ave","10463",40.844344,-73.857628
"10461","Bronx","NY","J.E.T. Medical Plaza","1942 Williamsbridge Rd","10461",40.853395,-73.85332199999999
"10461","Bronx","NY","Dolphins Gym","not_available","10461",40.85136532966116,-73.84885849110758
"10461","Bronx","NY","fit body boot camp","3277 E Tremont Ave, Bronx, NY 10461","10461",40.835792541503906,-73.83271026611328
"10461","Bronx","NY","Rasper's Sporting Gym","not_available","10462",40.83855438232422,-73.8586654663086
"10461","Bronx","NY","Powerhouse Gym","1626 Bronxdale Avenue, Bronx, NY","10462",40.84449292689471,-73.85773849032874
"10461","Bronx","NY","Aaron Davis Boxing Gym","1446 Commerce Ave","10461",40.839618,-73.842362
"10461","Bronx","NY","Thin Is In","3190 Westchester Ave","10461",40.851304999999996,-73.82959699999999
"10461","Bronx","NY","Falk Recreation Center","1301 Eastchester Rd","10461",40.85210353038649,-73.8448602927656
"10461","Bronx","NY","Mr. Americas Personal Training","1603 Williamsbridge Rd","10461",40.84708,-73.84940999999999
"10461","Bronx","NY","Miranda's Auto Repair","2631 Fink Ave","10461",40.841568,-73.842205
"10461","Bronx","NY","Bronx Spartan Gym","not_available","10469",40.859607,-73.840534
"10461","Bronx","NY","FinerStudio","1710 Bronxdale Ave Apt 2E","10462",40.845791,-73.858552
"10462","Bronx","NY","Daro's Extreme Fitness","1207 White Plains Rd","10472",40.830754999999996,-73.8621
"10463","Bronx","NY","3210 Riverdale Avenue - Wellness Center & Gym","3210 Riverdale Ave","10463",40.88274556055887,-73.90762471971445
"10463","Bronx","NY","Build N Box","5625 Broadway","10463",40.87984709875546,-73.90430205886244
"10463","Bronx","NY","Blink Fitness","5520 Broadway","10463",40.877271495944626,-73.90559491338075
"10463","Bronx","NY","Astral Fitness & Wellness Center","5500 Broadway","10463",40.87670526507199,-73.90637207670373
"10463","Bronx","NY","Hayden On Hudson Gym","Douglas Avenue","not_available",40.889593,-73.917446
"10463","Bronx","NY","Amalgamated Gym - by the City Steps","120 Gale Pl","10463",40.88495635986328,-73.8934555053711
"10463","Bronx","NY","Next Move Gym","235","10463",40.88566029,-73.91187301
"10463","Bronx","NY","TCR The Club of Riverdale","2600 Netherland Ave","10463",40.8786283,-73.9145678
"10463","Bronx","NY","Amalgamated Gym","not_available","10471",40.884199190650314,-73.89893197760058
"10463","Bronx","NY","MC Fitness","4513 Manhattan College Pkwy","10471",40.890450054272655,-73.90186429023743
"10463","Bronx","NY","The Waterford Gym","3816 Waldo Ave","10463",40.88742446899414,-73.90339660644531
"10463","Bronx","NY","Home Gym","not_available","10463",40.885101044696135,-73.89298929172074
"10463","Bronx","NY","Workout Room @ The Bentley","3880 Orloff Ave","10463",40.88446077550884,-73.89554858786651
"10463","Bronx","NY","The Arbor Gym","3260 Henry Hudson Pkwy","10463",40.88568878173828,-73.91243743896484
"10463","Bronx","NY","Crossfit Riverdale","130 Gale Pl","10463",40.884959,-73.893532
"10464","Bronx","NY","Insanity Fitness Center","Stadium Avenue","10465",40.843634,-73.82009
"10464","Bronx","NY","Eugene 's Gym","135 Einstein Loop, Bronx, NY 10475","10475",40.86431884765625,-73.82234954833984
"10464","Bronx","NY","NYAC Travers Island Fitness Center","31 Shore Rd","10803",40.88462829589844,-73.79370880126953
"10464","Bronx","NY","Gym Dandy","1415 Pelhamdale Ave, Pelham, NY 10803","10803",40.88789367675781,-73.7918930053711
"10465","Bronx","NY","NYSMMA PUMP LAB 2.0","not_available","10465",40.808494,-73.796925
"10465","Bronx","NY","Treadmill and texting","133D Edgewater Park","10465",40.82309341430664,-73.81147003173828
"10465","Bronx","NY","SUNY Maritime Weight Room","6 Pennyfield Ave","10465",40.80965805053711,-73.80186462402344
"10465","Bronx","NY","Temple Fitness Personal Training Studio","837 Logan Ave","10465",40.82983068903419,-73.82271989280379
"10465","Bronx","NY","ASL Sports","190 Hollywood ave Suite A","10465",40.81583023071289,-73.8134994506836
"10466","Bronx","NY","MD1 Gym","640 S Fulton Ave","not_available",40.896993,-73.825661
"10466","Bronx","NY","Community Fitness","691 CO Op City Blvd","10475",40.88005458795726,-73.82602833097476
"10467","Bronx","NY","Crunch","3170 Webster Avenue","10467",40.8726353,-73.87484719999999
"10467","Bronx","NY","Blink Fitness","3580 White Plains Rd","10467",40.878889,-73.865096
"10467","Bronx","NY","Bronx Martial Arts Academy","1051 Allerton Ave","10469",40.865721,-73.857529
"10467","Bronx","NY","375th Street Y","not_available","10704",40.87322097792864,-73.87145630884423
"10467","Bronx","NY","Soma Health Club","368 E Gun Hill Rd","10467",40.878626647792125,-73.87232191797133
"10468","Bronx","NY","Blink Fitness","1 W Fordham Rd","10468",40.863295,-73.901123
"10469","Bronx","NY","Strong Bodies Gym","3384 Boston Rd","10469",40.874882,-73.851063
"10471","Bronx","NY","SkyClub Gym","5701 Arlington Ave","10471",40.908909669848406,-73.90575647864802
"10471","Bronx","NY","Caryl Fit Gym","Yonkers, NY","10701",40.910944434504486,-73.89327064034686
"10471","Bronx","NY","Yonkers Parks & Rec. YPS 13 Open Gym","not_available","10705",40.91367034286184,-73.89064087616383
"10471","Bronx","NY","Medina Fitness Studio","5912 Riverdale Ave","10471",40.907253000000004,-73.903666
"10471","Bronx","NY","E3Sports","5250 Fieldston Rd","10471",40.8984375,-73.9006118774414
"10473","Bronx","NY","43 Precinct Gym","900 Fteley Ave","10473",40.82315444946289,-73.8697280883789
"10474","Bronx","NY","Infrared Sauna New York","1123 Worthen St","10474",40.81422,-73.89381800000001
"10475","Bronx","NY","Gym-bldg27","not_available","10475",40.86350389283524,-73.8252242017833
"10501","Amawalk","NY","The Tri Lab","5-99 James Way","10527",41.307322866666674,-73.74905356666666
"10502","Ardsley","NY","New York Sports Club","50 Livingstone Ave","10522",41.0032604,-73.8567912
"10502","Ardsley","NY","TITLE Boxing Club Ardsley","901 Saw Mill River Road","10502",41.01930291,-73.84323257
"10502","Ardsley","NY","Parisi Speed & Agility","not_available","10522",41.014387106069506,-73.84862302369082
"10504","Armonk","NY","Equinox Armonk","99 Business Park Drive","10504",41.120953,-73.70891
"10504","Armonk","NY","Swiss Re Health Club","not_available","10504",41.098809094403386,-73.73161397400818
"10504","Armonk","NY","THE GYM of Armonk","99 Business Park Dr","10504",41.120835,-73.70859899999999
"10504","Armonk","NY","Tudor Fitness Center","1275 King St","06831",41.074893951416016,-73.6998519897461
"10504","Armonk","NY","A Replica of The Knicks Court In A Guy's Basement In CT","not_available","06831",41.10150922681235,-73.65764785126203
"10504","Armonk","NY","TPT Systems Interval Training","480 Main St","10504",41.128509521484375,-73.71268463134766
"10504","Armonk","NY","IBM Gym","Old Post Rd","10504",41.108553,-73.722478
"10504","Armonk","NY","Velocity Sports Performance","5 N Greenwich Rd","10504",41.124853,-73.697308
"10504","Armonk","NY","Big Tom's (PDS) Gym","not_available","10604",41.07984161376953,-73.71420288085938
"10506","Bedford","NY","Treadclimber","not_available","10549",41.19861979296472,-73.67902569476965
"10507","Bedford Hills","NY","F45 Training Mount Kisco","39 S Moger Ave","10549",41.206996,-73.728655
"10507","Bedford Hills","NY","Anytime Fitness","720 N Bedford Rd","10507",41.22474,-73.71354
"10507","Bedford Hills","NY","Zumba","not_available","10539",41.20646576696726,-73.69571828192544
"10507","Bedford Hills","NY","Jodi's Gym","25 Hubbels Dr","10549",41.21610848396171,-73.72428117234188
"10507","Bedford Hills","NY","CrossFit Bedford Hills","52 Babbitt Rd","10507",41.236852,-73.69892
"10507","Bedford Hills","NY","Saw Mill Club","77 Kensico Dr","10549",41.22267,-73.720611
"10507","Bedford Hills","NY","Marti Martial Arts Academy","118 Route 117 By Pass Road","10507",41.245190791084326,-73.68310246843076
"10507","Bedford Hills","NY","NP Private Fitness Center","not_available","10536",41.247819,-73.665428
"10507","Bedford Hills","NY","Pure Barre","29 S Moger Ave","10549",41.207366,-73.728539
"10509","Brewster","NY","Crowne Point Gym","50 Saw Mill Rd","06810",41.37983703613281,-73.5350112915039
"10509","Brewster","NY","World Gym Brewster","1620 New York 22","10509",41.42891498,-73.57538593
"10509","Brewster","NY","The Gym @ Brewster Ice Arena","63 Fields Ln","10509",41.365638732910156,-73.61498260498047
"10509","Brewster","NY","Epic Studios","2031 Route 22","10509",41.44912203069125,-73.5768817099159
"10509","Brewster","NY","Brewster Gym","Tonetta Lake Rd","10509",41.40938,-73.60605
"10509","Brewster","NY","Tom Cat's","not_available","10509",41.42739,-73.59805
"10509","Brewster","NY","World Gym","not_available","10512",41.427227792004665,-73.62455636338063
"10509","Brewster","NY","UMAC Carmel","114 Old Route 6","10512",41.41172114093932,-73.65823486092557
"10509","Brewster","NY","Hardscrabble Club","22 Sutton Pl","10509",41.36876462376776,-73.6156671577925
"10510","Briarcliff Manor","NY","Club Fit","584 N State Rd","10510",41.170441285936235,-73.81616383541427
"10510","Briarcliff Manor","NY","Anytime Fitness","not_available","10510",41.14387893676758,-73.86193084716797
"10510","Briarcliff Manor","NY","Downstate Crossfit","430 N State Rd","10510",41.16169633768925,-73.82585027407826
"10510","Briarcliff Manor","NY","Avalon Ossining - Gym","217 N Highland Ave","10562",41.174800872802734,-73.86901092529297
"10510","Briarcliff Manor","NY","Westchester Workout","549 N State Rd","10510",41.167481244582234,-73.81999172203757
"10510","Briarcliff Manor","NY","The Bike at Home","not_available","10562",41.18444,-73.849704
"10511","Buchanan","NY","Premier Athletic Club","2127 Albany Post Rd","10548",41.25101,-73.9295099
"10511","Buchanan","NY","adrenalin Gym","8 John Walsh Blvd","10566",41.274614,-73.939037
"10511","Buchanan","NY","CKO Kickboxing","8 John Walsh Blvd Ste 326","10566",41.27452895211817,-73.93914907575436
"10512","Carmel","NY","UFC Gym","not_available","10541",41.373065,-73.730883
"10512","Carmel","NY","Fitness Unlimited","rt. 6","10541",41.39105651411332,-73.72274009494447
"10512","Carmel","NY","UFC GYM Mahopac","654 US-6","10541",41.37336,-73.73131
"10512","Carmel","NY","Mahopac High School Gym","Baldwin Place Road","10541",41.36585115562012,-73.75693602437747
"10512","Carmel","NY","Alpha Combat","10 Fair St Fl 2","10512",41.426978,-73.678136
"10512","Carmel","NY","Golds Gym","160 NY 52","10512",41.434534782460936,-73.68026296015745
"10512","Carmel","NY","enerShe fitness, llc","989 Route 6","10541",41.39236831665039,-73.72284698486328
"10512","Carmel","NY","Just For Kicks Martial Arts","1100 Route 52, Suite 105","10512",41.493135,-73.67968789999999
"10512","Carmel","NY","Evolution Health Club","654 Route 6","10541",41.37291,-73.73125
"10512","Carmel","NY","New York Sports Clubs","1844 Route 6","10512",41.4161024,-73.6703082
"10514","Chappaqua","NY","Orangetheory Fitness","222 E Main St","10549",41.202962337761434,-73.72657745942642
"10514","Chappaqua","NY","HealthSmart Fitness Center","1 readers digest rd","not_available",41.1809887141712,-73.75430501210852
"10514","Chappaqua","NY","Life Time Athletic Chappaqua","480 N Bedford Rd","10514",41.17794067,-73.75136733
"10514","Chappaqua","NY","Anytime Fitness","60 Washington Ave","10570",41.13642,-73.79198
"10514","Chappaqua","NY","I Love Kickboxing - Pleasantville","175 Tompkins Avenue, Suite 1","10570",41.13202509465189,-73.78927573016357
"10514","Chappaqua","NY","Prescriptions for Fitness","255 King St","10514",41.161223,-73.768984
"10514","Chappaqua","NY","Tiger Schulmann's Mixed Martial Arts","350 Lexington Ave","10549",41.19588397448004,-73.73319447956793
"10514","Chappaqua","NY","Horace Greeley Gymnasium","not_available","10514",41.17458772178162,-73.75679238031292
"10514","Chappaqua","NY","Pleasantville Physical Therapy","175 Tompkins Ave","10570",41.132294,-73.789316
"10514","Chappaqua","NY","Skinny Buddha","128 Radio Circle Dr","10549",41.191566467285156,-73.7378921508789
"10514","Chappaqua","NY","My Gym","not_available","10649",41.19296866225307,-73.72961307536025
"10514","Chappaqua","NY","Ahn’s Tae Kwon Do","657 E Main St","10549",41.18919372558594,-73.73100280761719
"10514","Chappaqua","NY","Bernen House","1101 Kitchiwan Road","10598",41.20941313800323,-73.79973649978638
"10514","Chappaqua","NY","Lexington Avenue Gym","326 Lexington Ave","10549",41.195747284861824,-73.73300699911071
"10518","Cross River","NY","BodyFit Personal Training","890 Route 35","10518",41.26919174194336,-73.60449981689453
"10518","Cross River","NY","Average Joseph's","not_available","10518",41.272159576416016,-73.6249771118164
"10520","Croton On Hudson","NY","Croton Landing Park","Eliot Way","10520",41.20659302752,-73.89491278955047
"10520","Croton On Hudson","NY","New York Sports Clubs","420 S Riverside Ave","10520",41.1931942,-73.880049
"10520","Croton On Hudson","NY","Montrose Va Gym","2094 Albany Post Rd, Montrose, NY 10548","10548",41.237022399902344,-73.92922973632812
"10520","Croton On Hudson","NY","The Gym (Bldg. 26)","FDR Veterans Hospital Rd","10548",41.23593430441125,-73.9166670910877
"10520","Croton On Hudson","NY","GE Crotonville - Fitness Center","1 Old Albany Post Rd","not_available",41.189706390504355,-73.86593199968758
"10522","Dobbs Ferry","NY","Rivertowns Personal Training Company","62 Main St","10522",41.013575,-73.876297
"10522","Dobbs Ferry","NY","T25 Madness","The Hill","10522",41.012935,-73.864133
"10522","Dobbs Ferry","NY","The Gym @ Liebo Land","20 Birch Ln","10522",41.009192,-73.8737
"10523","Elmsford","NY","Anytime Fitness","1 E Main St","10523",41.05513,-73.819439
"10523","Elmsford","NY","MSG Training Center","700 Old Saw Mill River Rd","10591",41.07849226176441,-73.82742723125142
"10523","Elmsford","NY","The Play Place","11 Clearbrook Rd","10523",41.072604796269644,-73.81558907609529
"10523","Elmsford","NY","Sheraton Tarrytown Fitness Center","600 White Plains Rd","10591",41.059925,-73.837257
"10523","Elmsford","NY","Orangetheory Fitness","624 White Plains Rd","10591",41.059388,-73.836248
"10523","Elmsford","NY","Avalon Gym","Town Green Drive","10523",41.050089491344366,-73.83032025623788
"10523","Elmsford","NY","Home Gym","not_available","10523",41.048719785859404,-73.81227727245245
"10523","Elmsford","NY","East Side Gym","White plains Rd.","10591",41.06114430617731,-73.83233393072732
"10523","Elmsford","NY","CourtSports","150 Clearbrook Rd","10523",41.07415771484375,-73.81327056884766
"10523","Elmsford","NY","Court Sports","idk","10591",41.05879892368381,-73.8375155338993
"10523","Elmsford","NY","Crossfit 914","12C W Main St","10523",41.05277454777954,-73.82196869954434
"10523","Elmsford","NY","Westchester Marriot Fitness Center","not_available","10591",41.05946859018557,-73.83290350212596
"10524","Garrison","NY","Thayer Fitness Center","674 Thayer Rd","10996",41.38874816894531,-73.95613098144531
"10524","Garrison","NY","MWR Fitness Center","683 Buckner Loop","10996",41.40043934642247,-73.9689718942258
"10524","Garrison","NY","the steel mill","Swift Rd, West Point, NY 10996","10996",41.39045241405844,-73.95694831776274
"10524","Garrison","NY","Arvin Gym","Brewerton Rd","10996",41.39298912359297,-73.96061035351173
"10524","Garrison","NY","O.D.I.A.","not_available","10996",41.395737915555024,-73.95815682853105
"10526","Goldens Bridge","NY","PBC Gym","1 Pepsi Way","not_available",41.2748562314115,-73.70141408350558
"10527","Granite Springs","NY","CrossFit Somers","Old Tomahawk Street","10527",41.31550038329378,-73.74842062661452
"10528","Harrison","NY","Pro-form treadmill","not_available","10528",40.959546755360805,-73.7211654828673
"10528","Harrison","NY","West Harrison Fitness Center","160 Harrison Ave","10528",40.965803,-73.71300500000001
"10528","Harrison","NY","Westchester Country Club Fitness Center","not_available","10580",40.998368126202394,-73.69961965021668
"10528","Harrison","NY","Sterling Gym","Sterling Rd","10528",40.986392476303074,-73.71232099211579
"10528","Harrison","NY","1311 Mamaroneck Ave Gym","1311 Mamaroneck Ave","10605",40.9871711730957,-73.74220275878906
"10530","Hartsdale","NY","New York Sports Clubs","208 E Hartsdale Ave","10530",41.0120212,-73.7963598
"10530","Hartsdale","NY","Orthofit Physical Therapy","455 Central Park Ave","10583",41.005793,-73.811957
"10530","Hartsdale","NY","Wii Workout Room","not_available","10603",41.034461,-73.811262
"10530","Hartsdale","NY","Cranked!","not_available","10530",41.030142,-73.791734
"10530","Hartsdale","NY","Snap Fitness","251 S Central Ave","10530",41.01245,-73.806675
"10530","Hartsdale","NY","The Edgemont Gym","372 Central Park Aveune","10583",41.010244257298275,-73.8092558176982
"10532","Hawthorne","NY","New York Sports Clubs","24 Saw Mill River Rd","10532",41.09185510110026,-73.81665319204325
"10532","Hawthorne","NY","Xtreme Training At The Botticelli Fitness Facility","174 Brady Ave","10532",41.09977,-73.79405
"10532","Hawthorne","NY","Velocity Sports Performance","5 Browns Ln","10532",41.09099128961453,-73.81644825263334
"10532","Hawthorne","NY","New York Medical College Skyline Building","not_available","10532",41.08525,-73.817509
"10532","Hawthorne","NY","Fencing Academy of Westchester","S0   Saw Mill River Road","not_available",41.09384000301361,-73.81424188613892
"10533","Irvington","NY","Crossfit Valkyrie","1 Bridge St","10533",41.039573669433594,-73.8740234375
"10533","Irvington","NY","GYMGUYZ","7 Strawberry Ln","10533",41.043351,-73.86191
"10533","Irvington","NY","Insanity Workout (:","Main Street","10533",41.02504360221225,-73.86821754353487
"10535","Jefferson Valley","NY","Orangetheory Fitness","650 Lee Blvd","10598",41.328735,-73.807915
"10535","Jefferson Valley","NY","Club Fit","600 Bank Rd","10535",41.330880377167425,-73.80629011337292
"10536","Katonah","NY","10 Livery Lane Fitness Center","not_available","10560",41.31413778757022,-73.64846716583922
"10536","Katonah","NY","Iowa Style Wrestling","245 Route 100","10589",41.30874348184415,-73.69665814499133
"10536","Katonah","NY","Shawn's Personal Fitness","223 Katonah Ave","10536",41.25621766468305,-73.68403805977523
"10537","Lake Peekskill","NY","John's Gym At The Manor","School St","10541",41.32736200823101,-73.8794539799195
"10538","Larchmont","NY","New York Sports Clubs","15 Madison Ave","10538",40.93209905475188,-73.76322895288467
"10538","Larchmont","NY","L Train","not_available","10538",40.930444,-73.762013
"10538","Larchmont","NY","One2 One Bodyscapes","516 w Boston rd","10543",40.945149064064026,-73.73721957206726
"10538","Larchmont","NY","Burn","13 Addison St","10538",40.92918750269677,-73.75271879341878
"10538","Larchmont","NY","Burke Rehabilitation","703 W Boston Post Rd","10543",40.943146,-73.739518
"10538","Larchmont","NY","Absolute Training Systems Gym","5 Plain Ave","10801",40.92825491369697,-73.77147942781447
"10541","Mahopac","NY","Planet Fitness","169 Route 6","10541",41.348705,-73.753774
"10541","Mahopac","NY","10-14 Mens Locker Room","not_available","10589",41.3377799987793,-73.6910629272461
"10543","Mamaroneck","NY","New York Sports Clubs","124 Palmer Ave","10543",40.9505566,-73.7350979
"10543","Mamaroneck","NY","Tovami Yoga","112 W Boston Post Rd","10543",40.948652829075534,-73.7332046316448
"10543","Mamaroneck","NY","Orangetheory Fitness","811 Mamaroneck Ave","10543",40.9522229,-73.726671
"10543","Mamaroneck","NY","Healthy Fit For Women","1000 E Boston Post Rd","10543",40.953795884318936,-73.72164364123701
"10543","Mamaroneck","NY","NY STRONG","300 Phillips Park Rd","10543",40.95141364267701,-73.73443007469177
"10543","Mamaroneck","NY","Push Fitness of Westchester","154 E Boston Post Rd","10543",40.949424743652344,-73.73199462890625
"10543","Mamaroneck","NY","Shred Factory","501 E Boston Post Rd","10543",40.950835999999995,-73.728863
"10543","Mamaroneck","NY","CKO Kickboxing Club Mamaroneck","151 Mamaroneck Avenue","10543",40.9497929,-73.7330983
"10543","Mamaroneck","NY","salle de gymnastique",".","not_available",40.949994,-73.731451
"10547","Mohegan Lake","NY","Level Fitness","not_available","10598",41.28955589057631,-73.83059660121887
"10547","Mohegan Lake","NY","The Training Zone","Crompond rd","not_available",41.29243643874847,-73.86230263923638
"10547","Mohegan Lake","NY","Sweat Crossfit","not_available","10588",41.32776632848538,-73.83955444263327
"10547","Mohegan Lake","NY","Snap Fitness","3605 Crompond Rd","10567",41.28906954163686,-73.84082676504406
"10547","Mohegan Lake","NY","Gym","not_available","10547",41.31692071465427,-73.85456131111968
"10547","Mohegan Lake","NY","Dynamic Pulse Fitness","3565 Crompond Rd","10567",41.2893082,-73.8385943
"10550","Mount Vernon","NY","Xtreme Fitness Westchester","156 Gramatan Ave","10550",40.91491145533141,-73.83732854039009
"10550","Mount Vernon","NY","Kinetic Sports Club","872 Pelham Pkwy","10803",40.89221928580828,-73.81810901930359
"10550","Mount Vernon","NY","CrossFit Gotham","605 N MacQuesten Pkwy","10552",40.92384963993449,-73.84174778047206
"10550","Mount Vernon","NY","Mount Vernon Sports Club","208 Gramatan Ave","10550",40.916038513183594,-73.8376235961914
"10550","Mount Vernon","NY","VM fitness room","not_available","10552",40.91837692260742,-73.82100677490234
"10550","Mount Vernon","NY","X-Treme Fitness Gym","not_available","10550",40.91402313725544,-73.83756148137026
"10550","Mount Vernon","NY","Mount Vernon Barbell","50 S Macquesten Pkwy","10550",40.911571,-73.85045600000001
"10550","Mount Vernon","NY","300 Hayward Avenue Gym","300 Hayward Ave","10552",40.92745590209961,-73.83661651611328
"10566","Peekskill","NY","Chapel Hill Lifestyle Center Gym","Chapel Hill Drive","10566",41.284319336232585,-73.90414546030826
"10566","Peekskill","NY","Hudson Valley Gym","628 Washington St","10566",41.2794542,-73.926904
"10566","Peekskill","NY","Society Hill II Fitness Center","1 Campus Rd","10566",41.298357,-73.89378
"10566","Peekskill","NY","Peekskill High School Weight Room","not_available","10566",41.28761319929876,-73.91857313211702
"10566","Peekskill","NY","Gym a la Casa","not_available","10567",41.28285561036493,-73.88996840947671
"10567","Cortlandt Manor","NY","Chapel Hill Gym","Chapel Hill Drive","10567",41.29224774754355,-73.88821592475647
"10567","Cortlandt Manor","NY","Retro Fitness","3006 E Main Street","10567",41.306720436922575,-73.87834749518333
"10570","Pleasantville","NY","Ladimax Sports and Fitness","17 Gramercy Pl","10594",41.12652587890625,-73.78278350830078
"10570","Pleasantville","NY","WOWY SuperGym","not_available","10594",41.12217134197769,-73.77481028795272
"10570","Pleasantville","NY","Will2Lose Lifestyle Club","855 Franklin Ave","10594",41.122757,-73.7819
"10570","Pleasantville","NY","Summit Pepsi Gym","not_available","10570",41.124311586375626,-73.78434142633024
"10570","Pleasantville","NY","PFX Fitness Of Westchester","101 Castleton St","10570",41.127288818359375,-73.79000091552734
"10573","Port Chester","NY","Crunch - Port Chester","24 Waterfront Place","10573",40.999489,-73.6636558
"10573","Port Chester","NY","LA Fitness","260 Boston Post Rd","10573",40.995865533119684,-73.6722433927441
"10573","Port Chester","NY","Club 800","800 Westchester Ave","10573",41.0059926064379,-73.69010749087394
"10573","Port Chester","NY","Personal Training Institute","not_available","10573",41.01393349054839,-73.67117380816339
"10573","Port Chester","NY","Gym At Avon Rye","601 Midland Ave","10580",40.986588,-73.67570400000001
"10573","Port Chester","NY","Gatorade Fitness Center","700 Anderson Hill Rd","10577",41.03595009600922,-73.6919985511378
"10573","Port Chester","NY","Fit Body Bootcamp","118 N Main St","10573",41.002356,-73.662255
"10573","Port Chester","NY","The Bar Method Rye Brook","32 Rye Ridge Plz","10573",41.00334930419922,-73.68444061279297
"10573","Port Chester","NY","Crossfit Port Chester","145 S Main St","10573",40.99737257237441,-73.66702115404674
"10573","Port Chester","NY","Spirit Zone Too All-Star Cheerleading & Tumbling","222 Mill St","06830",41.00339066965779,-73.65719431771642
"10573","Port Chester","NY","Ruth Elizabeth Dance Studio","115 N Main St","10573",41.0022500406282,-73.66188497876936
"10573","Port Chester","NY","a.p.e. fitness","26 Poningo St","10573",41.003382,-73.666471
"10573","Port Chester","NY","Fitness Center","631 Midland Ave","10580",40.98961411990363,-73.67226021460331
"10573","Port Chester","NY","Harrison Executive Park Gym","not_available","10577",41.009716630333365,-73.69640108428207
"10573","Port Chester","NY","The Jiu Jitsu Mill","141 Willett Ave","10573",41.003536646005315,-73.66330193743437
"10573","Port Chester","NY","Catholic Youth Program (CYP)","50 Washington St","10573",41.001670000000004,-73.669943
"10573","Port Chester","NY","F45 Training Port Chester","509 Boston Post Road","10573",40.991637,-73.674031
"10573","Port Chester","NY","Forme Barre","220 Purchase St","10580",40.989688873291016,-73.68333435058594
"10576","Pound Ridge","NY","Base Mint Gym","321 Lukes Wood Road","not_available",41.196257563776975,-73.51720255243532
"10576","Pound Ridge","NY","Curves","69 Westchester Ave","10576",41.19014370034898,-73.55134980247426
"10576","Pound Ridge","NY","Ridge Club","202 Oakridge Cmns","10590",41.214069141770246,-73.51839906341291
"10576","Pound Ridge","NY","Premier Fitness Group LLC","902 Oakridge Commons","10590",41.2147814,-73.51696830000003
"10576","Pound Ridge","NY","Little Gym Of Ridgefield","Danbury Rd, Ridgefield, CT 06877","06877",41.2537850718345,-73.53158324276033
"10577","Purchase","NY","Life Time Athletic","1 Westchester Park Dr","10604",41.02253,-73.721608
"10577","Purchase","NY","Red Oak Fitness","4 W Red Oak Ln","10604",41.0176872177298,-73.7239080345322
"10577","Purchase","NY","Tiger's Den (Weight Room) @ White Plains High School","not_available","10605",41.019954681396484,-73.73639678955078
"10577","Purchase","NY","Purchase MasterCard Fitness Center","2000 Purchase St","10577",41.02349553140695,-73.71439000507702
"10577","Purchase","NY","Morgan Stanley gym","2000 Westchester Ave","10577",41.01625304007043,-73.71109497640481
"10577","Purchase","NY","YWCA","515 North St","10605",41.01959428879283,-73.740600162659
"10577","Purchase","NY","Strata Fitness","4 Gannett Dr","10604",41.022707175487135,-73.72555113529812
"10577","Purchase","NY","Pepsi Fitness Center","1111 Westchester Ave","10604",41.01640319824219,-73.72663116455078
"10578","Purdys","NY","Anytime Fitness","325 Route 100","10589",41.3261197,-73.6879577
"10579","Putnam Valley","NY","Trump Park Villa B Fitness Center","3770 Barger St","10588",41.334512599976456,-73.82052898406981
"10580","Rye","NY","Rye YMCA","21 Locust Ave","10580",40.98177529387564,-73.6854207478197
"10583","Scarsdale","NY","Orangetheory Fitness","1019 Central Park Ave","10583",40.98862397204284,-73.82463416092406
"10583","Scarsdale","NY","Equinox Scarsdale","800 White Plains Rd","10583",40.975273,-73.802559
"10583","Scarsdale","NY","New York Sports Clubs","696 Post Rd","10583",40.9700273,-73.8056678
"10583","Scarsdale","NY","Barry's Bootcamp","1142 Wilmot Rd","10583",40.98490309329952,-73.7768441773081
"10583","Scarsdale","NY","Iona Preparatory School","255 Wilmot Rd","10804",40.962799503512315,-73.78578056236198
"10583","Scarsdale","NY","Iona Prep Weight Room","not_available","10804",40.963787,-73.792368
"10583","Scarsdale","NY","SHRED Fitness","1481C Weaver St","10583",40.9808196,-73.77666649999999
"10583","Scarsdale","NY","Brazzilian Butt Lift","20 Pounds Over Weight Road","not_available",40.96096,-73.831884
"10583","Scarsdale","NY","Bally Total Fitness","589 Tuckahoe Rd","10710",40.958408345592886,-73.83818177118178
"10583","Scarsdale","NY","I Love Kickboxing - Eastchester","3 Sunnyside Terrace, Suite 2","10709",40.95735052114421,-73.81292071712262
"10583","Scarsdale","NY","Gym","not_available","10706",40.975080043461574,-73.84266145929374
"10583","Scarsdale","NY","iLoveKickboxing - Eastchester, NY","3 Sunnyside Ter","10709",40.9577616,-73.8128201
"10583","Scarsdale","NY","The Little Gym","777 Post Rd","10583",40.97440825636392,-73.80414165230692
"10583","Scarsdale","NY","Tiger Schulmann's Mixed Martial Arts","2500 Central Park Ave","10710",40.98119853593118,-73.82582635477098
"10583","Scarsdale","NY","Susan Maslowe Fitness","84-98 Maple St","10583",40.97323957664048,-73.80486715894455
"10583","Scarsdale","NY","Fit Fiqure Boot Camp","not_available","10583",40.993294889753514,-73.81817070007737
