"zip","city","state","name","address","postalCode","lat","lon"
"48001","Algonac","MI","Kroger","2600 Pointe Tremble Rd","48001",42.6177891,-82.548473
"48003","Almont","MI","Vinckier Foods","4545 Van Dyke Rd","48003",42.93363758454523,-83.0527206122679
"48009","Birmingham","MI","Whole Foods Market","2100 East Maple Road","48009",42.54670747414321,-83.19404288110773
"48009","Birmingham","MI","Kroger","1237 Coolidge Hwy","48084",42.5423331,-83.1896229
"48009","Birmingham","MI","Kroger","685 E Maple Rd","48009",42.547247,-83.2105001
"48009","Birmingham","MI","Market Square","1964 Southfield Rd","48009",42.53172038709626,-83.22416151196916
"48009","Birmingham","MI","Papa Joe's Birmingham","34244 Woodward Ave","48009",42.54114080617938,-83.20744562013824
"48009","Birmingham","MI","Grape Vine Market & Liquor","100 W 14 Mile Rd","48009",42.53189468383789,-83.21449279785156
"48009","Birmingham","MI","Eaton Market","not_available","48009",42.55773766245159,-83.19187942198653
"48009","Birmingham","MI","Holiday Select","1740 W Maple Rd","48009",42.546381,-83.23630899999999
"48009","Birmingham","MI","Vegano Foods LLC","33717 Woodward Ave Ste 210","48009",42.5371339,-83.2054002
"48015","Center Line","MI","Shopper's Market","25290 Van Dyke","48015",42.479932061541376,-83.02781117746156
"48015","Center Line","MI","Party Store","not_available","not_available",42.48030902731955,-83.02936399672016
"48017","Clawson","MI","ALDI","1035 W 14 Mile Rd","48017",42.531986477930054,-83.16124141216278
"48017","Clawson","MI","Noble Fish","45 E 14 Mile Rd","48017",42.5337108870465,-83.14516050133189
"48017","Clawson","MI","Off The Wagon","1500 N Crooks Rd","48017",42.54662412935078,-83.16616124433372
"48021","Eastpointe","MI","ALDI","18867 E 9 Mile Rd","48021",42.4663559,-82.9238916
"48021","Eastpointe","MI","Fresh Choice Market Place","18801 E 9 Mile Rd","48021",42.465776296403604,-82.92561872957863
"48025","Franklin","MI","Market Fresh","31201 Southfield Rd","48025",42.51799170689609,-83.22405881963503
"48025","Franklin","MI","Oriental Market","not_available","48076",42.508710621432726,-83.22022131053912
"48025","Franklin","MI","Fruitasia","30600 Southfield Rd","48076",42.515764000000004,-83.222319
"48026","Fraser","MI","Meijer","34835 Utica Rd","48026",42.5512782,-82.9622109
"48026","Fraser","MI","Oak Ridge Markets","31240 Groesbeck Hwy","48026",42.52565452163817,-82.94385535843055
"48026","Fraser","MI","Oakridge Market","not_available","48026",42.525970458984375,-82.94374084472656
"48026","Fraser","MI","Value Land","not_available","48088",42.536067848699716,-82.96953819453928
"48026","Fraser","MI","Roselli Wholesale Foods Inc.","33069 Groesbeck Hwy","48026",42.53967167166022,-82.93541059122309
"48030","Hazel Park","MI","Kroger","23101 John R Rd","48030",42.4626822,-83.1055323
"48030","Hazel Park","MI","Save-A-Lot","1839 E 8 Mile Rd","48030",42.44770812988281,-83.08563232421875
"48030","Hazel Park","MI","Hazel Park Food Center","24625 John R Rd","48030",42.475587197627924,-83.10247110940331
"48030","Hazel Park","MI","Player's Market","21305 Dequindre Rd","48030",42.452049,-83.08396
"48033","Southfield","MI","Plum Hollow Market","21999 W 9 Mile Rd","48075",42.4575894956017,-83.25947731733322
"48033","Southfield","MI","Gordon Food Service Store","24475 Telegraph Rd","48033",42.468771527778024,-83.2806805188658
"48033","Southfield","MI","한미","not_available","48034",42.457204437935445,-83.29806545052332
"48033","Southfield","MI","Save A Lot","telegraph","48034",42.47788540130109,-83.27895521772692
"48033","Southfield","MI","Han Mi Market","25840 W 9 Mile Rd","48033",42.45750045776367,-83.29917907714844
"48033","Southfield","MI","Darou Salam International African Market","21327 Telegraph Rd","48033",42.447773983333335,-83.27877551666667
"48034","Southfield","MI","Meijer","28800 Telegraph Rd","48034",42.50023974801169,-83.28231365994725
"48034","Southfield","MI","Chaldean Bakery","26317 W 12 Mile Rd","48034",42.50035095214844,-83.30545806884766
"48034","Southfield","MI","Open Market","27777 Franklin Rd Ste 1545","48034",42.49020336983968,-83.29933996106298
"48035","Clinton Township","MI","Randazzo Fresh Market","36800 Garfield Rd","48035",42.56707356749505,-82.95047141341121
"48035","Clinton Township","MI","ALDI","33650 S Gratiot Ave","48035",42.54365886001927,-82.90458486246905
"48035","Clinton Township","MI","Save-A-Lot","19100 E 15 Mile","48035",42.553468431932174,-82.92647109087783
"48035","Clinton Township","MI","Save A Lot","19100 15 Mile Rd","48035",42.553113,-82.926622
"48036","Clinton Township","MI","Walmart Supercenter","18400 Hall Rd","48038",42.62635249009149,-82.93770222886427
"48036","Clinton Township","MI","Meijer","40445 S Groesbeck Hwy","48036",42.5965936,-82.9026777
"48036","Clinton Township","MI","Kroger","41941 Garfield Rd","48038",42.6048303,-82.9548589
"48036","Clinton Township","MI","Nino Salvaggio International Marketplace","17496 Hall Rd","48038",42.627095678459334,-82.9430559317205
"48036","Clinton Township","MI","Vince & Joe's Gourmet Market","41790 Garfield Rd","48038",42.60417044571875,-82.95186783497603
"48036","Clinton Township","MI","ALDI","39827 S Groesbeck Hwy","48036",42.59202805719301,-82.90140040599454
"48036","Clinton Township","MI","Meijer Pharmacy","40445 S Groesbeck Hwy.","48036",42.5969563,-82.9034235
"48036","Clinton Township","MI","Heflings Amish Market","38953 Harper Ave","48036",42.5848119289095,-82.86758144160922
"48038","Clinton Township","MI","ALDI","41500 Hayes Rd","48038",42.6011224149839,-82.97130882740021
"48039","Marine City","MI","VGs Food Center & Pharmacy","6764 River Rd # M-29","48039",42.69699939990943,-82.5092451799283
"48039","Marine City","MI","Food Depot","not_available","48039",42.71751118308085,-82.4997215623425
"48039","Marine City","MI","VG's Grocery","6764 South River","48039-2252",42.69514083862305,-82.50655364990234
"48040","Marysville","MI","Meijer","205 S Range Rd","48040",42.908964,-82.4976993
"48040","Marysville","MI","Wally's Supermarket","3200 Gratiot Blvd","48040",42.91250328764124,-82.49800119344413
"48040","Marysville","MI","Foodland - Corunna","420 Lyndoch St","N0N 1G0",42.887405,-82.452488
"48040","Marysville","MI","Rob's No Frills","175 Bunker Ave","N0N 1G0",42.876228,-82.454349
"48040","Marysville","MI","Hostess Outlet","not_available","48040",42.923473828043946,-82.46952445745276
"48042","Macomb","MI","Kroger","21555 21 Mile Rd","48044",42.6448805812394,-82.89855614307271
"48042","Macomb","MI","Meijer","15055 Hall Rd","48315",42.6301276,-82.9764668
"48042","Macomb","MI","Kroger","16450 26 Mile Rd","48042",42.7144789,-82.9628626
"48042","Macomb","MI","Kroger Grocery Pickup and Delivery","14945 23 Mile Rd","48315",42.6734784,-82.976849
"48042","Macomb","MI","ATKO USA","46733 Hayes Rd","48315",42.6392406,-82.9738004
"48042","Macomb","MI","ALDI","39827 Groesbeck","not_available",42.63185636378505,-82.86483264392052
"48045","Harrison Township","MI","Walmart Supercenter","45400 Marketplace Blvd","48051",42.63460142766286,-82.85262186735427
"48045","Harrison Township","MI","Kroger","26300 Crocker Blvd","48045",42.5700102,-82.8507426
"48045","Harrison Township","MI","SANGB Commissary","701 George St","48045-5011",42.61235901463096,-82.82180137715501
"48047","New Baltimore","MI","Meijer","27255 23 Mile Rd","48051",42.676222199903336,-82.83583174910314
"48047","New Baltimore","MI","Kroger","35000 23 Mile Rd","48047",42.6745552,-82.7580838
"48047","New Baltimore","MI","Danny's Fresh Meat & Produce Market","52250 Gratiot Ave","48051",42.6838744,-82.8249726
"48047","New Baltimore","MI","Gordon Food Service Store","51630 Gratiot Ave","48051",42.67907544198982,-82.8283953666687
"48047","New Baltimore","MI","GFS","not_available","48051",42.686452286553624,-82.74282416914349
"48048","New Haven","MI","Meijer","36865 26 Mile Rd","48048",42.722444911780514,-82.7412492036865
"48049","North Street","MI","Ruby General Store","4570 Brott Rd","48049",43.037238392173464,-82.60944346898576
"48050","New Haven","MI","Kroger","66900 Gratiot Ave","48062",42.7937869,-82.734969
"48050","New Haven","MI","Richmond Family Nutrition","67346 S Main St","48062",42.79935073852539,-82.7373275756836
"48059","Fort Gratiot","MI","Meijer","4775 24th Ave","48059",43.0464568,-82.4591364
"48059","Fort Gratiot","MI","Walmart Supercenter","4845 24th Ave","48059",43.049138117061425,-82.46007815558411
"48059","Fort Gratiot","MI","Kroger","2907 Krafft Rd","48060",43.024729,-82.454223
"48059","Fort Gratiot","MI","ALDI","4189 24th Ave","48059",43.03009421567289,-82.45909810066223
"48059","Fort Gratiot","MI","Country Style Market Place","3900 Pine Grove Ave","48059",43.02312861854438,-82.45724076346166
"48059","Fort Gratiot","MI","Lakeport Market","7000-7098 3rd St","48059",43.11389265274507,-82.49219544752401
"48059","Fort Gratiot","MI","Gordon Food Service Store","4605 24th Ave","48059",43.042281423933126,-82.4579117868313
"48059","Fort Gratiot","MI","Sandler's Party Store","4473 Gratiot Ave","48059",43.03923762441317,-82.44512371211798
"48060","Port Huron","MI","Kroger","1215 24th St","48060",42.970209144710594,-82.45339346559035
"48060","Port Huron","MI","Moe’s Corner Deli","902 Military Street","48060",42.974829,-82.424419
"48060","Port Huron","MI","River District Supermarket","3550 Electric Ave","48060",42.941782,-82.449724
"48060","Port Huron","MI","Wolverine's","713 Huron Ave","48060",42.981790999999994,-82.424823
"48060","Port Huron","MI","Natures Bounty","4600-4808 Ashley Rd","48074",42.95379643871962,-82.50638758891435
"48060","Port Huron","MI","Save-A-Lot","657 24th St","48060",42.97572708129883,-82.4555435180664
"48065","Romeo","MI","Sheena's Marketplace","70920 Van Dyke Rd","48065",42.816832149945206,-83.01886504665961
"48066","Roseville","MI","Meijer","30800 Little Mack Rd","48066",42.5235311,-82.9066226
"48066","Roseville","MI","Curbside Pick Up","not_available","48066",42.524312,-82.906081
"48066","Roseville","MI","Kroger","30851 Gratiot Ave","48066",42.5237219,-82.9226308
"48066","Roseville","MI","Kroger Marketplace","20891 E 13 Mile Rd","48066",42.5262571,-82.9051777
"48066","Roseville","MI","Walmart Supercenter","28804 Gratiot Ave","48066",42.508383428551035,-82.92601910751999
"48066","Roseville","MI","Save A Lot","26150 Gratiot Ave","48066",42.488002,-82.93879799999999
"48066","Roseville","MI","Valuland Grocery Store","31902 Gratiot Ave","48066",42.530808,-82.91148000000001
"48066","Roseville","MI","Kroger Grocery Pickup and Delivery","26130 Gratiot Ave","48066",42.48795386790849,-82.94049561023712
"48066","Roseville","MI","Save-A-Lot","26150 Gratiot","48066",42.488049560817,-82.93948703934083
"48066","Roseville","MI","Sam's Club","31720 Gratiot Ave","48066",42.529292,-82.913512
"48067","Royal Oak","MI","Kroger Marketplace","2200 E 12 Mile Rd","48067",42.5024646,-83.1191537
"48067","Royal Oak","MI","Holiday Market","1203 S Main St","48067",42.479022494327744,-83.14317675298129
"48067","Royal Oak","MI","Trader Joe's","27880 Woodward Ave","48067",42.49555948050615,-83.16398414016514
"48067","Royal Oak","MI","Hollywood Market","714 Main St","48067",42.4955793803137,-83.14433642123072
"48067","Royal Oak","MI","Westborn Flower Market","27659 Woodward Ave","48072",42.493835001752664,-83.16404668774754
"48067","Royal Oak","MI","Fresh Approach","805 S Campbell Rd","48067",42.48258526746808,-83.12375928147435
"48071","Madison Heights","MI","Bj’s Wholesale","29329 John R Rd","48071",42.50807189941406,-83.10684967041016
"48071","Madison Heights","MI","Meijer","1005 E 13 Mile Rd","48071",42.522531,-83.0971962
"48071","Madison Heights","MI","Hollywood Market","29200 Campbell Rd","48071",42.506488910472946,-83.12463284256488
"48071","Madison Heights","MI","Kim Nhung Super Food","30925 Dequindre Rd","48071",42.51956547202916,-83.08669873390598
"48071","Madison Heights","MI","Value Center Marketplace","1485 W 14 Mile Rd","48071",42.532727514415036,-83.12513108658786
"48071","Madison Heights","MI","Tienda Mexicana Inc","31642 John R Rd","48071",42.52661556816031,-83.10630994665912
"48071","Madison Heights","MI","Meijer","1005 E. Thirteen Mile Rd","48071",42.5218306,-83.0967505
"48071","Madison Heights","MI","Chinatown Market","27651 John R Rd","48071",42.49538040161133,-83.10601806640625
"48071","Madison Heights","MI","c.k gift shop","30212 John R Rd, Madison Heights, MI 48071","48071",42.514559000000006,-83.105806
"48071","Madison Heights","MI","Save-A-Lot","27117 John R Road","48071",42.49219721359469,-83.10560365364094
"48071","Madison Heights","MI","saigon market","30573 John R Rd","48071",42.516927,-83.106726
"48071","Madison Heights","MI","Fuji Market","31722 John R Rd","48071",42.52682880667803,-83.10592352846636
"48071","Madison Heights","MI","China Merchandise","31805-31999 John R Rd","48071",42.52681622050423,-83.10600181314514
"48073","Royal Oak","MI","Meijer","5150 Coolidge Hwy","48073",42.5391408,-83.1817798
"48073","Royal Oak","MI","Woodward Corner Market","30955 Woodward Ave #305","48073",42.516458,-83.188638
"48073","Royal Oak","MI","Gordon Food Service Store","4849 Crooks Rd","48073",42.533667328663974,-83.16667607042989
"48073","Royal Oak","MI","Alta's Greenfield Market","29255","not_available",42.505401,-83.203465
"48073","Royal Oak","MI","Oak Ridge Market","2560 Crooks Rd","48073",42.512192927760665,-83.16045870732273
"48075","Southfield","MI","Kroger","23675 Greenfield Rd","48075",42.46446401419214,-83.2031402142457
"48075","Southfield","MI","8 Mile Foodland","18880 W 8 Mile Rd","48075",42.44451018690284,-83.22784692534307
"48075","Southfield","MI","New York International Foods","15600 W 10 Mile Rd","48075",42.474276,-83.203138
"48075","Southfield","MI","One Stop Kosher Food Market","25155 Greenfield Rd","48075",42.474851789746545,-83.20247054891809
"48075","Southfield","MI","Russian food","W 10 Mile Road","not_available",42.47423690011753,-83.2024472702656
"48076","Southfield","MI","Kroger","19855 W 12 Mile Rd","48076",42.5004849,-83.2408237
"48076","Southfield","MI","Save-A-Lot","27155 Greenfield Rd","48076",42.490297999999996,-83.203592
"48079","Saint Clair","MI","Neiman's Family Market","1167 S Carney Dr","48079",42.8197448479469,-82.50383275869112
"48080","Saint Clair Shores","MI","Kroger","23191 Marter Rd","48080",42.4599859,-82.8836853
"48080","Saint Clair Shores","MI","Kroger","22332 E 9 Mile Rd","48080",42.4658139,-82.8958533
"48081","Saint Clair Shores","MI","Nino Salvaggio International Marketplace","27900 Harper Ave","48081",42.49745474455565,-82.89737971804023
"48081","Saint Clair Shores","MI","Guastello's Village Market","28510 Harper Ave","48081",42.50346007459039,-82.89760916689718
"48083","Troy","MI","Kroger","3125 John R Rd","48083",42.5653084,-83.110005
"48083","Troy","MI","Fresh Thyme Farmers Market","901 E Big Beaver Rd","48083",42.5638556,-83.1304457
"48083","Troy","MI","Gordon Food Service Store","2822 E Maple Rd","48083",42.54894030259593,-83.09164379184563
"48083","Troy","MI","ALDI","2967 E Big Beaver Rd","48083",42.5656704,-83.0899301
"48083","Troy","MI","Polish Market","2924 E Maple Rd","48083",42.54923623916378,-83.08947711619413
"48083","Troy","MI","Troy Oriental Market","3142 Rochester Rd","48083",42.564859000000006,-83.12749699999999
"48083","Troy","MI","Sun Market","34713 Dequindre Rd","48083",42.54790115356445,-83.0885238647461
"48083","Troy","MI","Paradise Fruit Market","not_available","48310",42.56507127050417,-83.09044559815725
"48083","Troy","MI","Balaji Foods Indian & Sri Lankan Grocery","61 E Maple Rd","48083",42.54863739013672,-83.14572143554688
"48083","Troy","MI","C&L Oriental Food Market","37164 Dequindre Rd","48310",42.564819,-83.087676
"48083","Troy","MI","Spicehub","140 W Maple Rd","48084",42.548954010009766,-83.14928436279297
"48083","Troy","MI","India Town LLC","34714 Dequindre Rd","48310",42.547601,-83.087239
"48083","Troy","MI","Aakash Grocers","3656 Rochester Rd","48083",42.57194900512695,-83.1279067993164
"48083","Troy","MI","Patel Brothers Grocery Store","37196 Dequindre Rd","48310",42.565489,-83.087837
"48084","Troy","MI","Walmart Supercenter","2001 W Maple Rd","48084",42.544522951615065,-83.17298380461577
"48084","Troy","MI","Subzi Mandi","1953 W Maple Rd","48084",42.54646731345701,-83.17219835632964
"48084","Troy","MI","Najib's Lobby Shop","755 W Big Beaver Rd","48084",42.560054779052734,-83.16107177734375
"48085","Troy","MI","Kroger","31 E Long Lake Rd","48085",42.593116384653186,-83.14821526408195
"48085","Troy","MI","Han Mi Mart","5060 Rochester Rd","48085",42.59348801,-83.128649
"48085","Troy","MI","Healthsmart of Troy","6044 Rochester Rd","48085",42.60780724904848,-83.12799197668647
"48085","Troy","MI","All India Foods","4939 Rochester Rd","48085",42.59128189086914,-83.129150390625
"48085","Troy","MI","Kai Sun Market","1059 E Long Lake Rd","48085",42.59304428100586,-83.12655639648438
"48085","Troy","MI","Oriental Mart - Jung Won","2912 E Long Lake Rd","48085",42.592331,-83.091934
"48088","Warren","MI","Kroger","31200 Schoenherr Rd","48088",42.5236628,-82.985898
"48088","Warren","MI","Randazzo Fresh Market","13441 E 13 Mile Rd","48088",42.52214685606432,-82.98932651991714
"48088","Warren","MI","Sam's club","Gratiot","48066",42.50002409632786,-82.98712266022623
"48088","Warren","MI","Kroger","13700 E 14 Mile Rd","48088",42.5235336,-82.9859391
"48088","Warren","MI","ValuLand Grocery Store","30780 Schoenherr Rd","48088",42.52072063294602,-82.98696618117417
"48089","Warren","MI","Meijer","25225 Schoenherr Rd","48089",42.4796665,-82.9868042
"48089","Warren","MI","Kroger","26233 Hoover Rd","48089",42.4868578,-83.007854
"48089","Warren","MI","Glory Supermarket","12230 E 8 Mile Rd","48205",42.4481999874115,-83.00128519535065
"48089","Warren","MI","Save-A-Lot","11825 E Eight Mile Rd","48089",42.44993,-83.00103306770325
"48089","Warren","MI","Shoppers Market","22800 Van Dyke Ave","48089",42.461974531572125,-83.02607640527303
"48089","Warren","MI","Save A Lot","11825 E 8 Mile Rd","48089",42.450076,-83.000863
"48089","Warren","MI","ALDI","15415 Gratiot Ave","48205",42.4487849,-82.9703752
"48089","Warren","MI","Shopper's Market","14350 E 9 Mile Rd","48089",42.463542206849446,-82.97541032570781
"48091","Warren","MI","Oak Ridge Market","26700 Ryan Rd","48091",42.489938555846386,-83.06618411689129
"48091","Warren","MI","Conant Grocery","4200 E 10 Mile Rd","48091",42.475956,-83.063666
"48091","Warren","MI","Value Fresh Market","22700 Ryan Rd","48091",42.46053894559781,-83.06273378109363
"48091","Warren","MI","Seven Sea's International Market","4680 E 9 Mile Rd","48091",42.461751,-83.057425
"48092","Warren","MI","Meijer","29505 Mound Rd","48092",42.5099374,-83.0494294
"48092","Warren","MI","ALDI","29475 Mound Rd","48092",42.5083586,-83.0487515
"48092","Warren","MI","Kroger","28250 Dequindre Rd","48092",42.4996043,-83.0830639
"48092","Warren","MI","Gordon Food Service Store","7835 Convention Blvd","48092",42.53164943108466,-83.03056296308611
"48092","Warren","MI","Filipinas","3866 E 13 Mile Rd","48092",42.519307,-83.068603
"48092","Warren","MI","Sahara Market & Pastries","32836 Ryan Rd","48092",42.533943,-83.067677
"48093","Warren","MI","Walmart Garden Center","29176 Van Dyke Avenue","48093",42.508222773805414,-83.02667022003315
"48093","Warren","MI","Oakridge Supermarket","30800 Hoover Rd","48093",42.520580729528675,-83.00683938267434
"48093","Warren","MI","Walmart Grocery Pickup and Delivery","29176 Van Dyke Ave","48093",42.50818634033203,-83.02628326416016
"48094","Washington","MI","Meijer","8401 26 Mile Rd","48094",42.7154382,-83.0322708
"48095","Washington","MI","Kroger","64660 Van Dyke Rd","48095",42.7708326,-83.0165081
"48097","Yale","MI","Vinckier Foods","115 Main Street","48097",43.12856061360067,-82.79854304817823
"48098","Troy","MI","Kroger","2105 South Blvd W","48098",42.6211465,-83.1719784
"48101","Allen Park","MI","Meijer","3565 Fairlane Dr","48101",42.27880540782253,-83.20407898740086
"48101","Allen Park","MI","Meijer","3710 Dix Hwy","48146",42.23198101221431,-83.1964373588562
"48101","Allen Park","MI","Kroger","2060 Dix Hwy","48146",42.25455001182138,-83.19414616631212
"48101","Allen Park","MI","Trentwood Farms","11055 Allen Rd","48195",42.226706010872405,-83.22885990142822
"48101","Allen Park","MI","Jim & Shawn's Stars & Stripes","8246 Allen Rd","48101",42.249205289336416,-83.21857986732071
"48101","Allen Park","MI","Saveland Supermarket","8370 Pelham Rd","48180",42.24757512816892,-83.23123331373519
"48101","Allen Park","MI","Agemy and Sons","14730 Champaign Rd","48101",42.245954,-83.20444599999999
"48103","Ann Arbor","MI","Meijer","3145 Ann Arbor Saline Rd","48103",42.23937639374251,-83.76604199409485
"48103","Ann Arbor","MI","Meijer","5645 Jackson Rd","48103",42.2865714,-83.8411637
"48103","Ann Arbor","MI","Kroger","400 S Maple Rd","48103",42.2778562,-83.7816719
"48103","Ann Arbor","MI","Whole Foods Market","990 W. Eisenhower Parkway","48103",42.248246258671685,-83.75827925010778
"48103","Ann Arbor","MI","Plum Market","375 Maple Rd","48103",42.28466623000963,-83.78159445742747
"48103","Ann Arbor","MI","Busch's Fresh Food Market","2240 S Main St","48103",42.25404698595666,-83.75151737569615
"48103","Ann Arbor","MI","Arbor Farms Market","2103 W Stadium Blvd","48103",42.27224948162797,-83.77621868077989
"48103","Ann Arbor","MI","Gordon Food Service Store","2151 W Liberty St","48103",42.27379997457611,-83.77541363239288
"48103","Ann Arbor","MI","Produce Station","1629 S State St","48104",42.25914086809527,-83.74004184077967
"48103","Ann Arbor","MI","Tsai Grocery","3115 Oak Valley Dr","48103",42.242003401100426,-83.76961309802658
"48103","Ann Arbor","MI","ALDI","2340 Dexter Ave","48103",42.2854037,-83.7788428
"48103","Ann Arbor","MI","Tienda La Libertad","2231 W Liberty St","48103",42.273715,-83.777121
"48103","Ann Arbor","MI","By the Pound","615 S Main St","48104",42.27347744382024,-83.74895319459098
"48103","Ann Arbor","MI","Michigan Farm to Family","119 Jackson Industrial Dr","48103",42.286972,-83.843822
"48103","Ann Arbor","MI","Deb's Grocery","not_available","48103",42.279215,-83.81897
"48103","Ann Arbor","MI","Brazamerica","not_available","48104",42.279252,-83.748619
"48103","Ann Arbor","MI","Frog Holler","521 State Cir","48108",42.233813,-83.740854
"48103","Ann Arbor","MI","Country Market","7001 Dexter Ann Arbor Rd","48130",42.32515266616434,-83.87040948998677
"48104","Ann Arbor","MI","Kroger","3615 Washtenaw Ave","48104",42.25830529684652,-83.68879690674584
"48104","Ann Arbor","MI","Trader Joe's","2398 East Stadium Blvd","48104",42.25843955342363,-83.71291540134794
"48104","Ann Arbor","MI","Whole Foods Market","3135 Washtenaw Ave","48104",42.25791724378803,-83.69789349519475
"48104","Ann Arbor","MI","Patel Brothers","3426 Washtenaw Ave","48104",42.255333,-83.691477
"48104","Ann Arbor","MI","Bombay Grocers","3022 Packard St","48108",42.244645300446784,-83.69967023526075
"48104","Ann Arbor","MI","Better Health Market","3500 Washtenaw Ave","48104",42.25492477416992,-83.69029235839844
"48104","Ann Arbor","MI","Golam Produce Market","3150 Packard St","48108",42.244642999999996,-83.697192
"48104","Ann Arbor","MI","Euro Market","3108 Packard St","48108",42.244885866666664,-83.69779198333333
"48104","Ann Arbor","MI","Manna Oriental Market","1149 Broadway St","48105",42.290931,-83.73666999999999
"48104","Ann Arbor","MI","Galleria Market","3111 Packard St","48108",42.24529284634544,-83.69806160910863
"48104","Ann Arbor","MI","Shakti Bazaar","2925 Carpenter Rd","48108",42.24592971801758,-83.67967987060547
"48104","Ann Arbor","MI","Lucky's Market","1919 S Industrial Hwy","48104",42.26006507168851,-83.73675916898905
"48104","Ann Arbor","MI","Goodies Produce","3180 Packard St","48108",42.244510650634766,-83.69632720947266
"48104","Ann Arbor","MI","ZZ's Produce","4092 Packard St","48108",42.244854,-83.677954
"48104","Ann Arbor","MI","Aladdin's Market","3188 Packard St","48108",42.24482339147508,-83.69616788423578
"48105","Ann Arbor","MI","Kroger","2641 Plymouth Rd","48105",42.3047096,-83.7090107
"48105","Ann Arbor","MI","Plum Market","3601 Plymouth Rd","48105",42.30584057758716,-83.69102830477632
"48105","Ann Arbor","MI","Busch's Fresh Food Market","2020 Green Rd","48105",42.30383705835842,-83.69164855764744
"48105","Ann Arbor","MI","Way 1 Super Market","2789 Plymouth Rd","48105",42.30325204430583,-83.70568717664194
"48105","Ann Arbor","MI","Edith's Market","6023 Pontiac Trail","not_available",42.36566285701487,-83.6573052406311
"48105","Ann Arbor","MI","Om Market","2713 Plymouth Rd","48105",42.30401295843073,-83.70711824753475
"48108","Ann Arbor","MI","Meijer","3825 Carpenter Rd","48197",42.23356978165603,-83.6764669418335
"48108","Ann Arbor","MI","Walmart Supercenter","7000 E Michigan Ave","48176",42.18859332181452,-83.73505929541963
"48108","Ann Arbor","MI","Kroger","3200 Carpenter Rd","48197",42.2428896,-83.682046
"48108","Ann Arbor","MI","ALDI","3299 Carpenter Rd","48197",42.24050521850586,-83.67823028564453
"48108","Ann Arbor","MI","Mediterranean Market","4019 Stone School Rd","48108",42.22926813123289,-83.71860706695742
"48108","Ann Arbor","MI","Hyundai Asian Market","3893 Platt Rd","48108",42.23101043701172,-83.69896697998047
"48108","Ann Arbor","MI","Gordon Food Service Store","3800 Carpenter Rd","48197",42.233484982480505,-83.68104755844557
"48108","Ann Arbor","MI","Boess Market Place","3940 Trade Center Dr","48108",42.23134994506836,-83.68840789794922
"48108","Ann Arbor","MI","Yogi Indian Grocery","4015 E Ellsworth Rd","48197",42.229949951171875,-83.6795883178711
"48111","Belleville","MI","Meijer","9701 Belleville Rd","48111",42.232449,-83.4836776
"48111","Belleville","MI","Walmart Supercenter","10562 Belleville Rd","48111",42.22543682031495,-83.48738650988712
"48111","Belleville","MI","ALDI","10017 Belleville Rd","48111",42.2295136,-83.4845713
"48111","Belleville","MI","Willow Creek Market","49230 Michigan Ave","48111",42.26221442185448,-83.52369376014043
"48111","Belleville","MI","Country Farms Market","9090 Rawsonville Rd","48191",42.15757407066105,-83.54190647517736
"48111","Belleville","MI","Five Point Mini Mart","25 Main St","48111",42.204915584782114,-83.48598045813054
"48111","Belleville","MI","Walmart Supercenter","not_available","48111",42.240146430992255,-83.48906867348524
"48114","Brighton","MI","Meijer","8650 W Grand River Ave","48116",42.538785,-83.7874967
"48114","Brighton","MI","Kroger","9968 E Grand River Ave","48116",42.5193859,-83.7625973
"48114","Brighton","MI","ALDI","8385 W Grand River Ave","48116",42.5452386,-83.7877838
"48114","Brighton","MI","Busch's Fresh Food Market","9870 E Grand River Ave","48116",42.52016235051406,-83.76492716690264
"48114","Brighton","MI","Simply Fresh","not_available","48114",42.567085999999996,-83.809169
"48114","Brighton","MI","Simply Fresh","7300 Grand River Rd","48114",42.521021000000005,-83.760757
"48114","Brighton","MI","Livingston Organic Food Co Op","9912 E Grand River Ave #900","48116",42.52118871753143,-83.763771620795
"48114","Brighton","MI","Gordon Food Service Store","8144 Grand River Rd","48114",42.55411562698301,-83.79225254058838
"48114","Brighton","MI","The Natural View Market","128 W Main St","48116",42.529771999999994,-83.78137
"48116","Brighton","MI","Kroger","9700 Chilson Cmns","48169",42.46235430954031,-83.83080191952905
"48116","Brighton","MI","Country Acres Market","12596 10 Mile Rd","48178",42.45865313640204,-83.69528786271873
"48117","Carleton","MI","Busch's","Grafton","48117",42.05771526082169,-83.38087567527357
"48117","Carleton","MI","Mid Port Party Store","9001-9339 N Telegraph Rd","48166",42.007839108692146,-83.35444791992984
"48118","Chelsea","MI","Polly's Country Market","1255 S Main St","48118",42.3015654571523,-84.02171004187713
"48120","Dearborn","MI","Kroger","15255 Michigan Ave","48126",42.3155474,-83.1927003
"48120","Dearborn","MI","Freshland Market ماركة السلام","4006 Schaefer Rd","48126",42.316895,-83.1753
"48122","Melvindale","MI","Noor Fruit Market","not_available","48122",42.27220556619753,-83.17833750950076
"48122","Melvindale","MI","Oakwood Food Center","3600 Oakwood Blvd","48122",42.28122650086131,-83.18285619999897
"48124","Dearborn","MI","Kroger","23303 Michigan Ave","48124",42.3011508,-83.2615796
"48124","Dearborn","MI","Westborn Market","21770 Michigan Ave.","48124",42.306427054060826,-83.24201288956185
"48124","Dearborn","MI","Save-A-Lot","3031 Telegraph Rd","48124",42.289102510585096,-83.27064219874458
"48124","Dearborn","MI","Kroger","23000 Michigan Ave","48124",42.3008584,-83.2617235
"48124","Dearborn","MI","Bulk Foods","Michigan","not_available",42.30253679763631,-83.24014268129535
"48124","Dearborn","MI","Kroger Click List Pick Up","23003 Michigan Ave","48124",42.301636,-83.26286
"48125","Dearborn Heights","MI","Saturn Foods","not_available","48125",42.270444940300294,-83.28676921764595
"48125","Dearborn Heights","MI","ALDI","24130 Van Born Rd","48125",42.2697470852113,-83.27228115638718
"48125","Dearborn Heights","MI","Richter's Market","4633 S Telegraph Rd","48125",42.275757,-83.270043
"48125","Dearborn Heights","MI","Dollar Tree","3543 S Beech Daly St","48125",42.2844479658472,-83.29016187765018
"48126","Dearborn","MI","Walmart Supercenter","5851 Mercury Dr","48126",42.33074184,-83.20933114
"48126","Dearborn","MI","Dearborn Fresh Market - اسواق المدينة (Dearborn Fresh Market)","13661 Colson St","48126",42.323863968147414,-83.17706422722068
"48126","Dearborn","MI","Super Greenland","12715 W Warren Ave","48126",42.34340004140617,-83.16724061737612
"48126","Dearborn","MI","Alcamo's Market","4423 Schaefer Rd","48126",42.320592167210386,-83.17614168332513
"48126","Dearborn","MI","Papaya Fruit & Grocery","not_available","48228",42.34371419632049,-83.20509824443712
"48126","Dearborn","MI","Salam Meat","12922 W Warren Ave, Dearborn, MI 48126","48126",42.344398498535156,-83.17024230957031
"48126","Dearborn","MI","superland","not_available","48223",42.341374469807036,-83.2081856240016
"48126","Dearborn","MI","Chase Cash & Carry Inc.","6661 Chase Rd","48126",42.34,-83.18672
"48126","Dearborn","MI","Fordson Market ماركة فوردسن","Ford","48126",42.32905124146804,-83.18222560364805
"48126","Dearborn","MI","Fairline Food Center","16520 W Warren Ave","48228",42.343790999999996,-83.207637
"48126","Dearborn","MI","Habib southasian food and groceries","6606 Greenfield Rd","48126",42.339255,-83.195757
"48126","Dearborn","MI","Greenland Market Dearborn","15237 W Warren Ave","48126",42.343424,-83.193854
"48126","Dearborn","MI","Dearborn Produce","12717 Prospect St","48126",42.321441,-83.166315
"48127","Dearborn Heights","MI","Joe Randazzo's Fruit & Vegetable Market","24135 Joy Rd","48127",42.35649652850897,-83.27600302286847
"48127","Dearborn Heights","MI","Kroger","26400 Ford Rd","48127",42.328947,-83.2999734
"48127","Dearborn Heights","MI","Asian Supermarket","8641 N Telegraph Rd","48127",42.35523290000765,-83.27580336332922
"48127","Dearborn Heights","MI","wagon train food market","22436 W Warren Ave","48239",42.341984000000004,-83.259298
"48127","Dearborn Heights","MI","Gordon Food Service Store","5720 N Telegraph Rd","48127",42.328689720446945,-83.27160620447582
"48127","Dearborn Heights","MI","arabian market","not_available","48127",42.3268768783927,-83.29477981322778
"48127","Dearborn Heights","MI","Market Fresh of Dearborn Heights","20125 Ann Arbor Trl","48127",42.3356,-83.2358
"48131","Dundee","MI","Kroger","571 E Monroe St","48131",41.953159,-83.6416766
"48134","Flat Rock","MI","Kroger","23849 West Rd","48134",42.137182791318445,-83.2644650695419
"48134","Flat Rock","MI","Meijer","26100 Vreeland Rd","48134",42.1099629,-83.2893569
"48134","Flat Rock","MI","Foodtown","32825 Fort Street","not_available",42.06861744091021,-83.2489149098123
"48134","Flat Rock","MI","Save-A-Lot","32823 Fort Rd","48173",42.06839752,-83.24835205
"48135","Garden City","MI","Kroger","5866 Middlebelt Rd","48135",42.32824005997516,-83.32911820725712
"48135","Garden City","MI","Patel Brothers","28648 Ford Rd","48135",42.326102563387835,-83.32462579142133
"48135","Garden City","MI","Westside Oriental Store","29484 Ford Rd","48135",42.325852000000005,-83.332578
"48135","Garden City","MI","Food Deals","31210 Warren Rd","48185",42.33871841430664,-83.34957885742188
"48135","Garden City","MI","ALDI","30005 Ford Rd","48135",42.32479634431132,-83.33719889928943
"48137","Gregory","MI","Unadilla General Store","13329 Unadilla Rd","48137",42.429611,-84.057629
"48138","Grosse Ile","MI","Kroger","8999 Macomb St","48138",42.1300906,-83.1574121
"48138","Grosse Ile","MI","Save-A-Lot","3901 Fort St","48192",42.192682306691225,-83.17901048555727
"48141","Inkster","MI","food max","cherry hill road","usa",42.311268067026596,-83.3105274096168
"48144","Lambertville","MI","Kroger Marketplace","3462 Sterns Rd","48144",41.750914,-83.6283344
"48144","Lambertville","MI","Foodtown","Secor","48144",41.74781916206798,-83.62583533105037
"48144","Lambertville","MI","Food Town","7375 Secor Rd","48144",41.7482593307308,-83.62626419451013
"48146","Lincoln Park","MI","Los Arcos Market","2210 Fort Park Blvd","48146",42.248092,-83.180397
"48146","Lincoln Park","MI","ALDI","1200 Southfield Rd","48146",42.2504085,-83.1747534
"48146","Lincoln Park","MI","Kaylynn's Mexican Store","not_available","48146",42.249164,-83.174246
"48146","Lincoln Park","MI","Save A Lot","1716 Fort St","48146",42.2513686,-83.1767062
"48150","Livonia","MI","Meijer","13000 Middlebelt Rd","48150",42.37748134467857,-83.3308240923543
"48150","Livonia","MI","Walmart Supercenter","29555 Plymouth Rd","48150",42.36682052436595,-83.33643596068929
"48150","Livonia","MI","Larry's Foodland","33151 Plymouth Rd","48150",42.36696982389284,-83.37033490561164
"48150","Livonia","MI","Dollar Tree","29250 Joy Rd","48150",42.35503346747278,-83.3312206288689
"48150","Livonia","MI","Awrey's Bakery Outlet Store","12301 Farmington Rd","48150",42.37420447256063,-83.37378740610656
"48150","Livonia","MI","Plymouth Food Store","27600 Plymouth Rd","48150",42.369904,-83.315552
"48150","Livonia","MI","Entenmann's Bakery N Thrift Store","13280 Newburgh Rd","48150",42.379484722289654,-83.41150530246534
"48152","Livonia","MI","Value Center Market","27428 6 Mile Rd","48152",42.413892431747854,-83.31657373396665
"48152","Livonia","MI","Busch's Fresh Food Market","37083 6 Mile Rd","48152",42.409889700394054,-83.40962326639773
"48152","Livonia","MI","Kroger","33523 8 Mile Rd","48152",42.4394113,-83.3817723
"48152","Livonia","MI","Gordon Food Service Store","29150 6 Mile Rd","48152",42.41329458616468,-83.33329439163208
"48152","Livonia","MI","Better Health","20430 Farmington Rd","48152",42.43983711936792,-83.37492469709318
"48152","Livonia","MI","Cantoro's Italian Market","19710 Middlebelt Rd","48152",42.43270065515955,-83.33585319151241
"48152","Livonia","MI","Trader Joe's","18771 Traditions Drive","48167",42.4220887,-83.4336062
"48152","Livonia","MI","Koyama Shoten","37176 6 Mile Rd","48152",42.4117546081543,-83.41140747070312
"48152","Livonia","MI","Walmart Grocery Pickup and Delivery","29574 7 Mile Rd","48152",42.429378509521484,-83.3394775390625
"48152","Livonia","MI","Da-Zhong Oriental Food Market","28860 7 Mile Rd","48152",42.427732,-83.330962
"48152","Livonia","MI","Farmer Jack","2775 E Grand River Ave","48167",42.41332064234493,-83.43275186535517
"48152","Livonia","MI","Laxmi Foods","2913 W. Eight Mile","not_available",42.441198,-83.334327
"48154","Livonia","MI","Kroger","30935 5 Mile Rd","48154",42.3968998,-83.3483714
"48154","Livonia","MI","Westborn Flower Market","14925 Middlebelt Rd","48154",42.39557045297826,-83.33538007782299
"48154","Livonia","MI","Stan's Market","33503 5 Mile Rd","48154",42.396721382577965,-83.37500699827247
"48154","Livonia","MI","Value center market","not_available","48154",42.3871992,-83.3686726
"48158","Manchester","MI","Manchester Market","455 W Main St","48158",42.14743678204747,-84.04416422849619
"48158","Manchester","MI","Busch's Central Kitchen","1950 W Michigan Ave","49236",42.073238372802734,-83.99174499511719
"48158","Manchester","MI","Ft. Campbell Commissary","2702 Michigan Ave","not_available",42.07315444946289,-84.03852081298828
"48160","Milan","MI","Kroger","531 W Main St","48160",42.0888921118512,-83.69770386816299
"48160","Milan","MI","Milan City Market","825 Dexter St","48160",42.09206418787283,-83.67666593918753
"48160","Milan","MI","Gaskill Family Farm","12433 Crowe Rd","48160",42.05169899999999,-83.67608999999999
"48161","Monroe","MI","Meijer","1700 Telegraph Rd","48162",41.944853,-83.400449
"48161","Monroe","MI","Walmart Supercenter","2150 N Telegraph Rd","48162",41.95224552,-83.39700222
"48161","Monroe","MI","Kroger","850 S Monroe St","48161",41.9086474,-83.4060364
"48161","Monroe","MI","Danny's Fine Foods","1002 W Elm Ave","48162",41.92285616011399,-83.40837362485767
"48161","Monroe","MI","ALDI","1850 N Telegraph Rd","48162",41.94789279875486,-83.40024769306183
"48161","Monroe","MI","Gordon Food Service Store","1733 N Telegraph Rd","48162",41.945981654811526,-83.40302109718323
"48161","Monroe","MI","Ciolino Fruit And Vegetable Market","2101 Mall Rd","48162",41.95539093017578,-83.39993286132812
"48161","Monroe","MI","Foodtown","1432-1498 Custer Dr","48162",41.92559729227105,-83.41454400087144
"48161","Monroe","MI","Produce","1551 N Telegraph Rd","48162",41.943397521972656,-83.404296875
"48161","Monroe","MI","Dannys II","not_available","48162",41.936737,-83.38337
"48162","Monroe","MI","Kroger","3833 N Dixie Hwy","48162",41.947794,-83.3124164
"48162","Monroe","MI","Kroger","3383 N Dixie Hwy","48162",41.943463,-83.318368
"48164","New Boston","MI","Huron market","26012 Waltz Rd","48164",42.115127388137296,-83.40207921766446
"48165","New Hudson","MI","Walmart Supercenter","30729 Lyon Center Dr E","48165",42.51407975510957,-83.61334412437186
"48167","Northville","MI","Meijer","20401 Haggerty Rd","48167",42.435569,-83.4372917
"48167","Northville","MI","Kroger","425 N Center St","48167",42.43526779262058,-83.4839916229248
"48168","Northville","MI","Kroger","17447 Haggerty Rd","48168",42.4133142,-83.4354984
"48168","Northville","MI","Cantoro Italian Market – Plymouth","15550 N Haggerty Rd","48170",42.39835709383511,-83.43673284217333
"48168","Northville","MI","Fresh Thyme Farmers Market","15480 Sheldon Rd","48168",42.39741871815673,-83.48038673400879
"48168","Northville","MI","Busch's Fresh Food Market","15185 N Sheldon Rd","48170",42.394454208017144,-83.48290877823739
"48168","Northville","MI","Kroger","15455 N Haggerty Rd","48170",42.3974184,-83.4391525
"48168","Northville","MI","Salem General Store","not_available","48167",42.40630388259888,-83.57855558395386
"48168","Northville","MI","Anand Bazaar","16991 Ridge Rd","48168",42.40705108642578,-83.53142547607422
"48168","Northville","MI","Quality And Value Produce","16855 Ridge Rd","48168",42.406455993652344,-83.53129577636719
"48169","Pinckney","MI","Busch's Fresh Food Market","1277 E M 36","48169",42.45934959432684,-83.9314540937319
"48170","Plymouth","MI","Kroger","44525 Ann Arbor Rd W","48170",42.3574719,-83.4819354
"48170","Plymouth","MI","Picnic Basket","49471 Ann Arbor Rd W","48170",42.35331161188823,-83.52904444316451
"48170","Plymouth","MI","Westborn Market","860 Penniman Ave","48170",42.37176058802451,-83.4699608092947
"48170","Plymouth","MI","VG's Grocery","710 S Mill St, Plymouth, MI 48170, USA","not_available",42.36792996683762,-83.46047401428223
"48170","Plymouth","MI","Busch's Grocery","Sheldon Road","48170",42.37470001208902,-83.53070750757156
"48170","Plymouth","MI","Meat Local","1192 Ann Arbor Rd W","48170",42.359130859375,-83.47418975830078
"48170","Plymouth","MI","Mumbai Market","1472 S Sheldon Rd","48170",42.359039306640625,-83.47940063476562
"48173","Rockwood","MI","Kroger","20645 Gibraltar Rd","48183",42.0935322,-83.2345184
"48174","Romulus","MI","Meijer","14640 Pardee Rd","48180",42.200421,-83.2614997
"48174","Romulus","MI","Walmart Supercenter","7555 Telegraph Rd","48180",42.253566220816396,-83.26610201314267
"48174","Romulus","MI","Cattleman's Meat","11400 Telegraph Rd","48180",42.2232542,-83.2707501
"48174","Romulus","MI","Uncle Joe's Market","5650 S Merriman Rd","48184",42.268197,-83.348512
"48174","Romulus","MI","Save-A-Lot","27254 Eureka Rd","48180",42.19748379228043,-83.30460249094904
"48174","Romulus","MI","Gordon Food Service Store","10065 Telegraph Rd","48180",42.23327586232427,-83.26825618743896
"48174","Romulus","MI","Super Y Market","7130 Middlebelt Rd","48174",42.252718,-83.328861
"48174","Romulus","MI","Norm's Market","25760 Ecorse Rd","48180",42.255247999999995,-83.288613
"48174","Romulus","MI","ALDI","not_available","48180",42.21696853637695,-83.25963592529297
"48174","Romulus","MI","Cochran Bros Distributors Inc","27060 Trolley Industrial Dr","48180",42.24718,-83.304004
"48174","Romulus","MI","Romulus Market Place","36521 Goddard Rd","48174",42.22186903549554,-83.3963159494895
"48174","Romulus","MI","The Market","20175 Telegraph Rd","48174",42.15855,-83.26631
"48176","Saline","MI","Busch's Fresh Food Market","565 E Michigan Ave","48176",42.17313164308352,-83.7699580824679
"48176","Saline","MI","Saline Market Grocery","75 E Bennett St","48176",42.171656962232994,-83.78386391904279
"48178","South Lyon","MI","Kroger","20730 Pontiac Trl","48178",42.4327659,-83.6478347
"48178","South Lyon","MI","Busch's Fresh Food Market","22385 Pontiac Trl","48178",42.445535361517756,-83.6514063929124
"48178","South Lyon","MI","Kroger","51487 Ten Mile Rd","48178",42.462556768425635,-83.56181541344581
"48178","South Lyon","MI","Kroger Grocery Pickup and Delivery","51847 10 Mile Rd","48178",42.462406158447266,-83.56133270263672
"48178","South Lyon","MI","South Lyon IGA","not_available","48178",42.46040977889803,-83.65164662802947
"48180","Taylor","MI","Kroger","7000 Monroe Blvd","48180",42.2574136,-83.251667
"48180","Taylor","MI","Phil Mart Asian Store","13063 Pardee Rd","48180",42.21116256713867,-83.25364685058594
"48182","Temperance","MI","Food Town Supermarkets","Lewis Ave.","48182",41.77752620698333,-83.56826994302214
"48182","Temperance","MI","Food Town","8948 McClanathan Ave","48182",41.778883,-83.566088
"48183","Trenton","MI","Walmart Supercenter","23800 Allen Rd","48183",42.13588154,-83.22752953
"48183","Trenton","MI","Meijer","22600 Allen Rd","48183",42.1439531,-83.2284651
"48183","Trenton","MI","ALDI","20076 West Rd","48183",42.1415602,-83.2278058
"48183","Trenton","MI","Gordon Food Service","21860 Allen Rd","48183",42.149303142503726,-83.2271131699332
"48183","Trenton","MI","Manila Mart","Sibley Road","48183",42.17010833695209,-83.19115739735948
"48184","Wayne","MI","Kroger","36111 E Michigan Ave","48184",42.27911661303758,-83.39319882657544
"48185","Westland","MI","Kroger","7350 N Middlebelt Rd","48185",42.341745,-83.3306655
"48185","Westland","MI","Meijer","37201 Warren Rd","48185",42.3327192,-83.406004
"48185","Westland","MI","Kroger","36430 Ford Rd","48185",42.32611,-83.4000858
"48185","Westland","MI","Joe Randazzo's Fruit & Vegetable Market","6701 N Newburgh Rd","48185",42.334121090993655,-83.40982307836052
"48185","Westland","MI","Kroger","200 S Merriman Rd","48186",42.3091124,-83.352107
"48185","Westland","MI","Save-A-Lot","8244 Merriman Rd","48185",42.34821189541177,-83.3504627525053
"48185","Westland","MI","Dos Hermanos Market","34707 Ford Rd","48185",42.32439975766501,-83.38212130902613
"48185","Westland","MI","Heartland Marketplace","34414 Ford Rd","48185",42.32563152264849,-83.37994100567151
"48185","Westland","MI","Holiday Plaza Laundromat","Wayne","48185",42.34990940468197,-83.38664641410159
"48185","Westland","MI","Save A Lot","Merriman","48185",42.33006631,-83.41808721
"48185","Westland","MI","Save A Lot","8244 N Merriman Rd","48185",42.3480953,-83.3500497
"48185","Westland","MI","A-Z GROCERY","8553 N Wayne Rd","48185",42.3498649597168,-83.38673400878906
"48186","Westland","MI","Kroger","31300 Michigan Ave","48186",42.2872203,-83.3473215
"48186","Westland","MI","ALDI","707 S Wayne Rd","48186",42.304674836982116,-83.38730945767213
"48186","Westland","MI","Sak-N-Save","1647 S Merriman Rd","48186",42.297413,-83.348399
"48186","Westland","MI","Save A Lot","1663 S Merriman Rd","48186",42.2970085,-83.3484133
"48187","Canton","MI","Holiday Market","520 S Lilley Rd","48188",42.30619924685717,-83.4590737976228
"48187","Canton","MI","Meijer","45001 Ford Rd","48187",42.3193384,-83.4844945
"48187","Canton","MI","Walmart Supercenter","39500 Ford Rd","48187",42.32508172261207,-83.43051045741782
"48187","Canton","MI","Kroger","1905 N Canton Center Rd","48187",42.3191769,-83.4914678
"48187","Canton","MI","Fresh Thyme Farmers Market","43480 Ford Rd","48187",42.323619439398534,-83.46962828836058
"48187","Canton","MI","ALDI","42053 Ford Rd","48187",42.321344800369374,-83.45639840529657
"48187","Canton","MI","Pine Market","42400 Ford Rd","48187",42.32312774658203,-83.45935821533203
"48187","Canton","MI","Bombay Grocers","45510 Ford Rd","48187",42.32244257918628,-83.4889915473004
"48187","Canton","MI","Asian Mart","42073 Ford Rd","48187",42.321678161621094,-83.45675659179688
"48187","Canton","MI","Gordon Food Service Store","5727 N Lotz Rd","48187",42.324575908078565,-83.43440404357194
"48187","Canton","MI","Abdu Market","42468 Cherry Hill Rd","48187",42.30821228027344,-83.4586181640625
"48188","Canton","MI","Walmart Supercenter","45555 Michigan Ave","48188",42.269014041757416,-83.48900903821317
"48188","Canton","MI","Kroger","45540 Michigan Ave","48188",42.27417176842893,-83.48831579094622
"48188","Canton","MI","Master Chef Seasonings","4216 Coronet Ave","48188",42.274962,-83.513062
"48189","Whitmore Lake","MI","Polly Market","Main street","not_available",42.42352395210977,-83.76266696704033
"48189","Whitmore Lake","MI","Kroger","not_available","48189",42.418739598007946,-83.77046002929353
"48189","Whitmore Lake","MI","Whitmore Market","11900 Whitmore Lake Rd","48189",42.431751,-83.76871
"48192","Wyandotte","MI","Jerry's Food Market","1168 Oak St","48192",42.2039497780245,-83.16728094430614
"48192","Wyandotte","MI","ALDI","2931 Fort St","48192",42.20284383584714,-83.17956626415253
"48192","Wyandotte","MI","Shoppers Valley","750 Biddle Ave","48192",42.226429783859686,-83.15025908378054
"48192","Wyandotte","MI","Soltz's Quality Meats","1050 Ford Ave","48192",42.214173305095656,-83.16626050388321
"48192","Wyandotte","MI","Kielbasa Joe’s","1200 Oak St","48192",42.204145169790415,-83.16768723327131
"48193","Riverview","MI","Concessi's European Market","13620 Sibley Rd","48193",42.170814797700444,-83.19096535087475
"48195","Southgate","MI","Meijer","16300 Fort St","48195",42.1912159,-83.1848532
"48195","Southgate","MI","Kroger Marketplace","16705 Fort St","48195",42.1862106,-83.1854629
"48195","Southgate","MI","Walmart Supercenter","14900 Dix Toledo Rd","48195",42.201673786436835,-83.21046222598457
"48195","Southgate","MI","Kroger Clicklist Pickup","not_available","48195",42.18562,-83.18461
"48195","Southgate","MI","ALDI","17379 Eureka Rd","48195",42.19780499481032,-83.22122231887079
"48195","Southgate","MI","Crystal Market","18618 Eureka Rd","48195",42.199081778526306,-83.221812
"48195","Southgate","MI","Better Health Market","17825 Eureka Rd","48195",42.1982825759942,-83.22189787658715
"48195","Southgate","MI","Kroger","13333 Eureka Rd","48195",42.1857815,-83.1855627
"48197","Ypsilanti","MI","Kroger","2010 Whittaker Rd","48197",42.2120366,-83.6210503
"48197","Ypsilanti","MI","Fresh Thyme Farmers Market","2985 Washtenaw Rd.","48197",42.249181285535634,-83.6598694324494
"48197","Ypsilanti","MI","Ypsi Food Co-op","312 N River St","48198",42.24515657317909,-83.60848254931055
"48197","Ypsilanti","MI","Kroger","1771 E Michigan Ave","48198",42.2483906,-83.5753762
"48197","Ypsilanti","MI","Hua Xing Asia Market","2867 Washtenaw Rd","48197",42.249535253792004,-83.6565982019571
"48197","Ypsilanti","MI","Tom's Party Store","500 W Cross St","48197",42.24599137771244,-83.61936871816275
"48197","Ypsilanti","MI","Walmart Supercenter","2515 Ellsworth Rd","48197",42.22868123657652,-83.65015499299587
"48197","Ypsilanti","MI","Fatou African and Caribbean Mkt","4 N Adams St","48197",42.241273,-83.615827
"48197","Ypsilanti","MI","La Espiga Dorada Market","not_available","48197",42.238479109815486,-83.5970032698549
"48198","Ypsilanti","MI","Von's Supermarket","1521 Holmes Rd","48198",42.254066467285156,-83.58013916015625
"48198","Ypsilanti","MI","The Marketplace","Eastern Michigan University","48197",42.25384080809039,-83.62824649832534
"48198","Ypsilanti","MI","Latin American Grocery","1793 Washtenaw Rd","48197",42.2474656,-83.6416387
"48198","Ypsilanti","MI","Save-A-Lot","2830 Washtenaw Ave","48197",42.251249264203615,-83.65455448958747
"48198","Ypsilanti","MI","Save-A-Lot","1571 Holmes Rd","48198",42.2538070678711,-83.5798187255859
"48198","Ypsilanti","MI","Rose Market","2243 Ellsworth Rd","48197",42.229453,-83.645526
"48201","Detroit","MI","Whole Foods Market","115 Mack Ave.","48201",42.34847649058089,-83.05673834865114
"48201","Detroit","MI","University Foods","1131 W Warren Ave","48201",42.353005671140245,-83.07449782581435
"48201","Detroit","MI","Marcus Market","4614 2nd Ave","48201",42.35245728172139,-83.06708639993651
"48201","Detroit","MI","Eve's Downtown Gourmet","1431 Washington Blvd","48226",42.334171295166016,-83.051513671875
"48201","Detroit","MI","Food Pride","500 E Warren Ave","48201",42.35911883889656,-83.05771508908768
"48201","Detroit","MI","Eve's Market","1411 Washington Blvd","48226",42.334171295166016,-83.051513671875
"48201","Detroit","MI","Wigley's Meats & Produce","3405 Russell St","48207",42.350650695739084,-83.04372388511871
"48201","Detroit","MI","Tomboy Market","4120 2nd Ave","48201",42.34909561026599,-83.06529320733706
"48201","Detroit","MI","Little Asia Mart","4718 Anthony Wayne Dr","48201",42.352589,-83.069715
"48202","Detroit","MI","Al-Haramain International Foods","9329 Joseph Campau","48212",42.392289,-83.056531
"48202","Detroit","MI","King Cole Foods","40 Clairmount St","48202",42.382723538349396,-83.08252493198042
"48202","Detroit","MI","Glory Supermarket","9023 Joseph Campau St","48212",42.391856782824846,-83.05576187626716
"48202","Detroit","MI","Family Foods Super Store","8665 Rosa Parks Blvd","48206",42.37181512224551,-83.09736021845679
"48202","Detroit","MI","Srodek's Campau Quality Sausage","9601 Joseph Campau St","48212",42.39583675248039,-83.0572814183979
"48203","Highland Park","MI","Meijer","1301 W 8 Mile Rd","48203",42.444297976402275,-83.11922192573547
"48203","Highland Park","MI","Meijer Pharmacy","1301 W. Eight Mile Rd.","48203",42.444285,-83.119224
"48203","Highland Park","MI","ALDI","15111 Woodward Ave","48203",42.4098377699082,-83.10141771167412
"48203","Highland Park","MI","Merchant Food Center","2819 E 7 Mile Rd","48234",42.433234999999996,-83.07514
"48203","Highland Park","MI","Glory Supermarket","14100 Woodward Ave","48203",42.40822428726369,-83.09704581427663
"48203","Highland Park","MI","Kroger","not_available","48203",42.4265772062004,-83.1095065601091
"48203","Highland Park","MI","Pyramids Bakery & Grocery","736 E 7 Mile Rd","not_available",42.43239,-83.1107
"48204","Detroit","MI","Food farm market","11550 Dexter Ave","48206",42.37861251831055,-83.12284088134766
"48204","Detroit","MI","Thrifty Scot Supermarket","3431 Joy Rd","48206",42.370314,-83.11660400000001
"48204","Detroit","MI","Shop A Lot","10320 Plymouth Rd","48204",42.373635,-83.162903
"48205","Detroit","MI","Save-A-Lot","15001 Houston-Whittier","48205",42.42101988222772,-82.96697624683505
"48205","Detroit","MI","Del Pointe Food Center","16700 Harper Ave","48224",42.41581618268437,-82.94554600123071
"48205","Detroit","MI","Mazen Foods","12740 Gratiot Ave","48205",42.41985407276611,-82.98717785877741
"48205","Detroit","MI","Mike's Fresh Market","14383 Gratiot Ave","48205",42.43676266656427,-82.97810121705054
"48205","Detroit","MI","7 Star Food Center","11500 E McNichols Rd","48205",42.419709999999995,-83.005241
"48207","Detroit","MI","Metro","6740 Wyandotte St E","N8S 1P6",42.33149766931181,-82.9564118385315
"48207","Detroit","MI","Gordon Food Service","Jefferson","48207",42.33910369873047,-83.0199966430664
"48207","Detroit","MI","Family Fair Food Center","700 Chene St","48207",42.34105267951225,-83.02389960380403
"48207","Detroit","MI","Save-A-Lot","3681 Gratiot Ave","48207",42.363560906798675,-83.0255192700979
"48207","Detroit","MI","Gratiot Central Market","1429 Gratiot Ave","48207",42.344810838116516,-83.03843586127238
"48207","Detroit","MI","Lafayette Foods","1565 E Lafayette St","48207",42.338898151303496,-83.03195646238181
"48207","Detroit","MI","R. Hirt Jr.","2468 Market St","48207",42.3460849959318,-83.03894327578226
"48207","Detroit","MI","Envy Inc","234 E Larned St","48226",42.328745,-83.041222
"48207","Detroit","MI","Food Plaza","Brush St.","48226",42.331191727880935,-83.04357127871167
"48207","Detroit","MI","Red Truck Produce","not_available","48207",42.345005,-83.03836
"48207","Detroit","MI","Calumet Market & Spirits","Renaissance Center","48226",42.32920734638159,-83.03926588861916
"48207","Detroit","MI","XS Cab Service","400 Renaissance Center, Suit 2600","48243",42.32985960000001,-83.04045049999999
"48207","Detroit","MI","Dot’s Market Detroit","not_available","48214",42.358621,-82.999025
"48208","Detroit","MI","Save-A-Lot","5181 Grand River Ave","48208",42.34930281306782,-83.09263071216229
"48208","Detroit","MI","Spartan Foods","not_available","48075",42.351946543573725,-83.09369442235837
"48209","Detroit","MI","Azteca Supermercado","2411 Central St","48209",42.313611,-83.125506
"48209","Detroit","MI","La Fiesta Market","7403 W Vernor Hwy","48209",42.313359000000005,-83.12189599999999
"48209","Detroit","MI","Vernor Food Center‎/La Virgencita","8801 W Vernor Hwy","48209",42.308618,-83.133494
"48209","Detroit","MI","The New San Juan Market","4616 W Vernor Hwy","48209",42.319889068603516,-83.09750366210938
"48209","Detroit","MI","Algo Especial Super Mercado","2628 Bagley St, Detroit, MI 48216","48216",42.32571989396453,-83.07877994486803
"48209","Detroit","MI","Ryan's Foods","5858 W Vernor Hwy","48209",42.316831,-83.104945
"48210","Detroit","MI","La Tuna","7603 McGraw St, Detroit, MI 48210","48210",42.335539000000004,-83.140113
"48210","Detroit","MI","Garden Fresh Marketplace","6680 Michigan Ave.","48210",42.33153,-83.12604
"48210","Detroit","MI","Metro Food Center","6461 W Warren Ave","48210",42.344114000000005,-83.132632
"48210","Detroit","MI","hellenic grocery & bakery","not_available","48210",42.33729553222656,-83.13841247558594
"48210","Detroit","MI","Big Apple Market","not_available","48226",42.33651229032832,-83.13812948839055
"48211","Detroit","MI","Al-Haramain International Foods","3306 Caniff St","48212",42.401057705175006,-83.05611316872198
"48211","Detroit","MI","Polish Market","10200 Joseph Campau St","48212",42.3986144233151,-83.05885008634861
"48211","Detroit","MI","Hamtramck City Market","not_available","48212",42.39002035,-83.05344597
"48211","Detroit","MI","Asian Market","10224 Conant St","48212",42.40133919555147,-83.0536283277367
"48211","Detroit","MI","Fresh Valley Produce","10212 Joseph Campau St","48212",42.398526,-83.059032
"48211","Detroit","MI","A & C Supermarket","9006 Joseph Campau St","48212",42.39200856732663,-83.05416836560248
"48211","Detroit","MI","New Mini Market","9844 Conant St","48212",42.40030874,-83.05136441
"48211","Detroit","MI","Stan's Grocery","11325 Joseph Campau St, Hamtramck, MI 48212","48212",42.400192704689644,-83.06039158873192
"48211","Detroit","MI","Al-Amryah","9629 Conant St","48212",42.39875411987305,-83.05052947998047
"48211","Detroit","MI","Al-Noor Supermarket","8842 Joseph Campau St","48212",42.390929,-83.053558
"48212","Hamtramck","MI","Marhaba bazar","12151 Conant St","48212",42.40846269835589,-83.05662731690506
"48212","Hamtramck","MI","Khan Grocery Inc.","12696 Gallagher St","48212",42.412346,-83.06309399999999
"48213","Detroit","MI","Farmer John Food Center","9731 Harper Ave","48213",42.393578999999995,-83.00661099999999
"48213","Detroit","MI","Pak N Save","Mack Station Dr","48215",42.3862623,-82.97380415
"48213","Detroit","MI","Mack / Bewick Market","10300 Mack Ave","48214",42.37450890685726,-82.9885187190729
"48213","Detroit","MI","Save-A-Lot","4703 Conner Ave","48215",42.38880433717757,-82.97292947292132
"48213","Detroit","MI","Save A Lot","4703 Conner St","48215",42.3872875,-82.9723505
"48213","Detroit","MI","Harper Food Center","13999 Harper Woods","48213",42.40361022949219,-82.96907043457031
"48215","Detroit","MI","Fairfax Quality Market","899 Beaconsfield Ave","48230",42.37404043329696,-82.93363180184072
"48215","Detroit","MI","ALDI","14708 Mack Ave","48215",42.3860406,-82.9488644
"48215","Detroit","MI","Parkway Market","13210 E Jefferson Ave","48215",42.37070846557617,-82.95023345947266
"48216","Detroit","MI","Honey Bee Market - La Colmena","2443 Bagley St","48216",42.32564316602697,-83.07631871777083
"48217","Detroit","MI","riviera market","11292 W Jefferson Ave","48218",42.26383,-83.1374
"48218","River Rouge","MI","Bi-Rite Supermarket","W. Jefferson","48218",42.266192679705526,-83.13009264880112
"48219","Detroit","MI","Meijer","21431 Grand River Ave","48219",42.41205,-83.2527633
"48219","Detroit","MI","New Redford Food Cente","21673 Grand River Ave","48219",42.415729016724036,-83.2562799447117
"48219","Detroit","MI","Apollo Supermarket","20250 W 7 Mile Rd","48219",42.43020895472219,-83.24147613973614
"48219","Detroit","MI","Save A Lot","20811 W 8 Mile Rd","48219",42.4431906,-83.2485098
"48219","Detroit","MI","Old Redford Food Center","21673 Grand River Avenue","48219",42.415717,-83.256479
"48219","Detroit","MI","Glory Supermarket","19136 Telegraph Rd","48219",42.42968640650015,-83.27682860609166
"48219","Detroit","MI","Galoya African Market","22036 Grand River Ave","48219",42.41702651977539,-83.2580337524414
"48220","Ferndale","MI","Western Market","447 W 9 Mile Rd","48220",42.46027043153128,-83.14090004786873
"48220","Ferndale","MI","ALDI","8228 W 8 Mile Rd","48220",42.4466159,-83.1543468
"48220","Ferndale","MI","Kroger","8920 W 8 Mile Rd","48220",42.4465728,-83.160361
"48220","Ferndale","MI","Ferndale Foods","600 W 9 Mile Rd","48220",42.460718470278415,-83.142487207492
"48220","Ferndale","MI","Organic Food & Vitamin Center","170 W 9 Mile Rd","48220",42.460680708509365,-83.13591703659336
"48220","Ferndale","MI","Natural Food Patch","221 W 9 Mile Rd","48220",42.460546938406445,-83.13662124651684
"48220","Ferndale","MI","Onyx Food Market","10850 W 9 Mile Rd","48237",42.460347,-83.171583
"48220","Ferndale","MI","Vega Market","2800 Hilton Rd","48220",42.46862909688768,-83.12611777765272
"48220","Ferndale","MI","Organic Foods","9 mile","48220",42.453433438126396,-83.13391932603514
"48220","Ferndale","MI","Save-A-Lot","430 W 9 Mile Rd","48220",42.46078736712113,-83.1403173738551
"48221","Detroit","MI","Savon Foods Super Market","18000 Livernois Ave","48221",42.421647916945766,-83.14353218534819
"48221","Detroit","MI","Mikes Fresh Market","19195 Livernois Ave","48221",42.4325816132798,-83.14243243439384
"48221","Detroit","MI","Liberty Food Center","10620 W McNichols Rd","48221",42.41700443523947,-83.16812130305107
"48221","Detroit","MI","fresh market","Wyoming","48221",42.42726427806759,-83.15444915584966
"48223","Detroit","MI","Metro Foodland","18551 Grand River Ave","48223",42.40247590299937,-83.22374619698347
"48224","Detroit","MI","Kroger","16919 Kercheval Ave","48230",42.3898711,-82.9176316
"48224","Detroit","MI","Trader Joe's","17028 Kercheval Ave","48230",42.38985526853645,-82.91583630015587
"48224","Detroit","MI","Village Food Market","18330 Mack Ave","48236",42.40843903342902,-82.91405987138889
"48224","Detroit","MI","Lucky's Market","17241 E Warren Ave","48224",42.407253000000004,-82.92746600000001
"48224","Detroit","MI","family foods market","19230 Harper Ave","48225",42.42647023294553,-82.92596078555113
"48224","Detroit","MI","IN 'N' OUT FOOD STORES","17101 E Warren Ave","48224",42.406251,-82.929849998045
"48225","Harper Woods","MI","Kroger","20903 Harper Ave","48225",42.449753,-82.915834
"48227","Detroit","MI","Imperial Supermarket","14424 Schaefer Hwy","48227",42.39447880312624,-83.17802715245533
"48227","Detroit","MI","Grand Price Foodland","12955 Grand River Ave","48227",42.381456522773995,-83.17113839012642
"48227","Detroit","MI","Greenfield Market","15560 Puritan St","48227",42.40905335734927,-83.19973897736371
"48227","Detroit","MI","Americana Foods","15041 Plymouth Rd","48227",42.372395000000004,-83.192594
"48227","Detroit","MI","Food Giant","14040 Greenfield Rd","48227",42.389126,-83.197165
"48227","Detroit","MI","Save-A-Lot","13750 Fenkell St","48227",42.402387857437134,-83.18153500556946
"48227","Detroit","MI","All Star Fresh Fish & Seafood","13585 Greenfield Rd","48227",42.38618850708008,-83.19847869873047
"48227","Detroit","MI","Schaefer - Fish & Chicken","13465 Schaefer Hwy","48227",42.403645000000004,-83.179583
"48227","Detroit","MI","Food 4 Less","14020 Grand River Ave","48227",42.387164,-83.1824
"48227","Detroit","MI","Bobs Quality Meats","16728 Grand River Ave","48227",42.398109436035156,-83.21092987060547
"48228","Detroit","MI","U.S. Quality Foods","15690 Joy Rd","48228",42.35934829711914,-83.19914245605469
"48228","Detroit","MI","Save-A-Lot","20427 Plymouth Rd","48228",42.37153382983581,-83.23984572206275
"48229","Ecorse","MI","Save-A-Lot # 24616","3931 W Jefferson Ave","48229",42.25365,-83.138871
"48230","Grosse Pointe","MI","Fresh Farms Market","355 Fisher Rd","48230",42.39005239773753,-82.90372189009655
"48234","Detroit","MI","Seven Mile Foods","8139 E 7 Mile Rd","48234",42.434101,-83.0214
"48234","Detroit","MI","Joe Randazzo's Fruits & Vegetables","5240 E Outer Dr","48234",42.436553236914506,-83.01548593267144
"48234","Detroit","MI","7 Mile Food","8139 E 7 MIle Rd","48234",42.434295654296875,-83.02168273925781
"48235","Detroit","MI","Glory Supermarket","8000 W Outer Dr","48235",42.420247268771426,-83.21733644507133
"48235","Detroit","MI","Caribean African Market","not_available","48235",42.415831,-83.210664
"48235","Detroit","MI","All African Market","15800 W McNichols Rd","48235",42.41617202758789,-83.20286560058594
"48235","Detroit","MI","Savon","15025 W 7 Mile Rd","48235",42.430327,-83.194283
"48236","Grosse Pointe","MI","Kroger","20422 Mack Ave","48236",42.4390672,-82.9071256
"48236","Grosse Pointe","MI","Jerry's","383 Kercheval Ave","48236",42.4104009460359,-82.8914074141461
"48236","Grosse Pointe","MI","Better Health Market","19850 Mack Ave","48236",42.42998540303877,-82.90880712601383
"48237","Oak Park","MI","ALDI","26300 Greenfield Rd","48237",42.4856627,-83.2006997
"48237","Oak Park","MI","Glory Supermarket","22150 Coolidge Hwy","48237",42.45938526568175,-83.18057855918217
"48237","Oak Park","MI","Value Wholesale","not_available","48237",42.447796999999994,-83.196388
"48237","Oak Park","MI","Fruitasia Farmers Market","23035-23099 Coolidge Hwy","48237",42.461238333333334,-83.18257205
"48237","Oak Park","MI","Kashat Spices","23141 Coolidge Hwy","48237",42.46058178333333,-83.1819755
"48237","Oak Park","MI","Farm Fresh Market","13151 W 10 Mile Rd","48237",42.47370948780554,-83.17960175803222
"48237","Oak Park","MI","Save A Lot","23105 Coolidge Hwy","48237",42.460845,-83.182999
"48238","Detroit","MI","Value Save","not_available","48238",42.39577880720944,-83.13842262768021
"48239","Redford","MI","ALDI","9009 Telegraph Rd","48239",42.35907707314683,-83.27643692493439
"48239","Redford","MI","Sun Valley Market","not_available","48239",42.362462,-83.276501
"48240","Redford","MI","ALDI","25851 Grand River Ave","48240",42.43223698554071,-83.2991874217987
"48240","Redford","MI","Spartan Store","not_available","48240",42.43361631242632,-83.29813843164739
"48240","Redford","MI","Save-A-Lot","25451Grand River Ave","48240",42.42866588236791,-83.2934895410065
"48301","Bloomfield Hills","MI","Nino Salvaggio International Marketplace","6592 Telegraph Rd","48301",42.54352856602186,-83.28653556475112
"48301","Bloomfield Hills","MI","Plum Market","3675 W Maple Rd","48301",42.54456810521082,-83.26311517084439
"48301","Bloomfield Hills","MI","Kroger","3600 W Maple Rd","48301",42.5463847,-83.2622622
"48301","Bloomfield Hills","MI","Trader Joe's","6536 Telegraph Rd","48301",42.54423946404114,-83.28644976114334
"48301","Bloomfield Hills","MI","Market Square","Inkster","48323",42.55289937061075,-83.32297235537047
"48301","Bloomfield Hills","MI","Kroger","Orchard Lake","48322",42.543491819241595,-83.29215222755724
"48302","Bloomfield Hills","MI","Kroger","4099 Telegraph Rd","48302",42.5803773,-83.2795492
"48302","Bloomfield Hills","MI","ALDI","1967 S Telegraph Rd","48302",42.61137771606445,-83.3019027709961
"48302","Bloomfield Hills","MI","Long Lake Market","1075 W Long Lake Rd","48302",42.58086750949671,-83.2819104745666
"48302","Bloomfield Hills","MI","Better Health Market","2053 S Telegraph Rd","48302",42.609572037806046,-83.30088795161095
"48304","Bloomfield Hills","MI","Hollywood Market","1525 S Opdyke Rd","48304",42.61934876542203,-83.2472982019018
"48304","Bloomfield Hills","MI","Surra - fr3 Block 2","Surra","48304",42.582689,-83.227301
"48306","Rochester","MI","Kroger","4888 N Adams Rd","483061415",42.726373,-83.1990245
"48306","Rochester","MI","Kroger","2058 25 Mile Rd","48316",42.6957746,-83.0931976
"48306","Rochester","MI","Papa Joes Gourmet Market","6900 N Rochester Rd","48306",42.696864684828725,-83.13619835372744
"48306","Rochester","MI","Hollywood Market","1495 N Rochester Rd","48307",42.69498165428749,-83.13546548858895
"48306","Rochester","MI","Kroger Grocery Pickup and Delivery","4888 N Adams Rd","48306",42.72679901123047,-83.19654846191406
"48306","Rochester","MI","MARKET LINDA","123 ORION","48306",42.711642008862746,-83.14815759658813
"48307","Rochester","MI","Meijer","3175 S Rochester Rd","48307",42.634076,-83.1289353
"48307","Rochester","MI","Kroger","65 S Livernois Rd","48307",42.680288,-83.1517191
"48307","Rochester","MI","Gordon Food Service Store","1370 Walton Blvd","48309",42.682086053336214,-83.1568899338011
"48307","Rochester","MI","Fresh Thyme Farmers Market","2025 S Rochester Rd","48307",42.6516626,-83.1308423
"48307","Rochester","MI","ALDI","1106 S Rochester Rd","48307",42.664039611816406,-83.13426208496094
"48307","Rochester","MI","Farm Boy Produce","Avon","not_available",42.66531944274902,-83.13390970230103
"48307","Rochester","MI","India Grocers","2642 S Rochester Rd","48307",42.641661,-83.133262
"48307","Rochester","MI","Krishna Foods","1844 E Auburn Rd","48307",42.637882,-83.09513000000001
"48307","Rochester","MI","spicemart","933 Auburn Rd","48307",42.63490295410156,-83.15043640136719
"48307","Rochester","MI","White Lake Market","1400 Drexelgate Pkwy","48307",42.659678,-83.14374699999999
"48309","Rochester","MI","Trader Joe's","3044 Walton Blvd","48309",42.68264135956096,-83.19498222842515
"48309","Rochester","MI","Walmart Supercenter","2500 S Adams Rd","48309",42.64319279639434,-83.19833156799518
"48309","Rochester","MI","Meijer","3610 Marketplace Cir","48309",42.643437685130834,-83.20603966712946
"48309","Rochester","MI","Whole Foods Market","2918 Walton Blvd","48309",42.681842987469004,-83.19159000968328
"48309","Rochester","MI","Busch's Fresh Food Market","3188 Walton Blvd","48309",42.681917957483996,-83.19607028448516
"48309","Rochester","MI","Kroger","Crooks Rd.","48309",42.62972472399782,-83.19942880778214
"48310","Sterling Heights","MI","Kroger","2260 18 Mile Rd","48314",42.593853,-83.08871
"48310","Sterling Heights","MI","Dream Market","40832 Ryan Rd","48310",42.592830657958984,-83.0684585571289
"48310","Sterling Heights","MI","Krave Smoke Shop","3967 17 Mile Rd","48310",42.579856,-83.071508
"48310","Sterling Heights","MI","La Grusa's Meat Fruit Ranch","2127 Dequindre Rd","48310",42.57963384010365,-83.08775217536632
"48310","Sterling Heights","MI","Hanna's Fruit Market","4115 15 Mile Rd","48310",42.550862,-83.067588
"48310","Sterling Heights","MI","Palm Fruit Market","5814 15 Mile Rd","48310",42.55007526337482,-83.04922396990607
"48310","Sterling Heights","MI","Wholesale Fruit & Veg","St Bernards Rd","48310",42.537505,-83.048978
"48310","Sterling Heights","MI","Max's Deli Beer & Wine","4160 15 Mile Rd","48310",42.549465000000005,-83.066626
"48312","Sterling Heights","MI","Meijer","36600 Van Dyke Ave","48312",42.5627802,-83.0261548
"48312","Sterling Heights","MI","Walmart Supercenter","33201 Van Dyke Ave","48312",42.53832481,-83.03190255
"48312","Sterling Heights","MI","ALDI","34030 Van Dyke Ave","48312",42.54433257778181,-83.02769958972925
"48312","Sterling Heights","MI","Better Health Market","33452 Van Dyke Ave","48312",42.54020594313071,-83.0285286915945
"48313","Sterling Heights","MI","Kroger","43893 Schoenherr Rd","48313",42.6175712,-82.9944995
"48313","Sterling Heights","MI","Bozek's Polish Market","42354 Van Dyke Ave","48314",42.60478835470821,-83.03026613746687
"48314","Sterling Heights","MI","Walmart","44575 Mound Rd","48314",42.62180504352345,-83.05492809651805
"48314","Sterling Heights","MI","Hollywood Market","1495 North Rochester Road","48317",42.6209884252285,-83.0863162150699
"48314","Sterling Heights","MI","Kroger Grocery Pickup and Delivery","2051 18 Mile Rd","48314",42.594642639160156,-83.08842468261719
"48315","Utica","MI","Walmart Supercenter","51450 Shelby Pkwy","48315",42.67289143950137,-83.01041735046792
"48316","Utica","MI","Kroger Marketplace","7644 26 Mile Rd","48316",42.7107223,-83.0383289
"48316","Utica","MI","Vince & Joe's Gourmet Market","55178 Van Dyke Ave","48316",42.699658366472036,-83.03307848997187
"48316","Utica","MI","Balkan Market","52000 Van Dyke Ave","48316",42.67725272948605,-83.03374870448533
"48316","Utica","MI","Vim & Vigor health foods","51330 Van Dyke Ave","48316",42.67169952392578,-83.03388977050781
"48317","Utica","MI","ALDI","47342 Van Dyke Ave","48317",42.64307860004706,-83.03138494491583
"48317","Utica","MI","Cedar Valley DMG LLC","46691 Van Dyke Ave","48317",42.63825988769531,-83.03334045410156
"48317","Utica","MI","Krishna Foods","45557 Mound Rd","48317",42.62907028198242,-83.05280303955078
"48322","West Bloomfield","MI","Whole Foods Market","7350 Orchard Lake Rd","48322",42.52931128262043,-83.3626392480118
"48322","West Bloomfield","MI","Plum Market","6565 Orchard Lake Rd","48322",42.54208108426284,-83.35943592125301
"48322","West Bloomfield","MI","Busch's Fresh Food Market","33300 W 14 Mile Rd.","48322",42.52918175901089,-83.37874196189061
"48322","West Bloomfield","MI","Johnny Pomodoro's","32906 Middlebelt Rd","48334",42.5280716669224,-83.33920676260577
"48322","West Bloomfield","MI","Sinbad Fruit Market","6251 Haggerty Rd","48322",42.544503000000006,-83.437274
"48322","West Bloomfield","MI","Babylon Ethnic Foods","6609 Orchard Lake Rd","48322",42.54175449138628,-83.35928132399843
"48322","West Bloomfield","MI","Shell","6495 Orchard Lake Rd","48322",42.543031200145315,-83.36030413827555
"48322","West Bloomfield","MI","mediterranean market and bakery","32838 northwestern","not_available",42.526811,-83.35597
"48322","West Bloomfield","MI","Ishtar Ethnic Food","7380 Haggerty Rd","48322",42.52816199999999,-83.4361923
"48322","West Bloomfield","MI","6093 Haggerty RD, West Bloomfield, MI","6093 Haggerty Rd","48322",42.546958923339844,-83.43778228759766
"48323","West Bloomfield","MI","Walmart Supercenter","3301 Pontiac Trail Road","48390",42.559169409005236,-83.44225351645943
"48323","West Bloomfield","MI","Kroger","2905 Union Lake Rd","48382",42.5937436,-83.4437619
"48323","West Bloomfield","MI","Kroger","4395 Orchard Lake Rd","48323",42.5741134,-83.3611688
"48323","West Bloomfield","MI","Commerce Mediterranean Market","not_available","48324",42.588531494140625,-83.41279602050781
"48323","West Bloomfield","MI","ALDI","2155 Haggerty Hwy","48390",42.555566153507435,-83.44018311830956
"48324","West Bloomfield","MI","Food Castle","7770 Cooley Lake Rd","48327",42.615471,-83.438578
"48326","Auburn Hills","MI","Meijer","800 Brown Rd","48326",42.705603107569495,-83.28716039657593
"48326","Auburn Hills","MI","Carnival Market","1101 E Walton Blvd","48340",42.67833144757061,-83.26044312502833
"48326","Auburn Hills","MI","ALDI","475 Brown Rd.","48359",42.707786787698865,-83.29642017857361
"48326","Auburn Hills","MI","ALDI","2060 Dixie Hwy","48328",42.66620575954567,-83.32842886447906
"48326","Auburn Hills","MI","Joslyn Beverage","1124 Joslyn Ave","48340",42.668931,-83.280004
"48326","Auburn Hills","MI","Spices of india","Walton","not_available",42.67965,-83.228439
"48326","Auburn Hills","MI","super mercado la paloma panaderia","685 Martin Luther King Jr Blvd N","48342",42.654777,-83.276981
"48326","Auburn Hills","MI","Latino American Market","not_available","48342",42.64657389191053,-83.29444549416012
"48326","Auburn Hills","MI","Family Dollar","1220 Baldwin Ave","48340",42.670921325683594,-83.30010986328125
"48326","Auburn Hills","MI","Sav-Plus Marketplace","775 Baldwin Ave Ste B","48340",42.65741277115359,-83.30009937286377
"48326","Auburn Hills","MI","1249 Baldwin Road, Pontiac, MI","1249 Baldwin Ave","48340",42.67121887207031,-83.30145263671875
"48326","Auburn Hills","MI","Save-A-Lot","1249 Baldwin","48340",42.671152512984634,-83.30200642711486
"48326","Auburn Hills","MI","Pontiac Foodland","1925 N Perry St","48340",42.67743134105494,-83.2529728795214
"48326","Auburn Hills","MI","Walmart","not_available","48165",42.63359221902337,-83.2856063048733
"48326","Auburn Hills","MI","Huron Foods","1116 W Huron St","48328",42.635265941935465,-83.33343489078342
"48326","Auburn Hills","MI","People's Market","700 Auburn Ave","48342",42.63476498,-83.26508691
"48326","Auburn Hills","MI","Pontiac SuperMercado","Perry","not_available",42.65490769198238,-83.27632698723653
"48327","Waterford","MI","Kroger","5111 Highland Rd","48327",42.6587516,-83.3869381
"48327","Waterford","MI","VG's Grocery","7300 Highland Rd","48327",42.66101153127317,-83.4292177025659
"48327","Waterford","MI","ALDI","5038 Highland Rd","48327",42.66139141486766,-83.3872805611918
"48327","Waterford","MI","Oasis Health Foods","76 N Williams Lake Rd","48327",42.6451451,-83.44273799999999
"48327","Waterford","MI","Gordon Food Service, Waterford MI","Highland Rd","not_available",42.66159,-83.391131
"48328","Waterford","MI","Meijer","4200 Highland Rd","48328",42.6537136,-83.3698928
"48328","Waterford","MI","Gordon Food Service Store","4295 Highland Rd","48328",42.65232621194293,-83.3713191705972
"48328","Waterford","MI","Food Depot","3415 Elizabeth Lake Rd","48328",42.63894122777938,-83.35342591997498
"48329","Waterford","MI","Tenuta's Food Lane","3515 Sashabaw Rd","48329",42.690321999999995,-83.37340400000001
"48329","Waterford","MI","Clintonville Market","4494 Clintonville Rd","48329",42.705033445513116,-83.34850902944777
"48331","Farmington","MI","Busch's Fresh Food Market","24445 Drake Rd","48335",42.470851404873365,-83.39697035372006
"48331","Farmington","MI","Kroger","37550 W 12 Mile Rd","48331",42.4990858,-83.4187626
"48331","Farmington","MI","India Grocers - Michigan","24385 Halsted Rd","48335",42.471718,-83.41521
"48331","Farmington","MI","Gordon Food Service Store","39047 Grand River Ave","48335",42.47100639563423,-83.4329636589889
"48331","Farmington","MI","Vani Foods","38245 W 10 Mile Rd","48335",42.46870797789351,-83.42521416633288
"48331","Farmington","MI","Namaste Plaza","34703 Grand River Ave","48335",42.46842382777771,-83.38939781422334
"48331","Farmington","MI","Ishtar Arabic Ethnic Grocery","7480 Haggerty Road","48322",42.51329389278241,-83.43179032833473
"48331","Farmington","MI","Sri Balaji Foods Indian Restaurant & Grocery Store","24305 Halsted Rd","48335",42.46949005126953,-83.41654968261719
"48331","Farmington","MI","Gift of India","37033 Grand River Ave","48335",42.468355301924255,-83.41405193893999
"48331","Farmington","MI","China Merchandise","34701 Grand River Ave","48335",42.468353271484375,-83.39027404785156
"48334","Farmington","MI","ALDI","30790 Orchard Lake Rd","48334",42.52405348678323,-83.35838644047544
"48334","Farmington","MI","Heartland Marketplace","33250 W 12 Mile Rd","48334",42.49993147292023,-83.37668914717874
"48334","Farmington","MI","Gordon Food Service Store","29555 Orchard Lake Rd","48334",42.514622279403845,-83.35988586209747
"48334","Farmington","MI","Uri Oriental Market","Thirteen Mile Rd","not_available",42.51311651881313,-83.3618018011592
"48334","Farmington","MI","Orchard market place","31511 W 13 Mile Rd","48334",42.513385,-83.360775
"48334","Farmington","MI","Patel Brothers","28950 Orchard Lake Rd","48334",42.509847,-83.358225
"48334","Farmington","MI","Walmart","not_available","48334",42.49182555588264,-83.33610185803333
"48335","Farmington","MI","Fresh Thyme Farmers Market","23300 Farmington Rd","48336",42.4626512,-83.375625
"48335","Farmington","MI","Kroger","22455 Farmington Rd","48336",42.45584,-83.37674399999999
"48336","Farmington","MI","Kroger","25780 Middlebelt Rd","48336",42.4835966,-83.337125
"48336","Farmington","MI","Zamzam Market","24065 Orchard Lake Rd","48336",42.469260999999996,-83.35813900000001
"48336","Farmington","MI","Garden Of Eden Produce","22828 Orchard Lake Rd","48336",42.45887970729722,-83.3566403388977
"48346","Clarkston","MI","Kroger","5990 Sashabaw Rd","48346",42.7222985,-83.3764273
"48346","Clarkston","MI","Kroger","6625 Dixie Hwy","48346",42.7170104,-83.4159164
"48346","Clarkston","MI","Rudy's Quality Market","9 S Main St","48346",42.73555404561676,-83.41941101157411
"48346","Clarkston","MI","Eagle Noodle Factory","Gulick, Independence Township, MI 48346","48346",42.73073959350586,-83.39053344726562
"48348","Clarkston","MI","Kroger","9741 Dixie Hwy","48348",42.75709303851797,-83.48286149959706
"48348","Clarkston","MI","Cracker Barrel","5422-5492 Oak Hill Rd","48348",42.794652301972874,-83.37196098011583
"48353","Hartland","MI","Meijer","2160 Hartland Rd","48353",42.63873813862099,-83.74427588316394
"48353","Hartland","MI","Kroger","10059 E Highland Rd","48843",42.6350706,-83.7540498
"48353","Hartland","MI","Meijer Bottle Return Room","Highland Rd","48353",42.6380537588615,-83.74373837175774
"48356","Highland","MI","Colasanti's Market","468 S Milford Rd","48357",42.63495709151273,-83.61828467027962
"48356","Highland","MI","Wine Basket Market","3542 N Duck Lake Rd","48356",42.67259,-83.574439
"48357","Highland","MI","Save-A-Lot","722 W Highland Rd","48357",42.64246726563327,-83.62658363429024
"48359","Lake Orion","MI","Kroger","3097 S Baldwin Rd","48359",42.734231433253406,-83.30525994300848
"48362","Lake Orion","MI","Kroger","460 N Lapeer Rd","48362",42.7899932,-83.2443695
"48362","Lake Orion","MI","Lucky's Natural Foods","101 S Broadway St","48362",42.783698,-83.239506
"48371","Oxford","MI","Meijer","900 N Lapeer Rd","48371",42.8402318,-83.2708413
"48371","Oxford","MI","Oakwood Market","2487 W Oakwood Rd","48371",42.8673463,-83.335673
"48374","Novi","MI","Kroger","47650 Grand River Ave","48374",42.491871,-83.5184868
"48375","Novi","MI","Walmart Supercenter","26090 Ingersol Dr","48375",42.482048729039654,-83.47094683699882
"48375","Novi","MI","One World Market","42705 Grand River Ave #102B","48375",42.478400444154666,-83.46763533414506
"48375","Novi","MI","Better Health Market","42785 Market St","48375",42.47838051612065,-83.46879070280919
"48375","Novi","MI","Busch's Fresh Food Market","41840 W 10 Mile Rd","48375",42.467799685385,-83.457218609183
"48375","Novi","MI","Gordon food service marketplace","39247 Grand River","48335",42.48516781169222,-83.47403698610844
"48375","Novi","MI","SangDoe Korean Grocery","24257 Novi Rd","48375",42.46773910522461,-83.47553253173828
"48377","Novi","MI","Kroger","47060 W Pontiac Trl","48390",42.5263072,-83.5148631
"48377","Novi","MI","Gordon Food Service Stores","44055 W 12 Mile Rd","48377",42.49471664428711,-83.48296356201172
"48381","Milford","MI","Kroger","670 Highland Ave","48381",42.5938312,-83.6041899
"48381","Milford","MI","Milford Grocery","965 Summit","48381",42.59574622330996,-83.58886009529839
"48383","White Lake","MI","Kroger","10951 Highland Rd","48386",42.6480388,-83.5022846
"48383","White Lake","MI","Meijer","6001 Highland Rd","48383",42.6506906,-83.5316875
"48383","White Lake","MI","Kroger Gas Station","not_available","48386",42.646989,-83.500999
"48383","White Lake","MI","White Lake Supermarket","3393 Ormond Rd","48383",42.67198412959788,-83.55360450418085
"48383","White Lake","MI","The Country store","not_available","48383",42.67198828864384,-83.55363932136784
"48386","White Lake","MI","Walmart Supercenter","9190 Highland Rd","48386",42.66022022951846,-83.46772818760765
"48386","White Lake","MI","Lakeview Market","9775 Elizabeth Lake Rd","48386",42.63938113006215,-83.47730975906853
"48390","Walled Lake","MI","Meijer","1703 Haggerty Hwy","48390",42.5474983,-83.4421828
"48390","Walled Lake","MI","Kroger","39950 W 14 Mile Rd","48390",42.527682786857035,-83.44056576495859
"48390","Walled Lake","MI","Penny Lake Market","1270 S Commerce Rd","48390",42.54350784042544,-83.4775824421189
"48390","Walled Lake","MI","La Estrella Del Sur","not_available","48393",42.52542389636908,-83.52046433444896
"48390","Walled Lake","MI","Freshway Market","not_available","48390",42.537799,-83.476808
"48393","Wixom","MI","Meijer","49900 Grand River Ave","48393",42.4969482,-83.5413319
"48393","Wixom","MI","ALDI","28971 S Wixom Rd","48393",42.503171,-83.53704
"48393","Wixom","MI","Gordon Food Service Store","49200 Wixom Tech Dr","48393",42.51114441561298,-83.5362712762831
"48393","Wixom","MI","Al's Produce","49641 Grand River Ave","48393",42.4948616027832,-83.53925323486328
"48393","Wixom","MI","Little India Grocers","49833 Grand River Ave","48393",42.49435043334961,-83.5395278930664
"48412","Attica","MI","Rowley's Grocery","not_available","48412",43.03096389770508,-83.16596984863281
"48413","Bad Axe","MI","Walmart Supercenter","901 N Van Dyke Rd","48413",43.81759645547601,-83.00543546276393
"48413","Bad Axe","MI","Huron's Finest","1520 N Van Dyke Rd","48413",43.84595171424077,-82.99646135905193
"48413","Bad Axe","MI","Walmart Deli","not_available","48413",43.817605,-83.005219
"48413","Bad Axe","MI","McDonald's Food And Family","721 N Van Dyke Rd","48413",43.81014812755728,-83.00137790757401
"48415","Birch Run","MI","Meijer","9515 Birch Run Rd","48415",43.2523292,-83.7660398
"48415","Birch Run","MI","Rueckert's Market","Main Street","48415",43.25004298860795,-83.79239190186574
"48415","Birch Run","MI","Don's Foodland Inc.","7935 Main St","48415",43.25049808236754,-83.79535883324651
"48419","Carsonville","MI","IGA Supermarket","155-239 N Lakeshore Rd","48469",43.435536,-82.543497
"48420","Clio","MI","Walmart Supercenter","11493 N Linden Rd","48420",43.17511177977151,-83.7777452040002
"48420","Clio","MI","VG's Grocery","710 S. Mill","48420-1491",43.17118149683851,-83.73541814163937
"48420","Clio","MI","Simon's IGA","Birch Run Rd","not_available",43.17628858524141,-83.72761061653028
"48420","Clio","MI","Save-A-Lot","11972 N Saginaw St","48458",43.122501373291016,-83.69315338134766
"48420","Clio","MI","schwans","not_available","48420",43.17875,-83.746599
"48422","Croswell","MI","Rexfords (IGA)","not_available","48422",43.27440643310547,-82.6205062866211
"48423","Davison","MI","Meijer","8089 Lapeer Rd","48423",43.01479898756626,-83.5524952411651
"48423","Davison","MI","Kroger","700 N State Rd","48423",43.03635239485461,-83.5162827372551
"48423","Davison","MI","VG's Grocery","8503 Davison Rd","48423",43.03532823475719,-83.53799036216309
"48423","Davison","MI","VG's Grocery","8503 Davison","48423-2116",43.0347491,-83.5180063
"48423","Davison","MI","J Deans","not_available","48423",43.017513,-83.551409
"48427","Deckerville","MI","Deckerville Village Market","Black River","48427",43.52622985839844,-82.73715209960938
"48429","Durand","MI","Riverside Market","311 N Oak St","48429",42.9142275514834,-83.9881106647325
"48430","Fenton","MI","Walmart Supercenter","3700 Owen Rd","48430",42.79215806973133,-83.7442742060995
"48430","Fenton","MI","VG's Grocery","18005 Silver Parkway","48430-3421",42.79328359612386,-83.73822681036555
"48430","Fenton","MI","VG's Grocery","1390 N. Leroy","48430-2762",42.81412984864147,-83.7059201970277
"48430","Fenton","MI","VG's","18005 Silver Pkwy","48430",42.793128967285156,-83.73786926269531
"48430","Fenton","MI","Alpine Marketplace","604 W Broad St","48451",42.8130336115309,-83.78965660548685
"48430","Fenton","MI","VG's","not_available","48430",42.84721814174411,-83.75883521599533
"48430","Fenton","MI","V G'S Food Center 1354 N Leroy, Fenton, MI","1354 N Leroy St, Fenton, MI 48430","48430",42.802273155187194,-83.72594520938277
"48430","Fenton","MI","Runyan Lake Food Center","10005 Hartland Rd","48430",42.75281,-83.740802
"48430","Fenton","MI","Fenton Village Marketplace","15010-15110 Silver Pkwy","48430",42.80311889746709,-83.7362677417832
"48433","Flushing","MI","Kroger","1542 E Pierson Rd","48433",43.0593777,-83.8155149
"48433","Flushing","MI","ALDI","5340 W Pierson Rd","48433",43.0610749781933,-83.78582060337067
"48435","Fostoria","MI","Bryan's Supermarket","6002 N Lapeer Rd","48461",43.205335,-83.312437
"48435","Fostoria","MI","F B J Inc","6002 N Lapeer Rd Ste B","48461",43.2054622,-83.3124515
"48435","Fostoria","MI","Fostoria Grocery II","9294 Foster St","48435",43.2534242,-83.3724106
"48437","Genesee","MI","VG's Grocery","7461 N. Genesee","48437-0245",43.118718022387114,-83.61845848953423
"48439","Grand Blanc","MI","Kroger","12731 S Saginaw St","48439",42.92008584141768,-83.61882090568542
"48439","Grand Blanc","MI","Meijer","2474 W Hill Rd","48507",42.94615057162889,-83.72910088454431
"48439","Grand Blanc","MI","Walmart Supercenter","6170 S Saginaw Rd","48439",42.9384536323841,-83.64942435773017
"48439","Grand Blanc","MI","ALDI","6248 S Saginaw Rd","48439",42.93745422363281,-83.64469909667969
"48439","Grand Blanc","MI","Kroger","1200 E Bristol Rd","48529",42.9734053,-83.6861985
"48439","Grand Blanc","MI","Linden Market Place","6514 Linden Rd","48473",42.929223,-83.771198
"48439","Grand Blanc","MI","Mister Convenience Market","6012 Linden Rd","48473",42.942768,-83.772217
"48439","Grand Blanc","MI","Kroger","5186 Fenton Rd","48507",42.9544481,-83.6931965
"48441","Harbor Beach","MI","Sandman's Grocery","not_available","48441",43.84482412343233,-82.65220799619235
"48442","Holly","MI","Holly Foods","15191 N Holly Rd","48442",42.80871545801591,-83.62727476754081
"48442","Holly","MI","Food Castle","16853 Dixie Hwy","48350",42.788391318111415,-83.50708779298878
"48444","Imlay City","MI","Armando's Grocery Store","not_available","48444",43.024837,-83.07756
"48444","Imlay City","MI","Kroger","1821 S Cedar St","48444",43.0120693,-83.069795
"48444","Imlay City","MI","Save A Lot","875 Main","48446",43.03922577377039,-83.07284150901798
"48446","Lapeer","MI","Meijer","1555 Demille Rd","48446",43.04095543507831,-83.32646012306213
"48446","Lapeer","MI","Kroger","540 S Main St","48446",43.0441057,-83.3227103
"48446","Lapeer","MI","Walmart Supercenter","555 E Genesee St","48446",43.05321829,-83.2996168
"48446","Lapeer","MI","ALDI","815 East St","48446",43.040141573051876,-83.31906097420494
"48446","Lapeer","MI","slaterville market","not_available","48446",43.1031379699707,-83.28742980957031
"48449","Lennon","MI","ALDI","E. M-21","not_available",42.99705124829806,-83.98588886259927
"48449","Lennon","MI","Lennon Supermarket","11921 E Lennon Rd","48449",42.98468017578125,-83.93000030517578
"48450","Lexington","MI","Foleys Market","7256-7298 Huron Ave","48450",43.268194399426314,-82.53081468317633
"48451","Linden","MI","Northshore Market","16177 Seymour Rd","48451",42.791142,-83.84562199999999
"48451","Linden","MI","Richardson Meat Processing","4402 Cohoctah Rd","48451",42.7631366,-83.8674455
"48455","Metamora","MI","Metamora Foodland","3755-3905 S Lapeer Rd","48455",42.945006581501275,-83.31228713174548
"48457","Montrose","MI","Riverside Market","Vienna Road/M 57","48457",43.1769756712274,-83.88209261767585
"48458","Mount Morris","MI","Kroger","7188 N Saginaw Rd","48458",43.1102096,-83.6925835
"48460","New Lothrop","MI","Tip’n Point Diner","not_available","48460",43.116351,-83.974029
"48460","New Lothrop","MI","Tip’n Point","9390 Genesee St","48460",43.11661911010742,-83.97328186035156
"48462","Ortonville","MI","Bueche's Food World","400 N Ortonville Rd","48462",42.85700545131124,-83.45412734371006
"48462","Ortonville","MI","Toms market","465 South St","48462",42.844996,-83.447573
"48463","Otisville","MI","Denny's Supermarket","410 N State Rd","48463",43.172194,-83.522554
"48467","Port Austin","MI","Port Austin Market","8677 Lake St","48467",44.04537937679604,-82.99420921991201
"48468","Port Hope","MI","North Shore Grocery","4504 Main St","48468",43.94245147705078,-82.71404266357422
"48471","Sandusky","MI","Walmart Supercenter","655 W Sanilac Rd","48471",43.41834037224525,-82.85614717838179
"48471","Sandusky","MI","Jerry's Foodland","35 Kristian St","48471",43.421918068031424,-82.8423651072637
"48473","Swartz Creek","MI","Meijer","4141 Morrish Rd","48473",42.9682504,-83.8268451
"48473","Swartz Creek","MI","Kroger","7084 Miller Rd","48473",42.9639442,-83.8147409
"48473","Swartz Creek","MI","Walmart Supercenter","4313 Corunna Rd","48532",43.0001957,-83.76427976
"48473","Swartz Creek","MI","Gordon Food Service Store","2195 S Linden Rd","48532",42.99651030725116,-83.77137422561646
"48473","Swartz Creek","MI","Kroger","5249 Corunna Rd","48532",43.000394,-83.7820441
"48473","Swartz Creek","MI","Dale's Natural Foods","4290 Miller Rd","48507",42.9809379,-83.76199629999999
"48473","Swartz Creek","MI","Kroger","3288 Corunna Rd","48532",43.0027777,-83.7443432
"48473","Swartz Creek","MI","A.K. Groceries Indian & Pakistani Groceries","G-5316 Corunna Rd.","48532",43.007672,-83.788791
"48473","Swartz Creek","MI","Sindbad's","G-5342 Corunna Road","48532",43.00238511877558,-83.78536376723373
"48473","Swartz Creek","MI","VG's grocery","5080 Corunna Rd","48532",43.00304758379762,-83.77553426461097
"48473","Swartz Creek","MI","ALDI","4270 Corunna Rd","48532",43.00310551815071,-83.76369616607917
"48473","Swartz Creek","MI","Lucky Star Food Market","3917 W Court St","48532",43.006588,-83.737037
"48502","Flint","MI","The Grainery Organic  Foods","809 Church St","48502",43.011798999999996,-83.690513
"48502","Flint","MI","The Local Grocer","601 M L King Ave","48502",43.021136763741055,-83.69542101253725
"48503","Flint","MI","Gordon Food Service Store","2170 S Center Rd","48519",42.999126182034075,-83.63449495623371
"48503","Flint","MI","Save-A-Lot","2918 Flushing Rd","48504",43.025393,-83.732118
"48503","Flint","MI","Save-a-Lot","not_available","48506",43.033899312988076,-83.69222279955937
"48503","Flint","MI","Ojibwa Vitamin Co.","2480 S Center Rd","48519",42.99113082885742,-83.63452911376953
"48503","Flint","MI","Mr. B's Market Inc","2510 Fenton Rd","48507",42.997321,-83.69359200000001
"48503","Flint","MI","Woodcroft Market","2856 Miller Rd","48503",42.996514000000005,-83.724197
"48503","Flint","MI","Save-A-Lot","1918 N Dort Hwy","48506",43.034138,-83.654607
"48503","Flint","MI","Kroger","1916 Davison Rd","48506",43.03260406902531,-83.66481494351284
"48503","Flint","MI","mr b fenton","not_available","48507",42.99763107299805,-83.69364929199219
"48503","Flint","MI","Maxi Quality Meats","not_available","48503",43.009485999999995,-83.6448
"48504","Flint","MI","Landmark Food Center","206 W Pierson Rd","48505",43.060985,-83.70605
"48505","Flint","MI","Kroger","3838 Richfield Rd","48506",43.0496835,-83.6366337
"48505","Flint","MI","hanibals store","not_available","48505",43.076072692871094,-83.67393493652344
"48506","Flint","MI","ALDI","1054 N Center Rd","48509",43.0205578,-83.6340899
"48506","Flint","MI","Walmart Supercenter","5323 E Court St N","48509",43.02259357452588,-83.60148398158645
"48506","Flint","MI","Sams Beer Beer","5016 Richfield Rd","48506",43.050938,-83.615422
"48507","Flint","MI","Save a lot","Fenton Rd, Flint Township, MI 48507","48507",42.97735709587923,-83.69172964641757
"48519","Burton","MI","Meijer","2333 S Center Rd","48519",42.9933395,-83.6316467
"48601","Saginaw","MI","Meijer","3360 Tittabawassee Rd","48604",43.4825824,-83.9825552
"48601","Saginaw","MI","Walmart Supercenter","5650 Bay Rd","48604",43.48946808806799,-83.96965032268638
"48601","Saginaw","MI","Kroger","4672 State St","48603",43.4377329,-84.0090631
"48601","Saginaw","MI","Walmart Supercenter","5825 Brockway Rd","48638",43.43334713947446,-84.03158105019125
"48601","Saginaw","MI","ALDI","5275 Bay Rd","48604",43.48393263128623,-83.9755397162844
"48601","Saginaw","MI","Gordon Food Service Store","3800 Bay Rd","48603",43.46250910284547,-83.97496212875727
"48601","Saginaw","MI","Bill's Party Store","2422 Mackinaw St","48602",43.42625045776367,-83.98422241210938
"48601","Saginaw","MI","Grains & Greens Inc.","3641 Bay Rd","48603",43.460587,-83.976274
"48601","Saginaw","MI","Saginaw Supermarket","not_available","48601",43.397009,-83.935272
"48601","Saginaw","MI","Save-A-Lot","3805 N Michigan Ave","48604",43.461871514213954,-83.94905642282971
"48601","Saginaw","MI","Dom's Food Market","2326 N Michigan Ave","48602",43.438492,-83.949089
"48601","Saginaw","MI","Kroger","6370 Dixie Hwy","48722",43.3530577,-83.8712838
"48601","Saginaw","MI","Save-A-Lot","321 N Michigan Ave","48602",43.419198375736485,-83.96335688901196
"48601","Saginaw","MI","Save-A-Lot","3355 Holland Ave","48601",43.41507721,-83.89749908
"48601","Saginaw","MI","ALDI","6015 State St","48603",43.436120685411545,-84.03548061847692
"48601","Saginaw","MI","Heritage Natural Foods","717 Gratiot Ave, Saginaw, MI 48602","48602",43.41482778445743,-83.9710854139818
"48601","Saginaw","MI","Bridgeport Liquor and Wine","5974 Dixie Hwy","48601",43.364544,-83.885615
"48601","Saginaw","MI","Smokin' Vapor Saginaw LLC","3085 Bay Rd #11","48603",43.45321,-83.977065
"48601","Saginaw","MI","Shorthorn Meat Market","915 E Genesee Ave","48607",43.428498,-83.931362
"48601","Saginaw","MI","Save-A-Lot","3355 E Holland Rd","48601",43.41485595703125,-83.8974609375
"48601","Saginaw","MI","Discount Health & Gourmet Foods","3585 Bay Rd","48603",43.459590911865234,-83.97624969482422
"48601","Saginaw","MI","Kroger","3860 Dixie Hwy","48601",43.39670817360104,-83.91175444544973
"48601","Saginaw","MI","Food Value","1122 E Genesee Ave","48607",43.426023,-83.92891
"48601","Saginaw","MI","Kroger","5025 Gratiot Rd","48638",43.4377082,-84.0091737
"48602","Saginaw","MI","Food Depot","290 W Genesee Ave","48602",43.4357795715332,-83.94534301757812
"48603","Saginaw","MI","Nutritional Foods","not_available","48603",43.46035655321293,-83.97577227034459
"48609","Saginaw","MI","Meijer","8400 Gratiot Rd","48609",43.4182003,-84.079524
"48610","Alger","MI","Food pride","not_available","48756",44.18308386308215,-84.05050642384764
"48611","Auburn","MI","Auburn Food Center","985 W Midland Rd","48611",43.6027830284591,-84.08863138834087
"48612","Beaverton","MI","Fruchey Foods","360 N Ross St","48612",43.88814095329502,-84.49143173809364
"48612","Beaverton","MI","frucheys","not_available","48612",43.84335084340705,-84.35474664100856
"48612","Beaverton","MI","Edenville Market","6650 N. M30","48620",43.80381556452059,-84.38547989138948
"48613","Bentley","MI","Estey Supermarket","4002 Estey Rd","48652",43.869873046875,-84.20779418945312
"48614","Brant","MI","Nixon's Grocery","15998 W Brant Rd","48614",43.25927114892073,-84.22896489621905
"48616","Chesaning","MI","Frank's Supermarket","1045 W Broad St","48616",43.18563044072144,-84.12654700265624
"48617","Clare","MI","Glen's Market","10350 S Clare Ave","48617",43.83784866333008,-84.77043151855469
"48617","Clare","MI","Witbeck's Family Foods","1026 N McEwan St","48617",43.825319932818616,-84.76719978544268
"48617","Clare","MI","Surrey Amish Store","not_available","48617",43.857964,-84.650185
"48621","Fairview","MI","IGA","m33","48621",44.74349,-84.054329
"48621","Fairview","MI","Bill's IGA","1852-1998 Michigan 33","48621",44.72528705024864,-84.05137860474245
"48622","Farwell","MI","Carrows Super Market","2545 W Cadillac Dr","48622",43.85989460787739,-84.9036084858139
"48623","Freeland","MI","Pat's Food Center","7620 Midland Rd","48623",43.51988213963781,-84.11932311194202
"48624","Gladwin","MI","711","not_available","48415",43.98639,-84.48655
"48624","Gladwin","MI","Chappel Dam Grocery","4001 Pratt Lake Rd","48624",44.00910629421132,-84.5256120908029
"48624","Gladwin","MI","Save-A-Lot","160 Robertson Dr","48624",43.98226446892108,-84.46926148957395
"48625","Harrison","MI","Save a lot","24715 north first street","not_available",44.02001236175118,-84.79834556027389
"48625","Harrison","MI","Save-A-Lot","158 N First","48625",44.031203,-85.028574
"48625","Harrison","MI","Steve's Country Market","3170 N Clare Ave","48625",44.03342819213867,-84.80712127685547
"48625","Harrison","MI","Save A Lot","158 N 1st St","48625",44.0207992,-84.7985517
"48625","Harrison","MI","Glen's Markets","1570 N Clare Ave","48625",44.009498596191406,-84.78768157958984
"48626","Hemlock","MI","Midpoint Market And Deli","13405 Gratiot Rd","48626",43.416194915771484,-84.17928314208984
"48626","Hemlock","MI","Ric's Food Center","176 Hemlock Plaza Dr","48626",43.41342607490657,-84.2271510492069
"48629","Houghton Lake","MI","Walmart Supercenter","2129 W Houghton Lake Dr","48629",44.29672399599785,-84.6796990459396
"48629","Houghton Lake","MI","Bart's Fruit Market","431 W Houghton Lake Dr","48651",44.3010836606075,-84.64668908632318
"48629","Houghton Lake","MI","Glen's Market","3561 W Houghton Lake Dr","48629",44.297734763244904,-84.71106242229588
"48629","Houghton Lake","MI","Save-A-Lot","725 S Loxley Rd","48629",44.32255304939555,-84.77390404497184
"48629","Houghton Lake","MI","natural living and more","4376 W Houghton Lake Dr","48629",44.29851150512695,-84.72642517089844
"48629","Houghton Lake","MI","Naural Living And More","4376 W Houghton Lake Dr","not_available",44.29848569999999,-84.72162473333333
"48631","Kawkawlin","MI","Blue Knight Salvage Foods","3286 S Huron Rd","48706",43.6439401845337,-83.935447358322
"48631","Kawkawlin","MI","Beson's Supermarket","1480 S Huron Rd","48631",43.6961218540969,-83.96828055381775
"48631","Kawkawlin","MI","Linwood Party Store","211 W Center St","48634",43.73841857910156,-83.96210479736328
"48634","Linwood","MI","Ricker’s Market","not_available","48634",43.753355,-83.977407
"48634","Linwood","MI","Linda's Grocery Inc","493 N Garfield Rd","48634",43.75344,-84.08756
"48640","Midland","MI","Jack's Fruit & Meat Market","2000 S Saginaw Rd","48640",43.61281095785532,-84.21292944333415
"48640","Midland","MI","Kroger","2808 Ashman St","48640",43.6245056,-84.2283588
"48640","Midland","MI","Nature's Gift Organic Market","4306 N Saginaw Rd","48640",43.64179310250109,-84.27983556675026
"48640","Midland","MI","Health Hut","212 E Main St","48640",43.61231716282325,-84.24463405512228
"48640","Midland","MI","A2z Mart","152 Ashman Cir","48640",43.62630081176758,-84.22804260253906
"48640","Midland","MI","Save-A-Lot","1826 S Saginaw Rd","48640",43.613465000000005,-84.215182
"48642","Midland","MI","Meijer","7300 Eastman Ave","48642",43.66334593451453,-84.24389954660519
"48642","Midland","MI","Walmart Supercenter","910 Joe Mann Blvd","48642",43.66174677120836,-84.23849009792885
"48642","Midland","MI","ALDI","1200 Joe Mann Blvd","48642",43.662010159899225,-84.24137345176064
"48642","Midland","MI","Meijer Express Gas Station","7140 Eastman Ave","48642",43.6603381,-84.2471814
"48642","Midland","MI","Gordon Food Service Store","1511 Joe Mann Blvd","48642",43.66150745676822,-84.24490213394165
"48642","Midland","MI","Meijer","7300 Eastman Ave.","48642",43.66262435913086,-84.24645233154297
"48647","Mio","MI","Country Corner Bulk Foods","1284 W Kittle Rd","48647",44.69612121582031,-84.18216705322266
"48650","Pinconning","MI","Pinny Food Center","484 N Huron Rd","48650",43.850625122139085,-83.9664338729129
"48653","Roscommon","MI","Louie's Fresh Market #10","1025 N St Helen Rd","48656",44.34951455283694,-84.41084528388403
"48653","Roscommon","MI","Silver Dollar Express","9963 W Higgins Lake Dr","48653",44.50036582219171,-84.77866702840232
"48653","Roscommon","MI","Oak Park Grocery","East Higgins Lake Drive","48653",44.46851090379363,-84.67341818807108
