"zip","city","state","name","address","postalCode","lat","lon"
"07001","Avenel","NJ","Merrill Park","not_available","not_available",40.57773418996244,-74.26938991668626
"07001","Avenel","NJ","Bucknell Park","Lyon Avenue","07095",40.570445,-74.277754
"07001","Avenel","NJ","Howard Field","Stockton St","not_available",40.597615992517966,-74.26495455707256
"07001","Avenel","NJ","Woodbridge river watch","not_available","07001",40.585667671649034,-74.26385429613816
"07001","Avenel","NJ","Dinosaur Park","West Carteret","07008",40.59190582414338,-74.24645553939794
"07001","Avenel","NJ","joseph medwick park","Pauline St","07008",40.59606842719404,-74.2475501739998
"07001","Avenel","NJ","Avenel Park","Tappen Street","07001",40.57232810225212,-74.28317666318438
"07001","Avenel","NJ","withers court","not_available","07065",40.60064429230657,-74.27376213589052
"07002","Bayonne","NJ","Stephen R. Gregg Bayonne County Park","not_available","07002",40.680614633454965,-74.11436095833778
"07002","Bayonne","NJ","Richard A. Rutkowski Park","W 48th St","07002",40.68822059080597,-74.11102294921875
"07002","Bayonne","NJ","Mayor Dennis P. Collins Korean War Vets Memorial City Park","150 W 1st St","07002",40.645957946777344,-74.1363296508789
"07002","Bayonne","NJ","Harbor View 9/11 Memorial Park","Port Terminal Blvd","07002",40.66370421387951,-74.0697440331153
"07002","Bayonne","NJ","Caven Point Fields","Caven Point Road","07305",40.692332619444194,-74.08222707061971
"07002","Bayonne","NJ","The Sigmund Mackiewicz Park","630 Avenue E","07002",40.675315856933594,-74.10494232177734
"07002","Bayonne","NJ","Mcgovern Park","Sycamore Rd.","not_available",40.69653403911029,-74.10277285875159
"07002","Bayonne","NJ","Hudson River Waterfront Walkway","125 Lefante Way","07002",40.667781829833984,-74.10282135009766
"07002","Bayonne","NJ","Columbia Park","Kennedy Blvd.","07305",40.69720264154945,-74.09736991237509
"07002","Bayonne","NJ","Bayonne Golf Club","1 Lefante Way","07002",40.66224114742597,-74.09440426618583
"07002","Bayonne","NJ","Gorman Field","W 1st St","07002",40.64568175698232,-74.13580253702264
"07002","Bayonne","NJ","Sister Mariam Theresa Park","2-98 Gregg Ln","07002",40.66386666,-74.11589983
"07002","Bayonne","NJ","Park K","W 27th","07002",40.6673344,-74.1159019
"07002","Bayonne","NJ","Library Park","not_available","07305",40.68877302715048,-74.08746984373221
"07002","Bayonne","NJ","NY Waterway Ferry Terminal Port Liberte","7 Chapel Avenue","07310",40.68760890338602,-74.0747357853437
"07002","Bayonne","NJ","terry collins park","5th Street Connection","07002",40.65156895923087,-74.12089347839355
"07002","Bayonne","NJ","Dr. David G. Morris Park","47th St & Broadway","07002",40.68148802314053,-74.10404040648343
"07003","Bloomfield","NJ","Brookdale Park","473 Watchung Ave","07003",40.8343983191928,-74.19007301330566
"07003","Bloomfield","NJ","Essex County Branch Brook Park","Branch Brook Park Dr","07104",40.77381437268857,-74.17543888092041
"07003","Bloomfield","NJ","Anderson Park","N Mountain Ave","07043",40.83865173469906,-74.21037197113037
"07003","Bloomfield","NJ","Watsessing Park","Glenwood Ave","07003",40.78694245799992,-74.20431574155432
"07003","Bloomfield","NJ","Belleville Park","343-361 Belleville Ave","07109",40.79045814933345,-74.16277987269
"07003","Bloomfield","NJ","The Circle Of Life","not_available","07042",40.826611858066286,-74.19690932900929
"07003","Bloomfield","NJ","Sunset Park","Norwood Ave.","07043",40.84597661648707,-74.20123741576766
"07003","Bloomfield","NJ","Belleville Park","Belleville Ave","07109",40.788767748719884,-74.181840723151
"07003","Bloomfield","NJ","Upper Lot","not_available","07003",40.835005141453095,-74.18993258368795
"07003","Bloomfield","NJ","Booth Park","not_available","07110",40.81091800643827,-74.16276025618896
"07003","Bloomfield","NJ","Yantacaw Brook Park","Club Road","not_available",40.840823411359494,-74.19061479143299
"07003","Bloomfield","NJ","Essex Park","Chestnut Street","not_available",40.818184540442005,-74.2099964648886
"07003","Bloomfield","NJ","Small Dog Park","Branch Brook Park","07107",40.774097,-74.17736
"07003","Bloomfield","NJ","Fairway Park","Fairway Ave","07109",40.80422849169501,-74.17529030894735
"07003","Bloomfield","NJ","Fine Art and Craft Fair","Brookdale Park","07042",40.83130365759256,-74.18819552235676
"07003","Bloomfield","NJ","Wrights Field","Weaver Ave. (Dead End)","07003",40.79136977624381,-74.18365500781024
"07003","Bloomfield","NJ","Allwood Park","not_available","07012",40.844472623512445,-74.16741258480693
"07003","Bloomfield","NJ","Felton Field","Floyd Ave","07003",40.777834885171885,-74.19595469990978
"07003","Bloomfield","NJ","Green Garden Park","not_available","07043",40.837317,-74.20662
"07003","Bloomfield","NJ","Duckies","53 Morris Pl","07003",40.811771,-74.192174
"07003","Bloomfield","NJ","Cherry Blossom Land","Branch Brook Park","not_available",40.779241646011506,-74.17410924497943
"07003","Bloomfield","NJ","Massfield (Massy) Park","Willet St, Bloomfield, NJ","07003",40.79680252075195,-74.18036651611328
"07003","Bloomfield","NJ","Reinheimer Park and Field, (Dog Park).","69 Bloomfielld Avenue","07110",40.81078015034205,-74.17409204496319
"07004","Fairfield","NJ","Beverly Road Park","Beverly Road","07004",40.86557,-74.2806
"07004","Fairfield","NJ","Fairfield Park","not_available","07004",40.88864500413151,-74.30416420426846
"07004","Fairfield","NJ","Memorial Park","Fairmount Road","07006",40.85226,-74.283192
"07004","Fairfield","NJ","Memorial Park","Fairmount Rd & Westover Terr","07006",40.84557533951877,-74.28440859511886
"07004","Fairfield","NJ","Crane Park","not_available","07006",40.845575339518795,-74.28440859511879
"07004","Fairfield","NJ","Kyocera Park","Sand road","07004",40.891996,-74.27672
"07004","Fairfield","NJ","North Cove Sewer Pump Station","Pal Drive","07470",40.90534693783721,-74.25492016113637
"07004","Fairfield","NJ","McCoog Park","Demarest Dr","07470",40.90223915671461,-74.26314943799193
"07004","Fairfield","NJ","Richard Park","22 Parkview Ave","07006",40.849727,-74.310701
"07005","Boonton","NJ","Volunteer's Park","not_available","07054",40.876039,-74.37931743333333
"07005","Boonton","NJ","Tourne County Park","89 Old Boonton Rd","07834",40.910139657334305,-74.43778038024902
"07005","Boonton","NJ","Gracelord Park","not_available","07005",40.907492079528176,-74.4188620813381
"07005","Boonton","NJ","Rotary Park","not_available","07834",40.894367,-74.477602
"07005","Boonton","NJ","Hidden Tree House","not_available","07045",40.93756103333333,-74.39347995
"07005","Boonton","NJ","Smoke Rise Field","not_available","07405",40.991192,-74.403614
"07005","Boonton","NJ","Chief Hiawatha Park Gazebo","Beverwyck Rd","07054",40.88114903705128,-74.38239192457775
"07005","Boonton","NJ","Parsippany RC Airfield","251 Vail Rd","07054",40.86959375,-74.40212796666667
"07005","Boonton","NJ","Park","2-46 River Dr","07034",40.87886964003628,-74.37427688803082
"07005","Boonton","NJ","Griffith Park","1 North Main St.","07005",40.91561508178711,-74.42684936523438
"07005","Boonton","NJ","Forest Drive Mini Park","33 Forest Drive","07054",40.8784065246582,-74.42432403564453
"07005","Boonton","NJ","Children's Day","1 Country Club Road","07878",40.869178771972656,-74.4784927368164
"07005","Boonton","NJ","Mt. Tabor Camp","Country Club Rd.","not_available",40.87514303635175,-74.47721362378682
"07005","Boonton","NJ","Richard Wilcox Memorial Park","West Shore Road","07046",40.893632948526914,-74.45284665
"07005","Boonton","NJ","Wildcat Ridge","Upper Hibernia Rd","07866",40.952592870697515,-74.47725941355375
"07006","Caldwell","NJ","Verona Park","Bloomfield Ave & Lakeside Ave","07044",40.826989240346414,-74.24618044695073
"07006","Caldwell","NJ","Morningside Rd","Morningside rd","07649",40.827339471151475,-74.25184841409066
"07006","Caldwell","NJ","Verona Tennis Courts","not_available","07044",40.84247312569993,-74.24746993922507
"07006","Caldwell","NJ","Essex Fells Dog Park","not_available","07021",40.830306214943136,-74.29168541812773
"07006","Caldwell","NJ","Grover Cleveland Tennis Courts","10 Brookside Ave, Caldwell, NJ 07006","07006",40.8397216796875,-74.27738189697266
"07006","Caldwell","NJ","Verona Boat House","Lake View Ave","not_available",40.82751046368041,-74.24616325365906
"07008","Carteret","NJ","Carteret Park","Carteret Ave","07008",40.57903418979453,-74.22860806146463
"07008","Carteret","NJ","Carteret Waterfront Park","Industrial Hwy","07008",40.57361638258093,-74.22113957487102
"07008","Carteret","NJ","Shorecrest park","Sycamore st","not_available",40.58071507229832,-74.24072020339736
"07008","Carteret","NJ","THE POND","CARTERET AVE","07008",40.59112747308217,-74.22920415168973
"07008","Carteret","NJ","John St Soccer Field","48 Leffert St","07008",40.586207275212885,-74.2154265011604
"07008","Carteret","NJ","The Hut","not_available","07008",40.57910713188752,-74.22973719227186
"07008","Carteret","NJ","Grant Ave Park","Grant Ave","07008",40.586236,-74.223095
"07008","Carteret","NJ","Volleyball Court At Carteret Waterfront Park","100 Middlesex Ave","07008",40.57121276855469,-74.21943664550781
"07008","Carteret","NJ","Hart Street Park","Hart Street","07008",40.586523333796016,-74.23407023894295
"07009","Cedar Grove","NJ","Cedar Grove Community Park","597 Pompton Ave","07009",40.857132260551616,-74.2178723748549
"07009","Cedar Grove","NJ","Mills Reservation","Normal Ave.","not_available",40.85379389104646,-74.20919968377275
"07009","Cedar Grove","NJ","Tank Park","First Ave & Main St","not_available",40.8798641782991,-74.22389658798454
"07009","Cedar Grove","NJ","Edgemont Road Island","Edgemont road","07043",40.83493841573911,-74.21203759073755
"07009","Cedar Grove","NJ","Barbara Savittieri Park","Walnut St","07424",40.880613186446006,-74.23466957676281
"07009","Cedar Grove","NJ","Little Falls Monument Park","Main Street","07424",40.88032488684887,-74.22431500839923
"07009","Cedar Grove","NJ","Jurassic Park","not_available","07424",40.88055,-74.209418
"07010","Cliffside Park","NJ","Christopher Park","not_available","07010",40.831913,-73.985102
"07010","Cliffside Park","NJ","Abbott Park","Abbott Blvd","not_available",40.832531331006436,-73.98175229133057
"07010","Cliffside Park","NJ","Undercliff Ave Park","157-187 Undercliff Ave","07020",40.819074,-73.981065
"07011","Clifton","NJ","Main Memorial Park","not_available","07011",40.88159268774445,-74.14848804473877
"07011","Clifton","NJ","3rd Ward Park","Passaic County 614","07055",40.8493976983769,-74.13449764251709
"07011","Clifton","NJ","Sperling Park","not_available","07013",40.860172952282284,-74.15498184286166
"07011","Clifton","NJ","Memorial Field","Washington ave.","07070",40.8414382376219,-74.11886287846322
"07011","Clifton","NJ","Zula","not_available","07503",40.893326,-74.150929
"07011","Clifton","NJ","Mount Prospect Park","Harrington Rd","07012",40.85410141332626,-74.15909302429476
"07011","Clifton","NJ","Athenia Steel Park","1061 Paulison Ave","07011",40.874919750201016,-74.15972947522458
"07011","Clifton","NJ","Samuel Hird Park","191 Mahar Ave","07011",40.877490216666665,-74.13350051666667
"07011","Clifton","NJ","Weasel Brook Park","Park Drive","not_available",40.87064307393028,-74.14752167022623
"07011","Clifton","NJ","Shevchenko Park","not_available","07055",40.84857,-74.12395
"07011","Clifton","NJ","Zelenka Park","South Parkway","07014",40.83461131827436,-74.12553579455341
"07011","Clifton","NJ","Dunney Park","Cherry St","07014",40.83519010846119,-74.1345507352846
"07011","Clifton","NJ","Curie Park","Curie Ave and E. Seventh St","07011",40.885855220347594,-74.14374300366958
"07011","Clifton","NJ","Dundee Island Park","4 Ackerman Ave","07011",40.879356384277344,-74.1224136352539
"07011","Clifton","NJ","Knollcroft Park","189 Knollwood Ter","07012",40.842926025390625,-74.16815948486328
"07011","Clifton","NJ","Memorial Field 1","Washington ave","07070",40.84562413083433,-74.12797308284091
"07012","Clifton","NJ","Jubilee Park","1325 Clifton Avenue","07012",40.85393922790994,-74.17187896290366
"07013","Clifton","NJ","Albion Memorial Park","Maplewood Ave.","07013",40.89161920987547,-74.17257843728838
"07013","Clifton","NJ","Holster Park","699 Grove St","07013",40.85932540893555,-74.18620300292969
"07013","Clifton","NJ","Maple Valley Park","Stony Hill Road","07013",40.87640981964244,-74.18382126598883
"07013","Clifton","NJ","Clifton Skate Zone","85 Third Street","not_available",40.87071511390047,-74.14746181630642
"07014","Clifton","NJ","Nutley Memorial Park","Vreeland Ave.","07110",40.82077384314675,-74.15400707243892
"07014","Clifton","NJ","Kingsland Park","149 Chestnut St","07110",40.826790616661114,-74.14668686872346
"07014","Clifton","NJ","Hillside Park","Paterson Ave","07014",40.83196303479632,-74.14453983306885
"07014","Clifton","NJ","Delawanna Memorial Park","379 Main Ave.","07014",40.834820426058684,-74.13793087005615
"07016","Cranford","NJ","Nomahegan Park","1033 Springfield Ave","07016",40.6685725472315,-74.31757593602832
"07016","Cranford","NJ","Hanson Park","38 Springfield Ave","07016",40.658850374596575,-74.30410118225309
"07016","Cranford","NJ","Winfield Park","Wavecrest Ave & Pacific Dr","07036",40.633730980210366,-74.28977742893824
"07016","Cranford","NJ","Memorial Park","350 Springfield Ave","07016",40.661285400390625,-74.30754089355469
"07016","Cranford","NJ","Unami Park","Lexington Ave","07016",40.64444468102855,-74.31854983768075
"07016","Cranford","NJ","McConnell Park","Eastman St.","07016",40.658112592534714,-74.30936058047982
"07016","Cranford","NJ","Nomahegan Park","not_available","07016",40.66283181882367,-74.29100931614266
"07016","Cranford","NJ","Lincoln Park","15 Lincoln Ave W","07016",40.6518197285514,-74.30955537007395
"07016","Cranford","NJ","DiMario Park","Michigan Ave","07033",40.67398223000241,-74.28340315818787
"07016","Cranford","NJ","Josiah Crane Park September 11 Memorial","Springfield ave","07016",40.65817,-74.302216
"07016","Cranford","NJ","Al Kalla Park","Wickersham Avenue","07036",40.63966746372125,-74.28435702604246
"07016","Cranford","NJ","Brokeback Park","not_available","07066",40.634459,-74.302523
"07016","Cranford","NJ","Madan Plastics Inc","370 North Ave E","07016",40.658024,-74.288452
"07016","Cranford","NJ","Theodore Roosevelt Park","Pacific Ave","07016",40.667683,-74.29993
"07016","Cranford","NJ","JJs  Park","369 S Union Ave","07016",40.644844,-74.315097
"07016","Cranford","NJ","Union Cty Park","Lexington ave","07016",40.63917213333333,-74.30533475
"07016","Cranford","NJ","Robert Wood Bauer  Prominade &Amphitheatre","not_available","07036",40.63514372072117,-74.30022242150181
"07016","Cranford","NJ","Rahway River Pkwy","Parkway Dr","07036",40.64018140451129,-74.2880355834754
"07016","Cranford","NJ","New Jersey League For Nursing","332 North Ave #3","07027",40.6536865234375,-74.32453918457031
"07016","Cranford","NJ","Cranford Clay Courts","249 springfield ave","07016",40.660475168358815,-74.30677673398274
"07017","East Orange","NJ","The Corner","n.park st.","07017",40.78278001736024,-74.22050906710511
"07017","East Orange","NJ","Soverel Park","Springdale Ave","07017",40.77891072835188,-74.21883534509968
"07017","East Orange","NJ","Oval Park","120 Eaton Pl","07017",40.761486575839534,-74.20849733086406
"07017","East Orange","NJ","Rowley Park","William Street","07017",40.76485723462456,-74.20944043814211
"07017","East Orange","NJ","Meadowland Park","South Orange Ave","07079",40.78634981933969,-74.19835394672802
"07018","East Orange","NJ","Monte Irvin Orange Park","Center Street & Harrison Street","07050",40.76215937198493,-74.23134203629618
"07018","East Orange","NJ","Orange Park Nj","170-188 Oxford St","07050",40.75689297757417,-74.23306149647047
"07018","East Orange","NJ","Mount Irvine Orange Park","central ave","07050",40.7633523287782,-74.23405304451543
"07018","East Orange","NJ","Elmwood Park","100 Oak St.","07018",40.74956244142331,-74.21512556052352
"07020","Edgewater","NJ","Riverside Park","Riverside Dr","10025",40.806809433439135,-73.96865129470825
"07020","Edgewater","NJ","Morningside Park","W 110th to W 123rd St","10026",40.806144282339694,-73.95879685878754
"07020","Edgewater","NJ","West Harlem Piers Park","Henry Hudson Pkwy","10027",40.81879256812002,-73.96102935944113
"07020","Edgewater","NJ","Central Park - North End","110th St.","10026",40.80017712692229,-73.9545119042229
"07020","Edgewater","NJ","Central Park - Frederick Douglass Circle Gate","8th Ave","not_available",40.800336362096516,-73.9580512046814
"07020","Edgewater","NJ","Central Park - Harlem Hill","485 Central Park W","10025",40.79943612884563,-73.95719101885652
"07020","Edgewater","NJ","Riverside Park At 120th","not_available","10027",40.81136722246801,-73.96416326533786
"07020","Edgewater","NJ","Central Park - Strangers' Gate","West 106th St. at Central Park West","10025",40.79823664125415,-73.95989861532688
"07020","Edgewater","NJ","Straus Park","2765 Broadway","10025",40.80178554332782,-73.96800956990768
"07020","Edgewater","NJ","Central Park - Warriors' Gate","West 110th St. at Adam Clayton Powell Blvd.","10026",40.799356,-73.955362
"07020","Edgewater","NJ","Sakura Park","500 Riverside Dr","10027",40.813078,-73.962124
"07020","Edgewater","NJ","North Woods","Central Park","10028",40.79797006896165,-73.95535826683044
"07020","Edgewater","NJ","The Blockhouse","Central Park","not_available",40.79867185026651,-73.95629167556763
"07020","Edgewater","NJ","Riverside Park @ 115th St.","Riverside Dr.","10025",40.80664047899827,-73.96651381236042
"07020","Edgewater","NJ","Riverside Park 113th street","113th street","10025",40.80558540695187,-73.96814084177105
"07020","Edgewater","NJ","Hudson Beach","W 105th St & Riverside Park","10025",40.802677389986954,-73.97190669296666
"07020","Edgewater","NJ","Roosevelt Triangle","W 125th St","10027",40.81150498512449,-73.95439403540375
"07020","Edgewater","NJ","Peter Jay Sharp Volunteer House","107th St.","10025",40.8031665858551,-73.97079251377671
"07020","Edgewater","NJ","Lafayette Square","114th St","10026",40.803625362931285,-73.95794145219658
"07020","Edgewater","NJ","Ray of Hope Walk","103st Riversideside park","10024",40.80084790966158,-73.97295055755025
"07020","Edgewater","NJ","467 Central Park West","467 Central Park W","10025",40.798524084867,-73.95993004088623
"07022","Fairview","NJ","James L. Braddock Park Futbol Field","not_available","07047",40.80911082195772,-74.0009971830031
"07022","Fairview","NJ","88th Street Park","1400 88th Street","07047",40.81071422218749,-74.00992194429868
"07022","Fairview","NJ","Columbus Park","6th St","07022",40.81556843716556,-73.99894848914475
"07022","Fairview","NJ","Underground Celebrity Fit Qlub","Parade Ground Field 11","11226",40.819426,-74.006717
"07022","Fairview","NJ","English Neighborhood Park","Sedore Avenue","not_available",40.82283804053238,-74.00729656219482
"07023","Fanwood","NJ","Forest Road Park","158 Forest Rd","07023",40.64704307144758,-74.38952207565308
"07023","Fanwood","NJ","La Grande Park","170-204 La Grande Ave","07023",40.63813935368942,-74.38434474713779
"07023","Fanwood","NJ","Fanwood Nature Center","Cray Ter","07023",40.63330649431005,-74.38671512778923
"07024","Fort Lee","NJ","Fort Washington Park","Hudson River Greenway","10032",40.83809978015759,-73.948974609375
"07024","Fort Lee","NJ","Fort Lee Historic Park","Hudson Terrace","07024",40.85158964859852,-73.96267667529972
"07024","Fort Lee","NJ","Constitution Park","not_available","07024",40.85341373601288,-73.97460462531375
"07024","Fort Lee","NJ","Ralph Ellison Memorial Park","Riverside Drive","10031",40.83017710272145,-73.94976854324341
"07024","Fort Lee","NJ","Wood Park","370 Broad Ave","07605",40.863107211193665,-73.98846365422825
"07024","Fort Lee","NJ","Riverside Park @ 158th St","not_available","10031",40.831784765431074,-73.95156993559155
"07024","Fort Lee","NJ","Fort Lee Recreation Center (William T. Birch Park)","Bottom of Stillwell Ave.","07024",40.85046174678497,-73.98238023614168
"07024","Fort Lee","NJ","Veterans and Fallen Heroes Park","62 W Bayview Ave","07632",40.868772,-73.963365
"07024","Fort Lee","NJ","Central Green","200 Park Ave","07024",40.851383209228516,-73.96691131591797
"07024","Fort Lee","NJ","Riverside Park Baseball Fields at 148th","148th street","not_available",40.83507758260061,-73.94992826510612
"07024","Fort Lee","NJ","Gallo Memorial Park","Fletcher","not_available",40.861889,-73.967689
"07024","Fort Lee","NJ","Coytesville Park","2389 6th Street","07024",40.86119431649648,-73.96211417878344
"07024","Fort Lee","NJ","Parrott Park","not_available","07020",40.83192174539376,-73.97328918456358
"07024","Fort Lee","NJ","Edgewater Ballfield","1167 River Rd","07020",40.83295822143555,-73.97016143798828
"07024","Fort Lee","NJ","Monument Park","1589 Parker Ave","07024",40.848407,-73.968834
"07024","Fort Lee","NJ","East River Running Path","not_available","07632",40.86710943588883,-73.95402093515294
"07026","Garfield","NJ","20th Century Park","Elizabeth Street","07026",40.879024910794975,-74.099325773949
"07026","Garfield","NJ","Centre Field","Elizabeth street","07026",40.88150395937483,-74.09727240554739
"07026","Garfield","NJ","Dahnert's Lake County Park","493 Midland Ave","07026",40.880355722384216,-74.10209032950851
"07026","Garfield","NJ","Belmont Hill County Park","Palisade Ave","07026",40.87876087756476,-74.11094581039681
"07026","Garfield","NJ","Vanish Ville","not_available","07026",40.867132,-74.105006
"07026","Garfield","NJ","kern park","Kern Pl, Saddle Brook, NJ 07663","07663",40.88756445981566,-74.09908846189342
"07027","Garwood","NJ","Standard Nipple Works","15 North Ave","07027",40.654259,-74.314774
"07027","Garwood","NJ","Gumbert Park","650 4th Ave","07027",40.65301513671875,-74.33238983154297
"07027","Garwood","NJ","Park","375 s union avenue","07016",40.64510601666667,-74.31541941666667
"07028","Glen Ridge","NJ","Carteret Park","not_available","07028",40.78833677682769,-74.21277084131738
"07028","Glen Ridge","NJ","Rand park","Park St.","07042",40.82220782863612,-74.2121575013648
"07028","Glen Ridge","NJ","Lackwanna Plaza","294 Bloomfield Ave","07042",40.81118969579874,-74.21266766277662
"07028","Glen Ridge","NJ","George Washington Field","98 Baldwin Street","not_available",40.8081792858292,-74.20570297772944
"07028","Glen Ridge","NJ","Rand Tennis Courts","155-175 N Fullerton Ave","07042",40.82098416558936,-74.2115212306581
"07028","Glen Ridge","NJ","Crane Park","Lackawanna Plaza","07042",40.812315605765974,-74.20573737188225
"07029","Harrison","NJ","West Hudson Park","West Hudson Park","07029",40.75273294104006,-74.15312404070916
"07029","Harrison","NJ","skel park","not_available","07102",40.734435779812735,-74.16507328358153
"07029","Harrison","NJ","Harrison Little League","728 Harrison Ave","07029",40.747624,-74.14958100000001
"07029","Harrison","NJ","Sculpture in Memory of 9/11","not_available","07029",40.746621,-74.154891
"07029","Harrison","NJ","West Hudson Park's Lake","not_available","07032",40.75093154735795,-74.14885790636845
"07029","Harrison","NJ","Friends In Need Feeding Program","Behind Penn Station","07105",40.734021718952846,-74.16303783821047
"07029","Harrison","NJ","Mother Cabrini Park","not_available","07105",40.733837,-74.163574
"07029","Harrison","NJ","Patterson St Courts","Harrison ave","07029",40.74724254,-74.15266696
"07030","Hoboken","NJ","Pier A Park","Sinatra Dr","07030",40.73681963035856,-74.02708053588867
"07030","Hoboken","NJ","Maxwell Place Park","Sinatra Dr N","07030",40.749263889958904,-74.02369202909293
"07030","Hoboken","NJ","Church Square Park","401 Willow Ave.","07030",40.74215230390258,-74.03223037719727
"07030","Hoboken","NJ","Hudson River Waterfront Walkway","Frank Sinatra Dr","07030",40.736288,-74.025192
"07030","Hoboken","NJ","Columbus Park","900 Clinton St","07030",40.74863449076696,-74.0329356037609
"07030","Hoboken","NJ","Frank Sinatra Park","401 Sinatra Drive","07030",40.73988771619932,-74.02733080525252
"07030","Hoboken","NJ","Riverview Park","Palisade Ave","07307",40.74466404012713,-74.04337227344513
"07030","Hoboken","NJ","Pier C Park","Sinatra St.","07030",40.74026640724124,-74.02596473693848
"07030","Hoboken","NJ","Washington Park","North St","07307",40.75249840989771,-74.04250575933146
"07030","Hoboken","NJ","Hoboken Riverside Park","Hoboken Riverside Park","07030",40.73877065807578,-74.02697324752808
"07030","Hoboken","NJ","Stevens Park","401 Hudson Street","07030",40.739891929934885,-74.02736091458088
"07030","Hoboken","NJ","Hoboken-Weehawken Walkway","not_available","07086",40.75724871440686,-74.02708311322114
"07030","Hoboken","NJ","Elysian Park","1001 Hudson St","07030",40.74881130714083,-74.02584947707624
"07030","Hoboken","NJ","Southwest Park","not_available","07030",40.73780244602375,-74.04210317792159
"07030","Hoboken","NJ","Shipyard Gym","1 14th St","07030",40.752897534506246,-74.02415195682488
"07030","Hoboken","NJ","Harbourside Park","1501 Park Ave","07030",40.75599670410156,-74.02774810791016
"07030","Hoboken","NJ","Hudson County Pedestrian & Bike Path","1632-1636 Harbor Blvd","07030",40.757930755615234,-74.02320861816406
"07030","Hoboken","NJ","Castle Point Skate/Skateboard Park","901 Sinatra Dr","07030",40.7462941955984,-74.02297744183191
"07030","Hoboken","NJ","Firefighters Memorial Park","9th Street","07087",40.757129218620584,-74.03571260496545
"07030","Hoboken","NJ","Madison Street Park","305 Monroe St","07030",40.74158079905317,-74.03856766935793
"07030","Hoboken","NJ","700 Grove Courtyard","700 Grove St","07310",40.73636552851092,-74.03958675546468
"07030","Hoboken","NJ","Shipyard","1 Independence Ct","07030",40.75173116748973,-74.02480023313268
"07030","Hoboken","NJ","Hoboken Beach","Maxwell Pl","07030",40.748301418767156,-74.02365803718567
"07030","Hoboken","NJ","Spin For Life","Pier A","not_available",40.73719944264058,-74.02503469905812
"07031","North Arlington","NJ","Richard W. DeKorte Park","1186-1258 Disposal Rd","07071",40.78443597459498,-74.10651812214897
"07031","North Arlington","NJ","Lewandowski Park","Lewandowski Street","not_available",40.800001749733056,-74.12088066666179
"07031","North Arlington","NJ","Riverside County Park (South)","Riverside Ave","07071",40.80413344757914,-74.13534783698681
"07031","North Arlington","NJ","Fisher Field","not_available","07031",40.79835145119832,-74.13457492012904
"07031","North Arlington","NJ","Riverside County Park Track","Riverside Ave","not_available",40.804802335606084,-74.13556001456462
"07031","North Arlington","NJ","County Park Lynhurst","not_available","07109",40.79426516587178,-74.14358817819395
"07031","North Arlington","NJ","Mary Rusignola parlk","River Road","07031",40.797610978538586,-74.13796276545104
"07031","North Arlington","NJ","Terrys","41 Hedden Ter","07031",40.785724,-74.138611
"07032","Kearny","NJ","Ironbound Recreation Center","82-116 St Charles St","07105",40.726189492219646,-74.14224390609427
"07032","Kearny","NJ","Lincoln Park","Kennedy Blvd.","07304",40.72413655548345,-74.08368587493896
"07032","Kearny","NJ","Laurel Hill Park","1500 New County Rd","07094",40.76396539191608,-74.08357506231091
"07032","Kearny","NJ","Independence Park","214-218 Adams St","07105",40.72333841011769,-74.16010790447471
"07032","Kearny","NJ","Lincoln Park Nature Walk","Rt 440","07306",40.72704254400727,-74.08944875191051
"07032","Kearny","NJ","Riverfront Park","Raymond Blvd","07105",40.73296618251578,-74.15078401565552
"07032","Kearny","NJ","Frank A. Vincent Marina & Park","277 Passaic Ave","07032",40.76361083984375,-74.15869140625
"07032","Kearny","NJ","Gallo Center - Lincoln Park","West Side Ave.","07302",40.722753,-74.081944
"07032","Kearny","NJ","Rubin Square","47th St","07032",40.75822,-74.14223
"07032","Kearny","NJ","Kearny river bank park","not_available","07104",40.76677802982523,-74.15263665127263
"07032","Kearny","NJ","Town Hall Park","400 Kearny Ave","07032",40.76408949049281,-74.14945310676899
"07033","Kenilworth","NJ","Blackbrook Park","N 15th street","not_available",40.683514238330204,-74.29537528630334
"07033","Kenilworth","NJ","Willaim F. Stanton Memorial Park","Chestnut St.","not_available",40.67503,-74.26987
"07033","Kenilworth","NJ","Bicentennial Park","Tucker Ave","not_available",40.67294398164349,-74.2707709304122
"07035","Lincoln Park","NJ","Greenview Park","29 Hillview Rd","07440",40.94525984644808,-74.30988765772148
"07035","Lincoln Park","NJ","Greenview Park Tennis Courts","Greenview Park, Pequannock, NJ","07440",40.944812235845525,-74.3114975254478
"07035","Lincoln Park","NJ","Greenview Park","not_available","07444",40.95815338333333,-74.30805265
"07035","Lincoln Park","NJ","lyman park","not_available","07440",40.94982782102279,-74.28305944229807
"07035","Lincoln Park","NJ","Lyn-Park Playground","W William St","07035",40.92919114577307,-74.30605173110962
"07036","Linden","NJ","Rahway River Park","Rahway River Park","07065",40.621083365612925,-74.28652864449222
"07036","Linden","NJ","Second Ward Park","N Stiles St.","07036",40.62662856721735,-74.2625076135729
"07036","Linden","NJ","Jackson’s Pond","Union County Parkway","07066",40.628249,-74.284547
"07036","Linden","NJ","Rahway Park","not_available","07083",40.63001598621245,-74.2825864788832
"07036","Linden","NJ","Rahway Arts District Park","Central Ave","07065",40.610435,-74.277145
"07036","Linden","NJ","Mattano Park","5th Ave","07206",40.648573441952394,-74.20732498168945
"07036","Linden","NJ","Wheeler Park","Routes 1 & 9","not_available",40.62549574977919,-74.2473954354742
"07036","Linden","NJ","Green Field Park","Madison Ave","not_available",40.604885,-74.293729
"07036","Linden","NJ","Wheeler Park","Stiles Street","07036",40.624224547497576,-74.24702291626505
"07036","Linden","NJ","Fifth Ward Park","Dill Avenue","07036",40.65051722441978,-74.2356865079355
"07036","Linden","NJ","Memorial Field Park","2601 Tremley Road","07036",40.61669444715872,-74.23365184074943
"07036","Linden","NJ","Hagel Park","Hagel Ave","07036",40.651595,-74.231094
"07036","Linden","NJ","Union County Mantano Park","412-428 5th Ave","07206",40.65083991681272,-74.20601252487378
"07036","Linden","NJ","Bladder Cancer Awareness 5k Walk","Wilson Park","not_available",40.63676,-74.267564
"07036","Linden","NJ","Mattano Park Utility Room","5th Street!","not_available",40.64868919215423,-74.20590361019704
"07039","Livingston","NJ","South Mountain Reservation","not_available","07052",40.773731,-74.286945
"07039","Livingston","NJ","Becker Park","not_available","07068",40.81458046449481,-74.32038305008706
"07039","Livingston","NJ","Northland Park","Jefferson Court","07039",40.80328841744953,-74.31848682067375
"07040","Maplewood","NJ","Memorial Park","Valley Street","07040",40.730102815693435,-74.27421482363023
"07040","Maplewood","NJ","Milo S. Borden Park","not_available","07040",40.73013593247328,-74.25010620627417
"07040","Maplewood","NJ","Grove Park","not_available","07079",40.746514017899884,-74.2504214095754
"07040","Maplewood","NJ","Spiotta Park","south orange ave","07079",40.74581619715059,-74.25883987192478
"07040","Maplewood","NJ","Ricalton Square","Ricalton Sq","07040",40.73127921264184,-74.27612364292145
"07040","Maplewood","NJ","Carter Park","Irvington Ave.& College Pl.","07079",40.73951,-74.2519
"07040","Maplewood","NJ","Boyden Park","1 Windsor Avenue","07040",40.71843663924601,-74.28464352072656
"07040","Maplewood","NJ","Ivy Hill Park!","not_available","07106",40.7378745447765,-74.24737251123706
"07040","Maplewood","NJ","Park Bench","12 Sloan St","07079",40.74631425970135,-74.25997993037858
"07040","Maplewood","NJ","Skatehouse","Meade Street","07079",40.74981,-74.260284
"07040","Maplewood","NJ","Chyzowych Soccer Field","parker Ave","07040",40.7374699792888,-74.2691445350647
"07040","Maplewood","NJ","wildflower sculpture park","not_available","07041",40.739594,-74.289746
"07041","Millburn","NJ","South Mountain Reservation","not_available","07081",40.7299190687951,-74.30788246437928
"07041","Millburn","NJ","Millburn Clock","Millburn Ave","07041",40.72406992259574,-74.30721973465211
"07041","Millburn","NJ","South Mountain Reservation (Glen Ave Entrance)","159-199 Glen Ave","07041",40.727539259216584,-74.30444493843433
"07042","Montclair","NJ","Edgemont Memorial Park","Edgemont Rd","07043",40.83043687764923,-74.21324729919434
"07042","Montclair","NJ","Kip's Castle","20 Crestmont Rd","07044",40.82900033758542,-74.2245901336324
"07042","Montclair","NJ","Watchung Park","276 Midland","07042",40.83043687764923,-74.2074966430664
"07047","North Bergen","NJ","Pier 84","W 44th St","10036",40.76318618108141,-74.00068759918213
"07047","North Bergen","NJ","James J Braddock North Hudson County Park","912 90th St","07047",40.80046938248798,-73.99959695763839
"07047","North Bergen","NJ","DeWitt Clinton Park","11 Avenue A","10009",40.767891329368,-73.99372049041526
"07047","North Bergen","NJ","Old Glory Park","Kennedy Blvd E","07093",40.7785469461102,-74.01258587837219
"07047","North Bergen","NJ","Pier 84 Dog Run","700 W 44th St.","10036",40.76359452114081,-74.00046544175518
"07047","North Bergen","NJ","Weehawken Waterfront Park and Recreation Center","Port Imperial Blvd","07086",40.76515268719494,-74.018497467041
"07047","North Bergen","NJ","Buchmuller Park","Plaza Center Drive","07094",40.79070112602164,-74.05613149787843
"07047","North Bergen","NJ","Railroad Park In Riverside Park","not_available","10023",40.77477734455835,-73.99264170482361
"07047","North Bergen","NJ","Dewitt Clinton Park Dog Run","W 52nd St","10019",40.76736435809469,-73.99379768555553
"07047","North Bergen","NJ","Hamilton Park","773 Boulevard E","07086",40.771710757445916,-74.01586890220642
"07047","North Bergen","NJ","Donnelly Memorial Park","John F. Kennedy Blvd E","07093",40.784229650991364,-74.00845527648926
"07047","North Bergen","NJ","Pier 95 Park","Hudson River","10019",40.7710247674433,-73.99504615452122
"07047","North Bergen","NJ","Weehawken Dueling Grounds","Weehawken Dueling Grounds","07086",40.77026459089994,-74.01695563858985
"07047","North Bergen","NJ","Lincoln Harbor Park","Harbor Blvd","07086",40.763043,-74.020183
"07047","North Bergen","NJ","Clinton Cove Park","54th St","10019",40.77020682849771,-73.99553775787354
"07047","North Bergen","NJ","Manhattan Plaza Park","43rd Street","not_available",40.75989807538225,-73.99444862120194
"07047","North Bergen","NJ","James L Braddock Park Tennis Courts","James J Braddock Park","not_available",40.7991920012849,-73.99993553766092
"07047","North Bergen","NJ","Hell's Kitchen Park & Playground","692 10th Ave","10019",40.76192972020586,-73.99197745490221
"07047","North Bergen","NJ","Auf Der Heide Park","not_available","07093",40.78648141292403,-74.00444605508368
"07047","North Bergen","NJ","Union City / Weehawken Reservoir Park","225 Highpoint Ave","07086",40.76323308689403,-74.03103643291495
"07047","North Bergen","NJ","Schmidt's Woods","Mill Ridge Road","07094",40.80139222861909,-74.04849546763327
"07047","North Bergen","NJ","Monarch Park","46 radio Ave","07094",40.79629898071289,-74.0535888671875
"07047","North Bergen","NJ","Pershing Park","1500 Ave at PI","070086",40.772789,-74.013739
"07047","North Bergen","NJ","Silver Towers park","42nd","10036",40.76090118304381,-73.99933871823583
"07050","Orange","NJ","Colgate Park","New Street","07050",40.77348223261874,-74.22596575362145
"07050","Orange","NJ","Park","park ave","not_available",40.78109,-74.23652350902557
"07052","West Orange","NJ","Eagle Rock Reservation","Eagle Rock Avenue","07052",40.80333046932138,-74.23836306392259
"07052","West Orange","NJ","Degnan Park","610 Pleasant Valley Way","07052",40.80255763043359,-74.25929008200372
"07052","West Orange","NJ","Turtle Back Rock","Walker Rd.","07052",40.76559961228778,-74.27476644515991
"07052","West Orange","NJ","Ridgeway Park","Ridgeway Ave","07052",40.776604,-74.266365
"07052","West Orange","NJ","O'Connor Park","Ralph Rd.","07052",40.795666702055534,-74.2768907546997
"07052","West Orange","NJ","Stagg field","St. Cloud Ave.","07052",40.77289071083986,-74.27764309857348
"07052","West Orange","NJ","Joseph G. Minish Park","Lancaster Terrace","07052",40.794499,-74.265748
"07052","West Orange","NJ","Westwood Drive","Westwood Drive","07052",40.79157298400908,-74.27521705627441
"07052","West Orange","NJ","Degnan field","Pleasant Valley Way","07052",40.80369101,-74.26084
"07054","Parsippany","NJ","Malapardis Park","193 Malapardis Road","07927",40.830529170307585,-74.45134050158359
"07054","Parsippany","NJ","Walrus Pond (Jim Fear Park)","Jim Fear Drive","07950",40.83236001247286,-74.46653855915747
"07054","Parsippany","NJ","Smith Field","Rte. 46 East","07054",40.86205614391296,-74.39612422391069
"07054","Parsippany","NJ","Little Park","7 Braemar Ct","07054",40.860769,-74.44314200000001
"07054","Parsippany","NJ","Old Troy Park","Reynolds Rd.","07054",40.842433218403535,-74.40306441680065
"07054","Parsippany","NJ","Bee Meadow park","not_available","07981",40.83540311042626,-74.4109777391149
"07054","Parsippany","NJ","Cameron Dog Park","129 S Beverwyck Rd","07054",40.858758,-74.386188
"07054","Parsippany","NJ","Lake Parsippany Park","Warren Drive","07410",40.85025299779825,-74.44649173106724
"07054","Parsippany","NJ","Governor Livingston Park","Parsippany Road","07054",40.85129973637487,-74.44041701963893
"07054","Parsippany","NJ","Normandy Park","33 Trouville Drive","07054",40.84097000993837,-74.4066603840089
"07054","Parsippany","NJ","Hanover Township Day","210 Malapardis Rd","07927",40.8319091796875,-74.45030975341797
"07054","Parsippany","NJ","Brickyard Footbal Field","22 Howell St","07981",40.836579,-74.41054799999999
"07054","Parsippany","NJ","Mirror Pond","Elmwood dr","07054",40.85151562993809,-74.44799160109405
"07055","Passaic","NJ","Samuel Nelkin County Park","211-213 Paterson Ave","07057",40.84935577953808,-74.10926536588438
"07055","Passaic","NJ","Sesselman Park","not_available","07073",40.84893089216344,-74.11630988053875
"07055","Passaic","NJ","McKenzie Field","Paterson Ave","07073",40.84651173338235,-74.11390467431087
"07055","Passaic","NJ","softball fields","40 Grant St","07073",40.847899,-74.114487
"07055","Passaic","NJ","Wallington Engine 3 Wetdown","not_available","07057",40.855973,-74.113353
"07059","Warren","NJ","Washington Rock State Park","Washington Rock State Park","08812",40.613112929794575,-74.4729007466151
"07059","Warren","NJ","Columbia Park - Dunellen","Orange St","08812",40.58990221410749,-74.45856475098229
"07059","Warren","NJ","Forest Lodge","11 Reinman Rd","07059",40.6373562258196,-74.50226456624236
"07059","Warren","NJ","Mountain Park","1 Mountain Rd","07920",40.62794304992957,-74.57208395004272
"07059","Warren","NJ","East County Park","not_available","07059",40.637206,-74.48848
"07059","Warren","NJ","Washington Memorial Park","1st St.","08812",40.59427268097558,-74.46464538574219
"07059","Warren","NJ","Greenwood Meadows Park","13-17 Crosswood Way","07059",40.62238119448722,-74.56157811242865
"07059","Warren","NJ","Pleasant Valley Park","3405 Valley Rd","07920",40.66505766084235,-74.56398661827114
"07059","Warren","NJ","Washington Valley Park","700-728 Newmans Ln","08807",40.59579574024693,-74.57325419056792
"07059","Warren","NJ","Duderstadt Fields","Dubois Rd","07059",40.63295283524984,-74.49574605671728
"07059","Warren","NJ","Warren Municipal Recreation Area","19 Strait Lane","07059",40.61541748046875,-74.48712158203125
"07059","Warren","NJ","Riverside Park","Valley Road","07933",40.66991337787991,-74.4760001906186
"07059","Warren","NJ","Mountain View Park","not_available","07920",40.62597423764761,-74.57043964700031
"07060","Plainfield","NJ","Green Brook Park","Park Dr","07063",40.610469093459955,-74.44057227250256
"07060","Plainfield","NJ","Green Acres Park","not_available","07060",40.61996651124442,-74.43904943972004
"07060","Plainfield","NJ","Green Brook Park","West end avenue","07060",40.635525584220886,-74.42010462284088
"07060","Plainfield","NJ","North Plainfield Farmers Market","270 Somerset St","07060",40.620973,-74.42824244499207
"07062","Plainfield","NJ","Scotch Plains Park","not_available","07076",40.642633320693015,-74.40294989435891
"07063","Plainfield","NJ","Rushmore Park Soccer Field","Rushmore Street","07060",40.597546203372104,-74.44673216910365
"07065","Rahway","NJ","Milton Lake Park","Midwood Drive","07065",40.60760798308989,-74.30091686103037
"07065","Rahway","NJ","Cpl. R Knosky Park","N. Stiles St","07036",40.62732549197796,-74.26518377726572
"07065","Rahway","NJ","Lower Essex St. Park","Essex St.","07065",40.603574,-74.271263
"07065","Rahway","NJ","Berzinec Park","Central Avenue","07065",40.609501426280396,-74.28545716316847
"07065","Rahway","NJ","Greenfield","Madison Ave","07065",40.61487859789369,-74.29251621796831
"07065","Rahway","NJ","Union/Allen St. Conservation","1900 Allen St","07065",40.61322300683683,-74.27227706427183
"07065","Rahway","NJ","lifetrail","Essex Street","07065",40.604449985490994,-74.26814069194194
"07066","Clark","NJ","Tamaques Park","not_available","07090",40.629108172723534,-74.33948172464342
"07066","Clark","NJ","Oak Ridge Park","136 Oak Ridge Rd","07066",40.604950265138385,-74.34599451716792
"07066","Clark","NJ","Remembrance Park","Claridge Pl","07067",40.605071724919505,-74.32135120787316
"07066","Clark","NJ","Bloodgood’s Pond","Union County Parkway Dr.","07066",40.628901,-74.29752
"07066","Clark","NJ","Westfield Avenue Park","Westfield Ave.","07066",40.62621677706756,-74.31444168090819
"07066","Clark","NJ","Bloodgood’s Pond","Union County Parkway Dr","07066",40.628945,-74.297656
"07067","Colonia","NJ","Merrill Park","300 Fairview Ave","not_available",40.57769093378818,-74.30862152393759
"07067","Colonia","NJ","The park at lynn crest school","not_available","07067",40.58980801712372,-74.33079190655023
"07067","Colonia","NJ","Kennedy park","Kennedy St","08830",40.57987629864767,-74.32841950279293
"07067","Colonia","NJ","Charlie Shaughnessy Park","Inman Ave","07067",40.59791225209881,-74.3272287882373
"07069","Watchung","NJ","The Grove","200 Connell Dr","07922",40.66405487060547,-74.4150619506836
"07070","Rutherford","NJ","Lyndhurst Town Hall Park","not_available","07071",40.813709651733575,-74.12337374990527
"07070","Rutherford","NJ","Rutherford Waterfront Park","Riverside Ave","07070",40.83009592284781,-74.12029266357422
"07070","Rutherford","NJ","Lincoln Park","176 Park Ave","07070",40.825437805216644,-74.10808594607009
"07070","Rutherford","NJ","Thomas J. Albino Park","Orient Way","not_available",40.80603790283203,-74.11334228515625
"07070","Rutherford","NJ","yoga sun","57 park ave","not_available",40.82729721069336,-74.10397338867188
"07070","Rutherford","NJ","Lawrence L Sass Pathway To Education","6th St","07072",40.837711334228516,-74.08939361572266
"07070","Rutherford","NJ","Union Park","not_available","07070",40.827812,-74.10466
"07072","Carlstadt","NJ","Bolero Park Beer Garden","not_available","07072",40.83137,-74.080696
"07072","Carlstadt","NJ","Joseph St Park","19 E Joseph St","07074",40.839665000000004,-74.04674399999999
"07072","Carlstadt","NJ","Willow Lake Park","not_available","07643",40.84795104486261,-74.03318854223109
"07073","East Rutherford","NJ","9th St. Park","not_available","07094",40.795830261709725,-74.06563208521519
"07073","East Rutherford","NJ","Snipes Park","45 Meadowlands Pkwy","07094",40.794843,-74.070308
"07076","Scotch Plains","NJ","Watchung Reservation","W R Tracy Road","07069",40.67423773508356,-74.3665171335372
"07076","Scotch Plains","NJ","Mindowaskin Park","E Broad St","07090",40.65550851091938,-74.3474006652832
"07076","Scotch Plains","NJ","Echo Lake Park Service Yard","Park Dr","07092",40.674903040791186,-74.34576187425903
"07076","Scotch Plains","NJ","Echo Lake Park","not_available","07092",40.67820133604225,-74.33151941562596
"07076","Scotch Plains","NJ","Brookside Park","1221-1231 Hetfield Ave","07076",40.64122059048564,-74.36502747404576
"07076","Scotch Plains","NJ","Lindquist Park","not_available","08820",40.60154868701038,-74.34204791904477
"07076","Scotch Plains","NJ","Cacciola Place Mini Park","South Ave E","07090",40.649564,-74.339008
"07076","Scotch Plains","NJ","Jerseyland Park","2354 Beryllium Rd","07076",40.65494546472429,-74.37058863406381
"07077","Sewaren","NJ","Alvin P. Williams Memorial Park","not_available","07077",40.55390369586428,-74.25305190322197
"07078","Short Hills","NJ","Martin's Brook Park","not_available","07901",40.73104653817975,-74.37020709809761
"07078","Short Hills","NJ","Old Short Hills Park","not_available","07078",40.74207123020041,-74.31164075142033
"07078","Short Hills","NJ","Shepherd Kollock Park","not_available","07928",40.737928,-74.37224716666667
"07078","Short Hills","NJ","Greenwood Gardens","274 Old Short Hills Rd","07078",40.74436569213867,-74.30974578857422
"07079","South Orange","NJ","Flood's Hill","Meadow Brook Lane","07079",40.75260203768385,-74.25921249733145
"07080","South Plainfield","NJ","Putnam Park","Putnam Ave","07080",40.578021689762984,-74.39026616949349
"07080","South Plainfield","NJ","Spring Lake Park & Playground","Lakeview Ave","07080",40.588869259155715,-74.40812623515292
"07080","South Plainfield","NJ","Walnut Street Park","Walnut Street","07080",40.585617115365245,-74.43345529706724
"07080","South Plainfield","NJ","Pitt Street Park","Pitt St.","07080",40.57536747166596,-74.42085792290153
"07080","South Plainfield","NJ","South Plainfield Dog Park","not_available","07080",40.576748,-74.41979
"07080","South Plainfield","NJ","spring lake park bridge path","Plainfield ave","07080",40.58111893962814,-74.41228895752279
"07080","South Plainfield","NJ","Edison Woods Park","Karen Pl","08817",40.54817195453314,-74.38805746520835
"07080","South Plainfield","NJ","Cotton Street Park","Cotton St.","07080",40.58128745908175,-74.4018562013312
"07080","South Plainfield","NJ","Nevsky Street Park","New York Blvd","not_available",40.564712631657905,-74.39386859536171
"07081","Springfield","NJ","Briant Park","Springfield Ave","07901",40.71560530500811,-74.3377747268675
"07081","Springfield","NJ","Summit Green","Broad Street","07901",40.716437658864,-74.35800561885226
"07081","Springfield","NJ","The September 11 Memorial in Echo Lake Park","149 Mill Ln","07092",40.67873320452689,-74.33177719372826
"07081","Springfield","NJ","Veterans Park","Mountain Ave","07081",40.70259213743481,-74.31813736232722
"07081","Springfield","NJ","Park","20-28 Summit Ave","07901",40.71515952364674,-74.35686583014297
"07081","Springfield","NJ","Laurel park","Laurel drive","07081",40.698600472532895,-74.30946350097656
"07081","Springfield","NJ","Ruby Field","116 Caldwell Pl","07081",40.707984924316406,-74.3169937133789
"07083","Union","NJ","Meisel Ave Park","356 Meisel Ave","07081",40.70736445500719,-74.29444457765625
"07083","Union","NJ","Rahway River Parkway","26 Washington Ave","07081",40.70737890623699,-74.2944585558577
"07083","Union","NJ","Kawameeh Park","701 Thoreau Ter","07083",40.68898296577731,-74.26052544442294
"07083","Union","NJ","Biertuempful Park","Winslow Ave","07083",40.701990586377406,-74.2731335819748
"07083","Union","NJ","Phil Rizzuto County Park","Morris Ave.","07083",40.67531469252428,-74.22679685237541
"07083","Union","NJ","Dragon Park","not_available","07205",40.69774910549848,-74.24237877984434
"07083","Union","NJ","Sichel Park","1223-1247 Robert St","07083",40.69604249748023,-74.24654150570292
"07083","Union","NJ","Bill Kolb Park","Roseland Pl","07083",40.673647070108835,-74.24757882926797
"07083","Union","NJ","Acker Park","not_available","07204",40.671495824724225,-74.25834453469788
"07083","Union","NJ","Phill Rizzutto Park Utility Room!","Morris Ave","not_available",40.676361083984375,-74.22748565673828
"07086","Weehawken","NJ","Juan Pablo Duarte Park","33rd street","07087",40.771445956123756,-74.02802350999737
"07086","Weehawken","NJ","Ellsworth Park","2300-2352 New York Ave","07087",40.76651520165462,-74.03072085888465
"07086","Weehawken","NJ","blvd east playground","blvd east","not_available",40.77348143026453,-74.01553826195284
"07086","Weehawken","NJ","War Memorial Park","Memorial Plaza","07087",40.776365581892776,-74.01860815887413
"07087","Union City","NJ","Police Memorial Park","11th St","07087",40.75917434692383,-74.03936767578125
"07087","Union City","NJ","Restrepo Living Room #1","2312 Kerrigan Ave","07087",40.769703,-74.037339
"07087","Union City","NJ","South Constitution Rooftop","2 Constitution Ct","07030",40.752151,-74.024067
"07087","Union City","NJ","Cypress Point Patio","1331 Grand St","07030",40.753963470458984,-74.03143310546875
"07093","West New York","NJ","yoga studio park","61 blvd east","07093",40.78616497056027,-74.00963933087027
"07093","West New York","NJ","Monsignor John Weigand Park","Park Avenue","07093",40.782134662428696,-74.01320281198944
"07093","West New York","NJ","Verrazano Park","Boulevard East","not_available",40.787579665093936,-74.00321960449219
"07094","Secaucus","NJ","Trolley Park","1627 Paterson Plank Rd","07094",40.80403852448163,-74.05965588724212
"07094","Secaucus","NJ","Mill Creek Marsh","1022 Park Dr.","07094",40.79503625379245,-74.05090684900784
"07094","Secaucus","NJ","Tilcon","Paterson Plank Road","not_available",40.804414,-74.058977
"07094","Secaucus","NJ","Schmidts Woods Park","1-35 Luhmann Terrace","07094",40.801058,-74.05038356781006
"07094","Secaucus","NJ","Field Station: Dinosaurs","1 Donosaur Way","07094",40.76178180226003,-74.08311617260401
"07094","Secaucus","NJ","Terrace Avenue Park","Terrace ave","07307",40.75304141362257,-74.0553542154274
"07095","Woodbridge","NJ","Train Station Park","not_available","07095",40.556853595190375,-74.27778521236081
"07095","Woodbridge","NJ","Warren Park","Florida grove Road","not_available",40.53968577552693,-74.28133161463747
"07095","Woodbridge","NJ","Fords Park","Dalina Way","07095",40.56128,-74.292679
"07095","Woodbridge","NJ","Parker Press Park","Rahway Ave","07095",40.556374431509624,-74.27728504822913
"07095","Woodbridge","NJ","The Shire","90 Albert St","07095",40.550100938183604,-74.27857630272624
"07102","Newark","NJ","Military Park","42 - 50 Park Pl","07102",40.73880998435603,-74.17025640151665
"07102","Newark","NJ","Washington Park","33 Washington St","07102",40.74359555283093,-74.17010733156123
"07102","Newark","NJ","Essex County Veteran's Memorial Park","West Market St.","07103",40.73930718066654,-74.18233752250671
"07102","Newark","NJ","Veterans Memorial Park","Veterans Memorial Park","07103",40.741460088277606,-74.18372380431605
"07102","Newark","NJ","Milo S. Borden Park","Clinton Ave","07102",40.73389730433494,-74.16710870665571
"07102","Newark","NJ","Mulberry Commons","Columbia St","07102",40.732925,-74.168391
"07102","Newark","NJ","Justice William J. Brennan, JR Park","DR. MLK, JR. Blvd","07102",40.736854,-74.179445
"07102","Newark","NJ","Sweet Peace Yoga @ Military Park","Broad St","07102",40.739066,-74.169925
"07103","Newark","NJ","West Side Park","S 13th St and 18th Ave","07103",40.73415313327424,-74.20985698699951
"07103","Newark","NJ","Nat Turner Park","18th and Muhammad Ali Aves","07108",40.729379354541614,-74.19365316511102
"07103","Newark","NJ","Nat Turner Park","not_available","07108",40.73055942348857,-74.1944542374297
"07104","Newark","NJ","Branch Brook Park Skating Center","Branch Brook Park Dr.","07105",40.75194937453431,-74.18077589888904
"07104","Newark","NJ","Park","3rd st","07107",40.75494630358172,-74.18513412705192
"07104","Newark","NJ","Rotunda Recreation Center","75 Clifton Ave","07104",40.75212860107422,-74.17903137207031
"07104","Newark","NJ","Kearny Archery Park","Passaic Ave, Kearny, NJ 07032","07032",40.76338064439107,-74.15877766491909
"07106","Newark","NJ","Orange Avenue Park","121 Orange Ave","07111",40.730902,-74.23265699999999
"07106","Newark","NJ","Eberhardt Park","Myrtle Ave","07111",40.73549987527236,-74.22075216271195
"07107","Newark","NJ","W.Side Park","6 N 9th St Side","07107",40.75585174560547,-74.19271850585938
"07109","Belleville","NJ","Owens Field","98 E Centre St","07110",40.808534,-74.143074
"07109","Belleville","NJ","Flora Louden Memorial Park","E. Centre st","not_available",40.80915,-74.14472
"07109","Belleville","NJ","Rec house park","407 Joralemon St","07109",40.79713405132194,-74.16201950359653
"07109","Belleville","NJ","Flora Louden Park","hancox avenue","07110",40.808569369447554,-74.15698870707038
"07110","Nutley","NJ","Yanticaw Park","Park Way","07110",40.816503691655996,-74.15525212430846
"07110","Nutley","NJ","Father Glotzbach Park","Park Ave.","07110",40.81240149397844,-74.1419080268064
"07111","Irvington","NJ","Irvington park","Lyons Ave at Coit St, Irvington, NJ 07111","07111",40.71871763308468,-74.2278457509544
"07112","Newark","NJ","Weequahic Park","Weequahic Park Dr","not_available",40.70315539593832,-74.19942855834961
"07112","Newark","NJ","Renner Avenue","not_available","07112",40.71189218071235,-74.20789876646263
"07114","Newark","NJ","Kellogg Park","Madison Ave","07208",40.67980195467356,-74.2030890033539
"07114","Newark","NJ","Wilson Park","Newark","07114",40.68836540613899,-74.20398326191317
"07114","Newark","NJ","Raymond A Brown Park","McCarter Highway","07114",40.722321,-74.177865
"07201","Elizabeth","NJ","Union Square","Elizabeth Ave","07201",40.658577,-74.202736
"07202","Elizabeth","NJ","Warinanco Park","Warinanco Park Rd.","07203",40.65573228272614,-74.23848342205353
"07202","Elizabeth","NJ","Jackson Park","136 Second St","07206",40.65206155277525,-74.18793754156026
"07202","Elizabeth","NJ","Warinanco Park Track","not_available","07203",40.65881180950287,-74.24302831650127
"07202","Elizabeth","NJ","Carteret Park","Vine st","07202",40.65915127324589,-74.23034474201654
"07202","Elizabeth","NJ","Warinaco Service Yard","Warinanco Park Roadway","07202",40.66023981764332,-74.24059955456124
"07202","Elizabeth","NJ","Creek Of Dooom","not_available","07208",40.6627138,-74.23885918333333
"07202","Elizabeth","NJ","Veteran's Memorial Waterfront Park","Front St","07206",40.64711600717986,-74.19063502009348
"07203","Roselle","NJ","Pine Street Park","111 Chestnut St","not_available",40.65985107421875,-74.26266479492188
"07203","Roselle","NJ","New Jersey Youth Theater","172 W Westfield Ave","07204",40.66066864613064,-74.27017986774445
"07203","Roselle","NJ","Newton Park","Newton Street","07036",40.647001,-74.279115
"07203","Roselle","NJ","Roselle Tennis Court","Chestnut street","07203",40.65156246666667,-74.2612001
"07205","Hillside","NJ","Conant Park Utility Room","Conant Street","not_available",40.68783950805664,-74.22537994384766
"07205","Hillside","NJ","Paul Korlesky Park","Central Ave","07205",40.68985455677116,-74.23231066750854
"07205","Hillside","NJ","Rizzuto Park","North Ave","not_available",40.67606626383817,-74.22713277965751
"07206","Elizabethport","NJ","WaaterFront","not_available","07206",40.646739,-74.185825
"07206","Elizabethport","NJ","Slater Park","Slater Drive","07207",40.65112748235222,-74.17460231143387
"07208","Elizabeth","NJ","Elmora Racquet Club","23 Fernwood Ter","07208",40.667066,-74.245851
"07302","Jersey City","NJ","Van Vorst Park","270 Barrow St","07302",40.71723969497544,-74.04544321127065
"07302","Jersey City","NJ","Hamilton Park","not_available","07302",40.72758398942743,-74.04523372650146
"07302","Jersey City","NJ","Dr. Lena Edwards Park","not_available","07304",40.712901,-74.058298
"07302","Jersey City","NJ","Morris Canal Park @ Colgate Sign","1 Washington St.","not_available",40.71180249404771,-74.03800761669326
"07302","Jersey City","NJ","Lafayette Park","Van Horne St.","07304",40.714329906188986,-74.06270027160645
"07302","Jersey City","NJ","Paulus Hook Park","90-124 Grand St","07302",40.71661371868883,-74.03544751925273
"07302","Jersey City","NJ","Enos Jones Park","365 9th St","07302",40.72811606956199,-74.0505436291272
"07302","Jersey City","NJ","Marina Park","not_available","07310",40.726133,-74.032734
"07302","Jersey City","NJ","J. Owen Grundy Park","Hudson River Waterfront Walkway","07302",40.716339377802875,-74.03273478598713
"07302","Jersey City","NJ","Morris Canal Park","1 Washington St","07030",40.71431645153065,-74.04108862638795
"07302","Jersey City","NJ","Imelda Park","Bright St","not_available",40.717885,-74.049688
"07302","Jersey City","NJ","Liberty harbor Park","20 Recent St","07302",40.71514489661592,-74.04714854218516
"07302","Jersey City","NJ","Twin Smokestack Courtyard","Wayne St","07032",40.720955375843104,-74.051624927171
"07302","Jersey City","NJ","Cloudy Day","Somewhere","07105",40.71257031242987,-74.03852972799471
"07302","Jersey City","NJ","Pats beach","Washington ave","07302",40.711469895516196,-74.03549457741123
"07302","Jersey City","NJ","Oaks Park","8th and Brunswick Street","not_available",40.728148567518105,-74.05010187067475
"07302","Jersey City","NJ","St. Joseph's Parking Lot","Corner of Magnolia Ave & Baldwin Ave","07306",40.73031756689438,-74.05760588753185
"07302","Jersey City","NJ","Colgate Center Park","Essex Street","07302",40.71270345653179,-74.03621077537537
"07302","Jersey City","NJ","Angel Ramos Park","Wayne Street","07302",40.71985211287879,-74.04604407568716
"07304","Jersey City","NJ","Arlington Park","Arlington Ave","07304",40.712304211088096,-74.0726065381545
"07304","Jersey City","NJ","Audobon Park","audobon ave.","07305",40.7072764960308,-74.0863111690081
"07304","Jersey City","NJ","McGinley Square","Montgomery St.","not_available",40.725332883842235,-74.06940313507853
"07304","Jersey City","NJ","Skinner Memorial Park","Wilkinson","07305",40.70555076,-74.07642639
"07304","Jersey City","NJ","Abraham Lincoln Park","John F Kennedy Blvd.","not_available",40.723206491736846,-74.07481467842925
"07304","Jersey City","NJ","Whelan lawn","not_available","07306",40.72671789426719,-74.07034191075938
"07304","Jersey City","NJ","Lt. R.P. Grover Memorial Park","J. F. Kennedy Blvd","07305",40.710979,-74.085054
"07304","Jersey City","NJ","Lincoln Park West","Lincoln Park Road","07302",40.72430844670188,-74.09061314324086
"07305","Jersey City","NJ","Liberty Island","Liberty Island","10004",40.69005915164754,-74.04540538787842
"07305","Jersey City","NJ","Bayside Park","1 Bayside Park Drive","07305",40.69831186749515,-74.08092359445016
"07306","Jersey City","NJ","Pershing Field Park","Summit Ave","07307",40.74249391125741,-74.05346953576438
"07306","Jersey City","NJ","Leonard Gordon Park","Leonard Gordon Park","07307",40.74533479204057,-74.05808204983316
"07306","Jersey City","NJ","Jersey City Reservoir Park","Summit Ave.","07306",40.74062110698933,-74.05673387636
"07306","Jersey City","NJ","Pershing Field Park","Central Ave","07307",40.741764068603516,-74.05218505859375
"07306","Jersey City","NJ","Sgt. Joseph Anthony Park","Palisade Ave","07306",40.7319253517479,-74.05261376046188
"07306","Jersey City","NJ","Canco Park","Dey Street","07306",40.738007362062135,-74.0671978289703
"07306","Jersey City","NJ","Lapointe Park","Dekalb Ave","07306",40.729618,-74.071146
"07306","Jersey City","NJ","Brett Triangle","Pavonia Avenue","07306",40.73408652856311,-74.06650361414495
"07306","Jersey City","NJ","Culinary Arts Plaza Park","Sip Avenue","07306",40.731483220299125,-74.06653803393868
"07306","Jersey City","NJ","Five Corners Jersey City","Newark Ave.","07306",40.734739119342066,-74.05921221339607
"07306","Jersey City","NJ","HCCC Park","sip","07302",40.731715263475714,-74.07081177631824
"07306","Jersey City","NJ","Pershing Park","Summit Avenue","not_available",40.73868710690187,-74.05920031471953
"07306","Jersey City","NJ","Pershing Field Tennis Courts","not_available","07307",40.744698879995944,-74.05910895000012
"07307","Jersey City","NJ","Resiliency Park","7th & Jackson","not_available",40.746407,-74.038738
"07310","Jersey City","NJ","Newport Green","Washington Blvd.","07310",40.73151936575158,-74.0317995461358
"07310","Jersey City","NJ","Wiley Fire Drill","1 Newark St","07030",40.736328125,-74.02845764160156
"07401","Allendale","NJ","Orchard Common","not_available","07401",41.027789,-74.125554
"07403","Bloomingdale","NJ","Sloan Park","not_available","07403",41.002466,-74.329855
"07405","Butler","NJ","Silas Condict County Park","Ricker Rd","07405",41.004551430562444,-74.38516939307176
"07405","Butler","NJ","Bogue Pond","sandra lane","07403",40.98250565039688,-74.34767279753923
"07410","Fair Lawn","NJ","Saddle River County Park - Dunkerhook Area","Dunkerhook Road","07410",40.94911512438499,-74.09893001474411
"07410","Fair Lawn","NJ","Radburn B Park","Howard Ave","07410",40.94460603477806,-74.11805742255939
"07410","Fair Lawn","NJ","Memorial Pool","Avenue of Heroes Ave.","07410",40.92838349151947,-74.13943651382426
"07410","Fair Lawn","NJ","Berdan Grove Park","29 Berdan Ave.","07410",40.93579960104212,-74.11208139236587
"07410","Fair Lawn","NJ","SaddleRiver County Park ""County Pitch""","Saddle River Road","07410",40.92868884831498,-74.09408906665364
"07410","Fair Lawn","NJ","R Park Radburn","Randolph Terrace","07410",40.937958227321,-74.11656056531434
"07410","Fair Lawn","NJ","Sycamare Park","1","not_available",40.92347241635456,-74.09515733564176
"07410","Fair Lawn","NJ","Kossuth Monument","not_available","07410",40.92605209350586,-74.10624694824219
"07410","Fair Lawn","NJ","Columbia Terrace Park","harristown road","07410",40.94882059295937,-74.13999080657959
"07410","Fair Lawn","NJ","Baer Playground","6th Ave","07514",40.93328297138214,-74.14637446403503
"07416","Franklin","NJ","Wheatsworth Park","114-182 Wheatsworth Rd","07419",41.13801684433738,-74.59129020799308
"07416","Franklin","NJ","Wheatsworth Field","not_available","07419",41.12441529674037,-74.58618791651085
"07417","Franklin Lakes","NJ","Franklin Lakes Nature Preserve","not_available","07417",40.97878544294769,-74.19568827427103
"07417","Franklin Lakes","NJ","Wyckoff Community Park","not_available","07481",40.998888885222556,-74.17472844450238
"07417","Franklin Lakes","NJ","Lorrimer Sanctuary","790 Ewing Ave","07417",40.99299,-74.199774
"07417","Franklin Lakes","NJ","Veteran's Park","1 Veteran's Drive","07436",41.02333014469743,-74.24418926239014
"07417","Franklin Lakes","NJ","Russell Orchards","440 Sicomac Ave","07481",40.990127,-74.181291
"07417","Franklin Lakes","NJ","Campgaw Crossing","Franklin Avenue","07417",41.02305,-74.208046
"07418","Glenwood","NJ","Maple Grange Recreational Complex","not_available","07418",41.22046357944074,-74.48448832341371
"07419","Hamburg","NJ","Hardyston Township Sports & Recreation Complex","Ginger Bread Castle Rd","07419",41.14611911744262,-74.57828521728516
"07419","Hamburg","NJ","Hamburg Park & Recreation Fields","60 Gingerbread Castle Road","07419",41.1482048034668,-74.57957458496094
"07420","Haskell","NJ","Back Beach","not_available","07420",41.03528171438479,-74.28574365611945
"07420","Haskell","NJ","Bienvenue ::: The Gateway to 43grove","43 Grove St","07465",41.05025100708008,-74.28470611572266
"07421","Hewitt","NJ","Wawayanda State Park","885 Warwick Tpke","07421",41.18987912839129,-74.42608193091684
"07421","Hewitt","NJ","Brown's Point Park","not_available","07421",41.15286063,-74.34700945
"07421","Hewitt","NJ","Indian Park Beach","394 Jersey Ave","10925",41.20350646972656,-74.31156158447266
"07421","Hewitt","NJ","The Willows","46 Bowen Rd","10990",41.21195142415035,-74.37564564618206
"07421","Hewitt","NJ","Park","not_available","07480",41.14466228220588,-74.34759260702448
"07421","Hewitt","NJ","Mt. Laurel Softball Field","10 Tyler Pl","07421",41.16245651245117,-74.38845825195312
"07421","Hewitt","NJ","Abram S Hewitt State Forest","not_available","7421",41.155663564043664,-74.34974055489248
"07421","Hewitt","NJ","Camp Hope","Union Valley Rd","not_available",41.14824295043945,-74.35847473144531
"07423","Ho Ho Kus","NJ","North Field","Lakewood Ave","07423",40.9983343976692,-74.10485041243346
"07423","Ho Ho Kus","NJ","the pin","not_available","07423",40.99248123168945,-74.08810424804688
"07423","Ho Ho Kus","NJ","Saddle River Park","Hollywood Avenue","07423",41.000009058420304,-74.0865864983006
"07424","Little Falls","NJ","Garret Mountain Reservation","Garret Mountain Park","07424",40.90077197216545,-74.18064513566763
"07424","Little Falls","NJ","Montville Community Park","130 Changebridge Rd.","07045",40.89796074457093,-74.25113777869518
"07424","Little Falls","NJ","Grimes Field","163-171 Mt Pleasant Ave","07424",40.8978517667362,-74.19579146230754
"07424","Little Falls","NJ","Grimes Park","Mount Pleasant Ave","07424",40.89779239937403,-74.19589465028643
"07424","Little Falls","NJ","Little Falls Abc Farmers Market & More","Union Ave. & Main St.","07512",40.893481846120295,-74.2340129241783
"07430","Mahwah","NJ","Hillburn Pond","Lake St.","10931",41.12725900000141,-74.16706514791308
"07430","Mahwah","NJ","Clark Park","59 Campbell Ave","10901",41.10603081275791,-74.12191707975124
"07430","Mahwah","NJ","Ramapo River Reserve","9 Kingsley Evans Cir","07436",41.0461493206724,-74.23276268851465
"07430","Mahwah","NJ","Veteran's Memorial Park","2-100 Sherer Pl","07430",41.09428320712419,-74.14569838102224
"07430","Mahwah","NJ","Donna Hallet Park","not_available","10901",41.107224,-74.145689
"07430","Mahwah","NJ","Arzee","31 Franklin Tpke","07430",41.10587800873123,-74.1478486990117
"07430","Mahwah","NJ","Offroad Mahwah","not_available","07430",41.101777,-74.15909
"07430","Mahwah","NJ","Darlington County Park","600 Darlington Ave","07430",41.06407559006694,-74.17196496399475
"07430","Mahwah","NJ","Veteran's Park Ramsey, NJ","not_available","07446",41.05814760711465,-74.1374638674519
"07430","Mahwah","NJ","Campbell Park","Campbell Rd","10901",41.107017517089844,-74.1229019165039
"07430","Mahwah","NJ","Montebello Park","75 Montebello Rd","10901",41.12554134592252,-74.12615239430048
"07432","Midland Park","NJ","Park Laundromat","625 Godwin Ave","07432",40.998687849378754,-74.15263029973322
"07432","Midland Park","NJ","The park in Midland Park","not_available","07432",41.0047344420079,-74.13565176695607
"07435","Newfoundland","NJ","Craigmeur","not_available","07435",41.021815770867015,-74.46161579125113
"07435","Newfoundland","NJ","West Shore Grove","Cliffside Lane","07435",41.017496,-74.481326
"07435","Newfoundland","NJ","Dogwood Park","not_available","07438",41.032172,-74.487957
"07435","Newfoundland","NJ","Oak Ridge Road","Oak Ridge Rd.","07438",41.050262427660066,-74.48155403137207
"07436","Oakland","NJ","Ramapo Mountain State Forest","not_available","07436",41.048094009948784,-74.25150632858276
"07438","Oak Ridge","NJ","Mahlon Dickerson Reservation","995 Weldon Rd.","07438",41.00942085879331,-74.57277938256689
"07438","Oak Ridge","NJ","Saffin Pond","Weldon Rd.","not_available",41.00713957787353,-74.58635330200195
"07438","Oak Ridge","NJ","Jefferson Township Creative Playground","1000 Weldon Rd","07438",41.01642608642578,-74.55016326904297
"07439","Ogdensburg","NJ","Manny Reis Memorial Field","West Mountain rd","07871",41.054447,-74.618876
"07442","Pompton Lakes","NJ","Gallo-Pacifico Park","Midland Ave","07442",41.00998940617314,-74.29813385009766
"07442","Pompton Lakes","NJ","Hershfield / Murrin Park","hershfield park place","07442",40.993333004564036,-74.2887518048479
"07442","Pompton Lakes","NJ","Terhune Memorial Park","333 Terhune Dr","07470",41.00078201293945,-74.2750473022461
"07442","Pompton Lakes","NJ","Stiles Park","Riveredge Dr","07442",40.987187328722044,-74.28028106689453
"07442","Pompton Lakes","NJ","Scenic Park","Terhune Dr.","07470",40.99178724644595,-74.27933692932129
"07442","Pompton Lakes","NJ","Sunnybank Park","333 Terhune Drive","07470",41.00031,-74.275116
"07442","Pompton Lakes","NJ","Lakeside Park","Lakeside Ave","07442",41.005093,-74.281975
"07442","Pompton Lakes","NJ","Lakeside Strip Gazebo","Lakeside  Ave","07442",41.00618135012404,-74.27858692706431
"07444","Pompton Plains","NJ","Sheffield Park","Farmingdale Rd","07479",40.96742346868044,-74.27963733673096
"07450","Ridgewood","NJ","Saddle River County Park - Glen Rock Area","Prospect Street","07452",40.96065055467095,-74.1086196899414
"07450","Ridgewood","NJ","Saddle River County Park - Wild Duck Pond","E Ridgewood Ave, Ridgewood, NJ 07450","07450",40.97413130688211,-74.09427261198066
"07450","Ridgewood","NJ","Wilde Memorial Park","683 Maple Ave","07452",40.959743125832865,-74.12773847579956
"07450","Ridgewood","NJ","Ridgewood Duck Pond","not_available","07652",40.974395576742246,-74.09373344707318
"07450","Ridgewood","NJ","Where The Sidewalk Ends","1011 E Glen Ave","07450",40.982215000000004,-74.077348
"07450","Ridgewood","NJ","Faber Field","412 Doremus Ave","07452",40.96963496311665,-74.1296074819061
"07450","Ridgewood","NJ","Habernickle Park","1037 Hillcrest Rd, Ridgewood, NJ 07450","07450",41.00557327270508,-74.12799072265625
"07450","Ridgewood","NJ","Van Neste Square","Van Neste Square","not_available",40.97932238506641,-74.11800407175215
"07450","Ridgewood","NJ","Glen Rock Arboretum","Doremus Ave","not_available",40.96787713186007,-74.1305923461914
"07450","Ridgewood","NJ","Graydon Park","Linwood Ave.","07450",40.98305912236379,-74.11143904381353
"07450","Ridgewood","NJ","Glen Rock Field","685-695 Maple Ave","07452",40.960554,-74.127764
"07450","Ridgewood","NJ","Veterans Park","Bradford St","07452",40.9585263296359,-74.13506049571984
"07450","Ridgewood","NJ","Nestor's Porch","not_available","07450",40.983331,-74.12459
"07450","Ridgewood","NJ","Twinney Pond Park","Red Birch Court","07450",40.989443,-74.099733
"07450","Ridgewood","NJ","Diamond Brook Park","West Main St","07452",40.958382,-74.138553
"07450","Ridgewood","NJ","Krom Moerasje Park","21 1/2 Gramercy Park South","10003",40.978983,-74.112923
"07450","Ridgewood","NJ","Citizen's Park","Godwin Ave","07450",40.980287,-74.129364
"07452","Glen Rock","NJ","Movies Under The Stars Wilde Memorial Park Glen Rock","not_available","07452",40.959891,-74.12772
"07456","Ringwood","NJ","Stonetown Field","1040 Stonetown Rd.","not_available",41.07937135237265,-74.30781944365724
"07456","Ringwood","NJ","Addice Park","Meadowbrook Street","not_available",41.05615437906663,-74.28180720347503
"07458","Saddle River","NJ","Emmet Park","not_available","07463",41.009042,-74.111988
"07458","Saddle River","NJ","Papa Sting's Chateau","Old Stone Rd","not_available",41.071966,-74.093428
"07458","Saddle River","NJ","Ted Bell Park","Nordham Ave.","07463",41.01642901093234,-74.11418621551378
"07458","Saddle River","NJ","Chipmunk Run","354 W Saddle River Rd","07458",41.0586739186465,-74.09782669558858
"07461","Sussex","NJ","Cedar Swamp Trail","1480 State Rt 23","07461",41.27817916870117,-74.66320037841797
"07461","Sussex","NJ","Hansen Park","Langlitz Rd","10998",41.3353068005345,-74.56897515093982
"07461","Sussex","NJ","The Snake Pit","218 County Rd 519","07461",41.21110916137695,-74.69535827636719
"07461","Sussex","NJ","Tai Chi Memorial Park","818 State Rt 23","07461",41.23165512084961,-74.61943817138672
"07461","Sussex","NJ","Christina Scannavino pavillion","47 Brown Rd","07461",41.24180221557617,-74.63627624511719
"07463","Waldwick","NJ","Borough Park","98 Pine St","not_available",41.01713176830479,-74.1330579175934
"07463","Waldwick","NJ","Veteran's Park","Lindbergh Parkway","07463",41.014926,-74.134138
"07470","Wayne","NJ","High Mountain Preserve","College Rd","07470",40.95735319494708,-74.20274701515704
"07470","Wayne","NJ","Laurelwood Arboretum","725 Pines Lake Dr W","07470",40.989410950696694,-74.26639209032189
"07470","Wayne","NJ","Veterans Alliance Park","Mountainview Blvd & Route 23 N","07470",40.91400214526688,-74.2634990021282
"07470","Wayne","NJ","Barbour Pond Park Additions","Barbour Pond Dr","not_available",40.963689967491746,-74.22891183845567
"07470","Wayne","NJ","Yeti's Stronghold, Sanctuary, Burrow, Retreat, Cave & Igloo","not_available","07470",40.95324453720834,-74.23167446651902
"07470","Wayne","NJ","Geoffrey Land","1 Geoffrey Way","07470",40.98002624511719,-74.2556381225586
"07481","Wyckoff","NJ","James A McFaul Environmental Center","182 Anthony Pl","07481",41.00802126403806,-74.15139810296547
"07501","Paterson","NJ","Rigley's Park","Montgomery Street","07501",40.92569930406115,-74.16257799647697
"07501","Paterson","NJ","Roberto Clemente Park","Market St","07501",40.91356122273601,-74.16267156600952
"07501","Paterson","NJ","Mary Ellen Kramer Park","158 Maple Street","07522",40.91759490966797,-74.18192291259766
"07501","Paterson","NJ","Pennington Park","358 Passaic County 639","07501",40.91063863719765,-74.19053453182889
"07501","Paterson","NJ","Veterans Memorial Park At Hayden Heights","not_available","07501",40.910787015422926,-74.1884076396311
"07501","Paterson","NJ","Westside Park","not_available","07522",40.91275707915338,-74.19028801996993
"07501","Paterson","NJ","Redwood Park","Chamberlain Ave","07522",40.92343161666667,-74.1852027
"07504","Paterson","NJ","Eastside Park","Dr Martin Luther King Jr Way","07504",40.91534529078154,-74.13784234191812
"07506","Hawthorne","NJ","Prospect Park","33 Prospect St","07644",40.93848821451893,-74.169803687141
"07506","Hawthorne","NJ","Goffle Brook Park","76-98 Diamond Bridge Ave","07506",40.94425940039293,-74.16282392355767
"07506","Hawthorne","NJ","Eating Lunch Out Side on A Pretty Day","not_available","07506",40.948535,-74.154919
"07508","Haledon","NJ","Yahn's Pond","Indian Trail","07508",40.97081238779421,-74.17687859375614
"07508","Haledon","NJ","Samuel Braen Memorial Park","not_available","07508",40.931945767346605,-74.17986542748098
"07601","Hackensack","NJ","Columbus park","61-97 W Franklin St","07601",40.86993361202887,-74.04657382801184
"07601","Hackensack","NJ","Phelps Park","660 Sagamore Ave","07666",40.897404389856476,-74.02785607849736
"07601","Hackensack","NJ","Memorial Park","Fairmont & Grant Aves","07607",40.91176127438479,-74.0634298324585
"07601","Hackensack","NJ","Fetzer Park","not_available","07607",40.91051942428963,-74.05323431748744
"07601","Hackensack","NJ","New Bridge Landing Historic Pk","1201 Main St","07661",40.91296362921274,-74.03108807225192
"07601","Hackensack","NJ","Phelps park","Teaneck, NJ 07666","07666",40.89138688446366,-74.02811018094266
"07601","Hackensack","NJ","The Green","Court Street","07601",40.87907,-74.043846
"07601","Hackensack","NJ","Veterans Memorial Park","Phillips ave.","not_available",40.86134086572204,-74.04412368766559
"07601","Hackensack","NJ","Johnson Park","444 River St.","07601",40.893161738465324,-74.03748550395841
"07601","Hackensack","NJ","carver park","not_available","07601",40.890907,-74.050303
"07601","Hackensack","NJ","Terhune Park","not_available","07666",40.885546024448665,-74.03182249686199
"07601","Hackensack","NJ","Union Street Park","Union Street","07601",40.881016398081265,-74.0474455611559
"07601","Hackensack","NJ","Foschini Park","278 River St","07601",40.88495142200276,-74.03770352923078
"07601","Hackensack","NJ","Hackensack River County Park","390 Hackensack Ave","07601",40.90786121818408,-74.02938723564148
"07601","Hackensack","NJ","Clarence W. Brett Park","River Road","not_available",40.9109,-74.0321
"07601","Hackensack","NJ","Beechwood Park","Beechwood Ave","07603",40.871563643576614,-74.02595849640603
"07601","Hackensack","NJ","Revolutionary War Park","Hudson St, Hackensack, NJ 07601","07601",40.86714741738527,-74.04420400998984
"07601","Hackensack","NJ","veterans park","not_available","07606",40.86893690863429,-74.0554487999517
"07601","Hackensack","NJ","Park","490 River St","07601",40.893716,-74.03742700000001
"07601","Hackensack","NJ","Park In Bogota","not_available","07603",40.88059772145168,-74.03448476232298
"07603","Bogota","NJ","SGT. FRANK PAGANO PARK USMC","Queen Anne rd","not_available",40.87066777341095,-74.02209687898312
"07603","Bogota","NJ","Oscar E. Olsen Park","162 W. Main Street","07603",40.87085806569418,-74.02214852074242
"07604","Hasbrouck Heights","NJ","Hasbrouck Heights Football Field","238-254 Oldfield Ave.","07604",40.85850280818425,-74.07059669494629
"07604","Hasbrouck Heights","NJ","Lodi Memorial Park","Main Street Bypass","07644",40.87588610490916,-74.08883500580038
"07605","Leonia","NJ","Harte Park","Glenwood Avenue","07666",40.875629375690316,-74.00076763856295
"07605","Leonia","NJ","Sylvan Park","140 Grand Ave","07605",40.85897770684693,-73.99658414294873
"07607","Maywood","NJ","Beuhler Park","51 S Farview Ave","07652",40.91659164428711,-74.07034301757812
"07620","Alpine","NJ","Alpine Boat Basin","Hudson Dr","not_available",40.94602935535074,-73.91886592592118
"07620","Alpine","NJ","Fay Park","428 Hawthorne Ave","10705",40.917681,-73.904189
"07620","Alpine","NJ","Tenafly Nature Center","313 Hudson Ave","07670",40.92433478407906,-73.94461779995595
"07620","Alpine","NJ","Greenbrook Sanctuary","Green brook road","not_available",40.91447337005339,-73.93303277074206
"07620","Alpine","NJ","Van Der Donck Park at Larkin Plaza","not_available","10701",40.93537229208208,-73.90199346600498
"07620","Alpine","NJ","JFK Marina and Park","1 JFK Memorial Drive","10701",40.9541725756055,-73.89828317141531
"07620","Alpine","NJ","Leslie Surherland Park","Alta Avenue","not_available",40.920904954443785,-73.8945625421022
"07620","Alpine","NJ","Beczak Park Sarah Lawrence","35 Alexander St, Yonkers, NY 10701","10701",40.93838882446289,-73.90277862548828
"07620","Alpine","NJ","Habirshaw Park","91 Alexander St","10701",40.93617423767132,-73.9031021608844
"07621","Bergenfield","NJ","Cooper's Pond","W Church St","07621",40.93276380145538,-73.99495300956333
"07621","Bergenfield","NJ","Thomas Roos Park Tennis Court","not_available","07621",40.933724,-73.983586
"07621","Bergenfield","NJ","Veterans Memorial Park","New Bridge Road","not_available",40.914658270254954,-74.00702836453618
"07621","Bergenfield","NJ","Hickory Park","Hickory Ave.","not_available",40.932381935382324,-73.98721255191126
"07621","Bergenfield","NJ","Gardinerville","Elm St","07626",40.937921666456994,-73.98152581608379
"07621","Bergenfield","NJ","Columbia Park","not_available","07628",40.93694730233915,-73.99855825925871
"07621","Bergenfield","NJ","Wayne Golon Park","Hallberg Ave","07621",40.92243399040557,-74.01185432050767
"07621","Bergenfield","NJ","national night out","River Road","07646",40.928037275071254,-74.01528578225243
"07621","Bergenfield","NJ","Triplet park","not_available","07646",40.935079,-74.01278
"07624","Closter","NJ","Columbus Field","Columbus Ave","07640",40.975536790143366,-73.97977463777308
"07624","Closter","NJ","Donald T. Horsey Memorial Park","Harriot Place","07640",40.97949915219025,-73.99900013715832
"07624","Closter","NJ","Veterans Memorial Park","Harrington Ave","07624",40.97369170192384,-73.96222323435866
"07624","Closter","NJ","Ruckman Park","Ruckman Rd.","07624",40.9768645404261,-73.94554275531853
"07624","Closter","NJ","Larva Park","54-92 Closter Dock Rd","07624",40.9770405292511,-73.9657062292099
"07624","Closter","NJ","Fishie Park","not_available","07641",40.96299064291397,-73.99079940599339
"07626","Cresskill","NJ","Roosevelt Common Park","Riveredge Rd.","07670",40.92822014569481,-73.96634834229742
"07626","Cresskill","NJ","Cranford Pl. Park","Cranford Pl.","07626",40.94995506474136,-73.9720469713211
"07627","Demarest","NJ","Demarest Duck Pond","not_available","07627",40.95684296459267,-73.96204530154625
"07628","Dumont","NJ","Veterans Memorial Park","Pershing Ave.","07628",40.94428547808103,-73.98299432576718
"07628","Dumont","NJ","Wareham Park","Wareham Rd.","07628",40.95300051859665,-73.99283097040066
"07628","Dumont","NJ","Sorosis Park","Park Ave","07628",40.938538,-73.99561
"07628","Dumont","NJ","Moore Park","Moore street","07628",40.9450885,-74.01064286666667
"07630","Emerson","NJ","Gritman Park","Meadow Road","07675",40.98226545506974,-74.04049193567161
"07630","Emerson","NJ","Centennial Park","not_available","07630",40.9742,-74.01514
"07631","Englewood","NJ","Flat Rock Brook Nature Center","Van Nostrand","07631",40.87336378072196,-73.96773796630163
"07631","Englewood","NJ","MacKay Park","126 W. Englewood Ave","07631",40.89278586546437,-73.98244857788086
"07631","Englewood","NJ","Englewood Recreation Department","130 W Englewood Ave","07631",40.893881,-73.981158
"07631","Englewood","NJ","Englewood","not_available","07631",40.89492,-73.98027
"07632","Englewood Cliffs","NJ","Fort Tryon Park","1 Margaret Corbin Dr","10040",40.86010456142042,-73.93292525027451
"07632","Englewood Cliffs","NJ","The Cloisters","99 Margaret Corbin Dr","10040",40.8650293481217,-73.93169675048539
"07632","Englewood Cliffs","NJ","Battle Of Fort Washington Commemoration","not_available","10040",40.859795,-73.93358
"07632","Englewood Cliffs","NJ","Inspiration Point","Fort Washington Pk Greenway","10033",40.85860829677559,-73.93736332654953
"07632","Englewood Cliffs","NJ","Witte Field","750 Floyd St","07632",40.89694242790327,-73.94505483250727
"07632","Englewood Cliffs","NJ","Inwood Hill Park Lookout","Henry Hundson Pkwy","10034",40.873475,-73.927564
"07632","Englewood Cliffs","NJ","Inwood Lookout","Henry Hudson Pkwy","10034",40.876581505067165,-73.9278307557106
"07632","Englewood Cliffs","NJ","Riverside-Inwood Neighborhood Garden","1 Seaman Ave","10034",40.86634629803465,-73.9273918812329
"07640","Harrington Park","NJ","Harrington Park","Harriot Ave","07640",40.984538991099434,-73.99335443973541
"07640","Harrington Park","NJ","Stone Point Park","not_available","07675",41.0007135122546,-73.98850956608477
"07642","Hillsdale","NJ","Wood Dale County Park","156 prospect ave","not_available",41.02062205345871,-74.02932085142639
"07642","Hillsdale","NJ","Beechwood Park","Hillsdale Ave.","07642",41.005355086836644,-74.02475039838681
"07642","Hillsdale","NJ","Hillsdale Gazebo","not_available","07642",41.003177103984655,-74.04108862638795
"07644","Lodi","NJ","Kennedy Park","Kennedy Park","07644",40.88123287397485,-74.07855433723944
"07644","Lodi","NJ","Dandalion Park","not_available","07644",40.89038029232951,-74.07544681319126
"07645","Montvale","NJ","Central Ave Track","23-31 Franklin Ave","10965",41.05830392036838,-74.01778187371706
"07645","Montvale","NJ","Pearl River September 11 Memorial","not_available","10965",41.057534967484756,-74.02430598619047
"07645","Montvale","NJ","Henry V. Borst Park","N Main Street","10965",41.06666610417122,-74.02069727519601
"07645","Montvale","NJ","Huff Park","not_available","07645",41.03667455,-74.03962911666666
"07645","Montvale","NJ","Memorial Park","S. Main St.","not_available",41.05852,-74.021957
"07646","New Milford","NJ","Kenneth B. George Park","600 Riverside Way","07661",40.92800800583395,-74.03123725248011
"07647","Northvale","NJ","Kennedy Field","not_available","07648",40.99518304800879,-73.95136903260959
"07647","Northvale","NJ","Tappan Memorial Park","Oak Tree Road","10983",41.02085324581116,-73.94723653793335
"07649","Oradell","NJ","Hague Park","Oradell Ave.","07649",40.95411957380185,-74.03026184117982
"07649","Oradell","NJ","The Grove, Memorial Field","Prospect Ave","07649",40.9535,-74.037822
"07650","Palisades Park","NJ","Columbus Park","not_available","07650",40.85021779962559,-73.9997346851774
"07652","Paramus","NJ","Van Saun County Park","216 Forest Ave","07652",40.93174697997813,-74.04797338371736
"07652","Paramus","NJ","Saddle River County Park - Rochelle Park Area","Railroad Ave","not_available",40.9172984041794,-74.091089222352
"07652","Paramus","NJ","Carlock Field","not_available","07662",40.90906245983346,-74.07952404734876
"07652","Paramus","NJ","Duck Pond","W Ridgewood Ave, Ridgewood, NJ 07450","07450",40.95660447385113,-74.05834594649684
"07652","Paramus","NJ","Reid Park","Spencer Place","07652",40.96174928584934,-74.05485789135784
"07652","Paramus","NJ","Gardner Field","Bridge Street","07676",40.96535150454633,-74.06285772165765
"07652","Paramus","NJ","Mele Park","325 Silver Rod Ct","07652",40.939578,-74.046969
"07652","Paramus","NJ","Otto C. Pehle Playground","not_available","07663",40.9218130213322,-74.08648324986304
"07652","Paramus","NJ","Sirianni Park","Midwood Rd","07652",40.951575702331134,-74.08187142865258
"07652","Paramus","NJ","Fairway Oaks Park","Cumberland ct","07652",40.92985622,-74.08907115
"07656","Park Ridge","NJ","Atkins Glen Park","18 Laurel Hill Rd","07656",41.03169401486333,-74.0517207466745
"07656","Park Ridge","NJ","Wooddale Park","Prospect Ave","07642",41.02172247555625,-74.0299003639586
"07656","Park Ridge","NJ","Park Ridge Memorial Park","350 Park Ave","not_available",41.0329,-74.0361
"07657","Ridgefield","NJ",":]","not_available","07657",40.830967,-74.001591
"07657","Ridgefield","NJ","Veteran's Memorial Park","Shaler Blvd","07657",40.83283298128676,-74.00073320687319
"07657","Ridgefield","NJ","Chestnut Park","not_available","07660",40.8444595196983,-74.02291319965244
"07660","Ridgefield Park","NJ","New Overpeck Park","111 Challenger Rd","07660",40.85861179759582,-74.00976557449272
"07660","Ridgefield Park","NJ","Fellowship Park","Hobart St","07660",40.853800679361385,-74.0233534911562
"07660","Ridgefield Park","NJ","센트럴파크","웨스트 드라이브 맨해튼 뉴욕 주 10024 미국","not_available",40.86077675002103,-74.01214123438588
"07660","Ridgefield Park","NJ","Brewster Park","50-80 Main St","07660",40.85133439026706,-74.02615358347215
"07660","Ridgefield Park","NJ","McGowan Park","2 Bergen Tpke","07660",40.8494758605957,-74.02835845947266
"07661","River Edge","NJ","Memorial Park, River Edge","Continental Avenue","07661",40.93511826669642,-74.03824285383068
"07662","Rochelle Park","NJ","Saddle River County Park - Otto C. Pehle Area (Saddle Brook Area)","Saddle River Rd.","07663",40.90345234664574,-74.08103968272485
"07662","Rochelle Park","NJ","Saddle River Pathway","Saddle River Rd","not_available",40.902818094382894,-74.0808274435216
"07666","Teaneck","NJ","Milton Votee Park","Palisade Ave.","07666",40.89632186715712,-74.01021480560303
"07666","Teaneck","NJ","Harkansas, NJ","In Joanna's Mind","not_available",40.897592,-74.00823
"07670","Tenafly","NJ","Dean Park","Dean St.","not_available",40.914983485157165,-73.96726268260696
"07670","Tenafly","NJ","Walnut Park","not_available","07670",40.9154794486255,-73.96854483124112
"07675","Westwood","NJ","Pascack Brook County Park","Emerson Rd","07675",40.98892367339806,-74.0088415145874
"07675","Westwood","NJ","Acorn park","Brickel avenue","not_available",40.990299,-74.039096
"07675","Westwood","NJ","Orangeburg Soccer Fields","101-145 County Road 22","10962",41.04305448714689,-73.97988435853352
"07675","Westwood","NJ","James H Anderson American Legion Post 1199","61 Hunt Rd","10962",41.041664123535156,-73.98904418945312
"07676","Township Of Washington","NJ","Town Path","Cleveland Ave","not_available",40.9911,-74.0588
"07701","Red Bank","NJ","Riverside Gardens Park","84 W Front St","07701",40.351859376571056,-74.06761651763648
"07701","Red Bank","NJ","Marine Park","Wharf Avenue","07701",40.35411278061733,-74.06524155071729
"07701","Red Bank","NJ","Fair Haven Fields","not_available","07704",40.35998505414883,-74.03163694124736
"07701","Red Bank","NJ","Poricy Park","351 Oak Hill Rd","07701",40.37017320818705,-74.09773126076645
"07701","Red Bank","NJ","Count Basie Park","265 Pearl St S","07701",40.33951115926852,-74.06841963979973
"07701","Red Bank","NJ","Sickles Park","104 Robinson Pl","07702",40.331663,-74.056314
"07701","Red Bank","NJ","Huber Woods Park","25 Browns Dock Rd","07760",40.38559732309967,-74.03432410942848
"07701","Red Bank","NJ","Nut Swamp Road Park","801-999 Orchard Rd","07701",40.35862915513674,-74.09659559205632
"07701","Red Bank","NJ","Memorial Park","River Road","07704",40.364227302149814,-74.03552900283114
"07701","Red Bank","NJ","Some Lame Park With No Petty For Gigi","sucks lane","07701",40.35201388888889,-74.07451388888889
"07701","Red Bank","NJ","Shrewsbury Compost Site","Sickels Pl.","07702",40.333329,-74.056173
"07701","Red Bank","NJ","Grover House","West Front st","07701",40.344658,-74.10316
"07701","Red Bank","NJ","Stevensons Park","West Front St","07701",40.34738411689566,-74.10548000914677
"07701","Red Bank","NJ","Corporal William A Schultz Park","6 Fairview Dr","07748",40.380466,-74.087419
"07701","Red Bank","NJ","Patterson Park","Patterson Ave","07702",40.33478,-74.064668
"07701","Red Bank","NJ","Wilmort Park","Washington Street","not_available",40.35185241699219,-74.06160736083984
"07701","Red Bank","NJ","Bodman Park","Patterson Street","not_available",40.36766083565338,-74.07474697580321
"07701","Red Bank","NJ","Harding Bird Santuary","Ridge Road","not_available",40.35045467235868,-74.04350405716553
"07701","Red Bank","NJ","Whale Pond","14 Sleepy Hollow Road","not_available",40.37920786404552,-74.07907726287776
"07701","Red Bank","NJ","Dutch neck park","Schultz Dr","07701",40.33867254902733,-74.09254613167272
"07701","Red Bank","NJ","Meadow Ridge Park","Ridge Rd","07760",40.35318088315331,-74.0337905113414
"07701","Red Bank","NJ","Parker Sickles Farm Park","Woodbine Ave","07739",40.34257678241981,-74.04534573078332
"07702","Shrewsbury","NJ","Manson Park","419 Sycamore Ave","07702",40.32197570800781,-74.06397247314453
"07703","Fort Monmouth","NJ","Jagger Park","Russel Ave","not_available",40.31814793718314,-74.0379810333252
"07703","Fort Monmouth","NJ","Old Wharf Park","not_available","07757",40.31438969623079,-74.0313462687268
"07712","Asbury Park","NJ","Dave Dahrouge Park","Park Blvd.","not_available",40.23539842837633,-74.03211511837836
"07712","Asbury Park","NJ","Joe Palaia Park","Asbury Park","07712",40.2618210273724,-74.02744459578797
"07712","Asbury Park","NJ","Joe Palaia Park","Dow Avenue","07712",40.256603721164026,-74.0284538269043
"07712","Asbury Park","NJ","Firemans Field","11 Roslyn Dr","07755",40.267098,-74.021086
"07712","Asbury Park","NJ","Kennedy Park","not_available","07712",40.216617693700236,-74.00850276220362
"07712","Asbury Park","NJ","Greenleaf Park","New York Avenue","07756",40.213728,-74.008168
"07712","Asbury Park","NJ","Library Park In Asbury Park","1st And Asbury Ave","07712",40.21973947677384,-74.00628236760791
"07712","Asbury Park","NJ","Founder's Park","not_available","07756",40.215664,-74.005233
"07712","Asbury Park","NJ","Supreme Kourts Construction","92 Norwood Ave #212","07723",40.255275,-74.000895
"07712","Asbury Park","NJ","Midtown Commons Park","West Lake Ave","07753",40.21594277888644,-74.02918314521888
"07712","Asbury Park","NJ","Bradley Park","Ocean Ave","07712",40.223198552554386,-74.00467559511299
"07712","Asbury Park","NJ","Tata Walk","501-571 Ocean Ave","08742",40.24880557239087,-74.03849530311788
"07712","Asbury Park","NJ","Liberty II Park","1420 West Park Avenue","07712",40.25739329075423,-74.07727670361427
"07712","Asbury Park","NJ","Auditorium Park","Pilgrim Pathway","07756",40.21378316,-74.00666489
"07712","Asbury Park","NJ","Lost Soul","1525 Sewall Ave","07712",40.222322999999996,-74.023636
"07712","Asbury Park","NJ","Liberty Square Park","800-898 Grand Ave","07712",40.220776121071594,-74.00990329471303
"07712","Asbury Park","NJ","Weltz Park","681-699 W Park Ave","07755",40.267774784612975,-74.03672241353702
"07716","Atlantic Highlands","NJ","Popamora Point (Henry Hudson Trail)","Shore Ave","not_available",40.40855842754527,-73.998676053186
"07716","Atlantic Highlands","NJ","Hartshorne Woods Park (Rocky Point Trail)","300 Navesink Ave","07716",40.39097479052724,-73.98900620801724
"07716","Atlantic Highlands","NJ","Hartshorne Woods Park (Buttermilk Valley)","300 Navesink Avenue","07716",40.39637210543771,-74.00167465209961
"07716","Atlantic Highlands","NJ","Claypit Creek","not_available","07760",40.39564500654871,-74.02189031180616
"07716","Atlantic Highlands","NJ","Huddy Park","Waterwitch Ave","07732",40.404735260886795,-73.99417290060369
"07716","Atlantic Highlands","NJ","Mud Fats","not_available","07737",40.41553349409572,-74.06138073170615
"07716","Atlantic Highlands","NJ","Veterans Park Aka The New Park","Bay Ave","07732",40.39888754684947,-73.98247206275254
"07716","Atlantic Highlands","NJ","The PARK","301 Shore Dr","07732",40.40470540523529,-73.99426639080048
"07716","Atlantic Highlands","NJ","Atlantic Highlands Skate Park","not_available","07716",40.41629512217858,-74.03749124146879
"07717","Avon By The Sea","NJ","Laird Ave Park","not_available","07753",40.1950534765481,-74.02264772369466
"07718","Belford","NJ","Bayshore Waterfront Park","719 Port Monmouth Road","07758",40.43481763946404,-74.09202852643523
"07718","Belford","NJ","Greeley Park","Brainard Avenue","07758",40.43380355834961,-74.09490966796875
"07719","Belmar","NJ","Ferruggiaro Park","not_available","07719",40.18029613370743,-74.01935410767967
"07719","Belmar","NJ","The Historic Village at Allaire","4265 Atlantic Ave","07727",40.15779733381174,-74.12951572654752
"07719","Belmar","NJ","Manasquan Wildlife Management Area","not_available","08724",40.13705474044906,-74.10402774810791
"07719","Belmar","NJ","The Park @ North Wall","2510 Belmar Blvd","07719",40.17679977416992,-74.06238555908203
"07719","Belmar","NJ","Riverside Park","S. Riverside Dr.","07753",40.18682861328125,-74.04412078857422
"07719","Belmar","NJ","park","not_available","07731",40.1362325651689,-74.02902822561646
"07719","Belmar","NJ","Neptune City Day","Memorial Park","not_available",40.19492368289138,-74.03001511870633
"07719","Belmar","NJ","1701 Safari","1701 Ocean Ave","07719",40.17118835449219,-74.01622009277344
"07719","Belmar","NJ","Devine Park","3rd Ave.","not_available",40.151507120931065,-74.03220118344463
"07719","Belmar","NJ","Park in Spring Lake","not_available","07762",40.150260151022366,-74.03429407135597
"07719","Belmar","NJ","6th Ave Park","6th Ave","07762",40.145443,-74.037076
"07719","Belmar","NJ","Pats 30 Acre","4103 West Hurley Pond Road","07719",40.175540924072266,-74.10552215576172
"07719","Belmar","NJ","Ocean Rd Park","1103 Ocean Rd","07762",40.14444967023585,-74.04792174896633
"07719","Belmar","NJ","9/11 Park","Remsen Ave","07762",40.16393450697848,-74.0198762701087
"07720","Bradley Beach","NJ","Riley Park Bradley Beach","not_available","07720",40.203583,-74.017913
"07721","Cliffwood","NJ","Gusty Feild","360 archie street","not_available",40.43601626349468,-74.23101533704252
"07721","Cliffwood","NJ","Addison Park","150 State Route 35","07735",40.44330560906222,-74.22852211553332
"07721","Cliffwood","NJ","6 Ft. Away","not_available","07721",40.433777,-74.236597
"07721","Cliffwood","NJ","Ross Field","Lenox Rd","07735",40.44176004608527,-74.22136884988645
"07722","Colts Neck","NJ","Thompson Park","805 Newman Springs Rd","07738",40.33306723788628,-74.13891792297363
"07722","Colts Neck","NJ","Dorbrook Recreation Area","209 County Route 537 East","07722",40.30052644200694,-74.1360302450944
"07722","Colts Neck","NJ","Lincroft Village Green","701-729 Newman Springs Rd","07738",40.33016819474677,-74.1220948629362
"07722","Colts Neck","NJ","Thompson Park- Marlu Lake","not_available","07733",40.332946077804614,-74.13480879016478
"07722","Colts Neck","NJ","The Roots","33 Creamery Rd","07722",40.29673,-74.172013
"07722","Colts Neck","NJ","Bucks Mill Park","Bucks Mill Road","07722",40.29201627217761,-74.20365078167288
"07722","Colts Neck","NJ","2033","not_available","07722",40.304308,-74.14133
"07722","Colts Neck","NJ","Lure Coursing","Bucks Mill Recreation Area","07722",40.29128355451464,-74.2045106431344
"07724","Eatontown","NJ","Fort Monmouth Recreation Center","2566 Guam Ln","07724",40.296024322509766,-74.08045959472656
"07724","Eatontown","NJ","Hockhockson Park","128 Hockhockson Rd","not_available",40.28936081981659,-74.09929136013817
"07724","Eatontown","NJ","80 Acre","Wall Street","07724",40.284166022033325,-74.03924117405394
"07724","Eatontown","NJ","Stella Tract","Grant Avenue","07724",40.290505,-74.065835
"07724","Eatontown","NJ","Husky Brook Pavilion","not_available","07724",40.3047634,-74.0449008
"07724","Eatontown","NJ","George m Conway park","Parker Road","07724",40.30120341217367,-74.04715296323417
"07724","Eatontown","NJ","Wolcott Park, Eatontown","Willow Ave","07724",40.30275361018623,-74.06148973064835
"07724","Eatontown","NJ","Dominick F Santelle Park","not_available","07739",40.3235,-74.03375
"07724","Eatontown","NJ","Arboretum","Wyckoff Road","07724",40.302962736684215,-74.05101407206259
"07724","Eatontown","NJ","Pine Brook Park","Pine Brook Rd","07724",40.290976,-74.081607
"07724","Eatontown","NJ","Wolf Hill Recreation Area","3 Crescent Place","07757",40.304381040251904,-74.02863590548819
"07726","Englishtown","NJ","Michael J Tighe Park","Remembrance Rd","07728",40.212331196161664,-74.28992067206556
"07726","Englishtown","NJ","Michael J. Tighe Park","65 Georgia Rd","07728",40.21245908184502,-74.28465498050454
"07726","Englishtown","NJ","Sanford Recreation Park","not_available","07726",40.30478363654636,-74.35677991612792
"07726","Englishtown","NJ","Murph's Office","3A Joseph Street","07726",40.24283044512492,-74.35593008995056
"07726","Englishtown","NJ","Holiday Park Pond","206 Pease Rd","07726",40.32285127371298,-74.32765269989083
"07726","Englishtown","NJ","The Block","not_available","07728",40.223731,-74.29155
"07726","Englishtown","NJ","Lds Park","278 stonehurst","07728",40.22674789476165,-74.29264227002587
"07726","Englishtown","NJ","Bucks Head Park","Deer way","07726",40.318921342381046,-74.35519205820773
"07726","Englishtown","NJ","Stonehurst Park","Stonehurst Drive","07728",40.22636,-74.28634
"07726","Englishtown","NJ","The VC Park","park","07726",40.31830242097226,-74.30343085582443
"07726","Englishtown","NJ","Greentree Park","Cold Springs Rd","07728",40.230807,-74.297874
"07726","Englishtown","NJ","Union Hill Rec Center","476 Union Hill Road","not_available",40.34270829414783,-74.30238239156779
"07727","Farmingdale","NJ","Manasquan Reservoir","311 Windeler Rd","07731",40.16938029823963,-74.20316219329834
"07727","Farmingdale","NJ","Soldier Memorial Park","450 Lakewood Farmingdale Rd.","07731",40.148930865377245,-74.16399536035907
"07727","Farmingdale","NJ","Manasquan Reservoir Environmental Center","331 Georgia Tavern Road","07731",40.17773595325628,-74.2198556295038
"07727","Farmingdale","NJ","Parkside at Howell","Cascades road","not_available",40.170652786084425,-74.14904139802799
"07727","Farmingdale","NJ","Zfff","not_available","07727",40.185143,-74.166015
"07728","Freehold","NJ","Henry Hudson Trail (Freehold Trailhead)","101-135 County Road 537","07728",40.26554970452977,-74.26349327157398
"07728","Freehold","NJ","Turkey Swamp Park","200 Georgia Road","07728",40.196626767508285,-74.30338502144815
"07728","Freehold","NJ","East Freehold Park & Showgrounds","Kozloski Rd & Center St","07728",40.2576535206855,-74.25066210991251
"07728","Freehold","NJ","Michael J. Tighe Park's Track","129 Jackson Mills Rd","07728",40.20753523547897,-74.2806306917739
"07728","Freehold","NJ","Pearl Street Park","Pearl Street","07731",40.1801,-74.24559
"07728","Freehold","NJ","Wynnefield-Juniper Park","130 Hibernia Way","07728",40.23593521118164,-74.26862335205078
"07728","Freehold","NJ","Buck Hill Park","not_available","07746",40.28364253159865,-74.22886598535715
"07730","Hazlet","NJ","Keyport Waterfront Park","American Legion Dr","07735",40.43757330828877,-74.20466423034668
"07730","Hazlet","NJ","Allocco Park","218-248 Middle Rd","07733",40.42417749374778,-74.14422679763987
"07730","Hazlet","NJ","Cedar Street Park","not_available","07735",40.44044697126767,-74.19324614059012
"07730","Hazlet","NJ","Keyport Fishing Peir","American Legion Drive","07735",40.43668651583907,-74.20644672281068
"07730","Hazlet","NJ","abredeen","not_available","07730",40.40513760929844,-74.2039775295003
"07730","Hazlet","NJ","Main St. Park","173 Main St","07735",40.431957,-74.20036
"07730","Hazlet","NJ","Veterans Park","1776 Union Ave","07730",40.42226881084038,-74.16093929936542
"07731","Howell","NJ","Herbertsville Park","498 Nebraska Ave","08724",40.10615158081055,-74.11805725097656
"07731","Howell","NJ","Pine Park","145 Country Club Dr","08701",40.11291652199897,-74.24909182105614
"07731","Howell","NJ","Echo Lake Park","1247-1285 Maxim Southard Rd","07731",40.13137379735282,-74.20811558329672
"07731","Howell","NJ","Frank Bartolf Sports Complex","not_available","08701",40.106805,-74.184835
"07732","Highlands","NJ","Highlands Beach","Route 36","not_available",40.396260596740404,-73.97641141234077
"07733","Holmdel","NJ","Holmdel Park","44 Longstreet Road","07733",40.36975435563169,-74.18224096298216
