"zip","city","state","name","address","postalCode","lat","lon"
"75001","Addison","TX","Les Lacs Park","3901 Beltway","not_available",32.95114552667554,-96.84863959218428
"75001","Addison","TX","Vitruvian Park","3875 Ponte Ave","75001",32.9357407594502,-96.84990654469749
"75001","Addison","TX","Addison Circle Park","4950 Addison Cir","75001",32.96091736234708,-96.82648760864595
"75001","Addison","TX","Redding Trail","3900 Beltway Dr","75001",32.946323238243146,-96.84772670599935
"75001","Addison","TX","Bosque Park","not_available","75001",32.961634269903286,-96.8250834993998
"75001","Addison","TX","Winn Park","13850 Midway Rd","75244",32.938199432325945,-96.83826676481905
"75001","Addison","TX","A Shady Spot","14900-14986 Marsh Ln","75001",32.957196672358855,-96.85749830444671
"75001","Addison","TX","Addison Town Park","3799 Sidney Drive","not_available",32.94259689,-96.85532425
"75001","Addison","TX","JPMorgan duck pond","14201 Dallas Pkwy","75254",32.94076345064437,-96.82319641113281
"75001","Addison","TX","Oram Park","not_available","not_available",32.939481,-96.848183
"75001","Addison","TX","Parkview Park","Parkview Pl. S.","75001",32.96378541369419,-96.82426340454369
"75001","Addison","TX","Rock Park","Beltway","not_available",32.95049641961058,-96.84969189398666
"75001","Addison","TX","North Addison Park","17001 Addison Rd","75001",32.98654341786744,-96.83498095651142
"75001","Addison","TX","Spruill Park","Goodman Avenue","not_available",32.963408215220795,-96.82738777872937
"75002","Allen","TX","Oak Point Park & Nature Preserve","5901 Los Rios Blvd.","75074",33.05730565955925,-96.67348345196142
"75002","Allen","TX","Celebration Park","701 Angel Pkwy","75002",33.10743197764851,-96.62415504455566
"75002","Allen","TX","Friendship Park","1621 White Ibis Way","75098",33.039595564991366,-96.56415685274321
"75002","Allen","TX","Heritage Park","not_available","75002",33.075508920276164,-96.65568702884741
"75002","Allen","TX","Stoney Hollow Park","not_available","75074",33.047223552104086,-96.64985688892476
"75002","Allen","TX","Cottonwood Bend Park","630 Meadowbrook Street","75002",33.0749397277832,-96.66754913330078
"75002","Allen","TX","Stacy Ridge Park","1800 Country Brook Lane","not_available",33.122956063601734,-96.61967599544762
"75002","Allen","TX","Story Park","1540 Edelweiss","75002",33.09507420336854,-96.63143566928206
"75002","Allen","TX","Sweetimes 4 ALL","908 allen central drive","75013",33.0982417,-96.6833532
"75002","Allen","TX","Bradford Crossing Park","1405 Bradford Trace Dr","75002",33.11776456307702,-96.63611625631711
"75006","Carrollton","TX","Mill Valley Park","2100 Carmel Pl","75006",32.974905,-96.881107
"75006","Carrollton","TX","Barney Wood Bark Park","not_available","75234",32.938417,-96.879729
"75006","Carrollton","TX","Pioneer Park","Main St.","75006",32.9526365054932,-96.90662366020864
"75006","Carrollton","TX","Rawhide Park","Rawhide Parkway","75234",32.93321929415579,-96.87630872824198
"75006","Carrollton","TX","Pond at Briarwyck","not_available","75006",32.98028215457211,-96.86003386974335
"75006","Carrollton","TX","Mary Heads Carter Park","2320 Heads Ln.","75007",32.975457918599496,-96.872459272654
"75006","Carrollton","TX","Oran Good Park","13401 Tom Field","75234",32.92598471717461,-96.88906854410303
"75006","Carrollton","TX","Holman D. Rhoton Park","2250 Ridgedale Dr.","75006",32.94966506958008,-96.8777084350586
"75006","Carrollton","TX","Oakbrook Ken Rymer Park","14501-14599 Park Lake Ct","75234",32.94929291823482,-96.86212918790008
"75006","Carrollton","TX","WJ Thomas Park","1950 N. Perry Rd.","75006",32.96469497680664,-96.89644622802734
"75006","Carrollton","TX","Gravely Park","1508 N. Perry Rd.","75006",32.96076806510969,-96.89321279525757
"75006","Carrollton","TX","Francis Perry Park","1400 Francis","75006",32.95098465757269,-96.89978745476219
"75006","Carrollton","TX","Rawhide Park at Josey","13450 Josey Lane","75234",32.926077638663166,-96.88400393158551
"75007","Carrollton","TX","Branch Hollow Park","not_available","75007",33.021770564510774,-96.87245448556052
"75007","Carrollton","TX","Timbercreek Park","1717 W. Rosemeade Parkway","75007",33.00087168316347,-96.91919803619385
"75007","Carrollton","TX","Oak Creek Park","2537 Oak Creek Dr.","75007",33.01565889059294,-96.85559772349681
"75007","Carrollton","TX","Harold K Bessire Park","1117 Dentonshire Dr","75006",32.989070892333984,-96.91535186767578
"75007","Carrollton","TX","Elmwood Trails Park","not_available","75010",33.015063347061165,-96.93723881309751
"75007","Carrollton","TX","Greenbelt Park Entrance","Glenhollow","75287",32.9996396737198,-96.86890758843454
"75007","Carrollton","TX","Oak Creek Tennis Center","2531 Oak Creek Dr","75007",33.01574502091185,-96.85559640973406
"75007","Carrollton","TX","Valley Mill Park Trail","not_available","75287",33.01687109141123,-96.84946153791198
"75007","Carrollton","TX","Martha Pointer Park","2742 Scott Mill Rd.","not_available",32.98971939086914,-96.88287353515625
"75009","Celina","TX","Old Celina Park","not_available","75009",33.31819706447297,-96.80280504938582
"75009","Celina","TX","Myer's Event Center","7117 County Road 166","75071",33.27189623482443,-96.68083605568613
"75010","Carrollton","TX","Harvest Run Park","4334 Spurwood","75010",33.02859145696969,-96.87361670417508
"75010","Carrollton","TX","Castle Hills Castle Park","1200 Queen Guinevere","75056",33.02938314728335,-96.89467401165669
"75010","Carrollton","TX","Castle Hills Lake Park","not_available","75056",33.03532347265572,-96.89500342515721
"75010","Carrollton","TX","Shadow Mews Park (Austin Ranch)","6990 Windhaven Parkway","not_available",33.055255584620696,-96.85131033629371
"75010","Carrollton","TX","Austin Ranch Park","5805 Saintsbury Dr","75056",33.055158,-96.849396
"75010","Carrollton","TX","Round Table Exercise Park","2617 Round Table Blvd","75056",33.04214096069336,-96.89678955078125
"75010","Carrollton","TX","Pirate Park","Sir Turquin","75056",33.034862703549585,-96.89526077993209
"75010","Carrollton","TX","Sword Bridge Pool","700 Sword Bridge Ln.","75056",33.03974809360735,-96.91205925040585
"75010","Carrollton","TX","Outdoor Park","josey","75056",33.056658,-96.87304
"75013","Allen","TX","Dr Kenneth Cooper Park","5800 Dr Kenneth Cooper Dr","75070",33.145016,-96.7177
"75013","Allen","TX","Hoblitzelle Park Trail","Red River","75025",33.077713,-96.72193
"75013","Allen","TX","Twin Creeks Golf Club","501 Twin Creeks Drive","75013",33.1042388,-96.7111468
"75013","Allen","TX","Avondale Park","not_available","75013",33.12536388035497,-96.70473960615102
"75013","Allen","TX","The World Collection Park","6452 Collin McKinney Parkway","75070",33.1454963684082,-96.70291900634766
"75013","Allen","TX","Dawson Residence","Lochness","75013",33.12119969474717,-96.69863294334795
"75013","Allen","TX","Soccer Practice","Rivercrest","not_available",33.107903,-96.650576
"75013","Allen","TX","Tejas Park","920 Bass Dr","75025",33.08221011815055,-96.70908063285823
"75013","Allen","TX","Green Park","Comanche Dr.","75013",33.10644532446298,-96.69904082011242
"75019","Coppell","TX","Andy Brown Jr Park East","260 Parkway Blvd","75019",32.97963655452061,-96.98608445637683
"75019","Coppell","TX","Highpoint","not_available","75019",32.99277626672881,-96.98925590219109
"75019","Coppell","TX","Andy Brown Park West","Denton Tap and Parkway","75019",32.98084278638265,-96.99442655117299
"75019","Coppell","TX","Champions Park","455 cowboys pkwy","75063",32.9473532385278,-96.95083895162782
"75019","Coppell","TX","The Duck Pond","310 E Bethel School Rd","75019",32.96027729836792,-96.98441616392547
"75019","Coppell","TX","Cimarron Park","9011-9079 Valley Ranch Pkwy E","75063",32.93202234970504,-96.94533878817647
"75019","Coppell","TX","Coppell Nature Park","Freeport Parkway","75019",32.965550225885764,-97.01876431703568
"75019","Coppell","TX","Tweatt Park","Sandy Lake Road","75019",32.96941481512902,-97.00707811545111
"75019","Coppell","TX","Kid Country at Andrew Brown Park East","260 East Parkway Boulevard","75019",32.979096979801405,-96.98630249175788
"75019","Coppell","TX","Saddlehorn Park","9199 Saddlehorn Dr","75063",32.93397521972656,-96.94937896728516
"75019","Coppell","TX","Allen Park","not_available","75067",32.97688732368875,-96.96542544271534
"75019","Coppell","TX","Pretty Little Pond","Vista Ridge Mall Drive","75067",32.994900018016274,-96.9949774813267
"75019","Coppell","TX","Rodeo Park","not_available","75063",32.93510150814901,-96.96739989290869
"75020","Denison","TX","Waterloo Park","not_available","75020",33.746490369631125,-96.56928103619157
"75020","Denison","TX","Katy Plaza Park","100 North Houston Ave","75020",33.75544852582554,-96.53519421336844
"75020","Denison","TX","Friendship Park","520 Farm to Market 120","75076",33.76235080205362,-96.65878760548851
"75021","Denison","TX","munson park","not_available","75021",33.744398,-96.518976
"75022","Flower Mound","TX","Trophy Club Park","2885 Trophy Park Dr","76262",33.01527786254883,-97.1785888671875
"75022","Flower Mound","TX","Meadowmere Park","Meadowmere Ln","76051",32.98003995979512,-97.12250951002302
"75022","Flower Mound","TX","Stone Creek Park","River Birch","75028",33.02515055504168,-97.05030898787008
"75022","Flower Mound","TX","Culwell Park","3600 Everton Dr","75022",33.01033495765191,-97.08577565848721
"75022","Flower Mound","TX","Westchester Park","not_available","75028",33.038933584886614,-97.07569367705537
"75022","Flower Mound","TX","Leonard Johns Park","Timber Creek Rd","75028",33.045399895063255,-97.05918788909912
"75022","Flower Mound","TX","MADD shelter lake grapevine","not_available","75022",33.00545897094198,-97.09778749801676
"75022","Flower Mound","TX","Twin Coves Park","Twin Coves Park Rd.","not_available",33.01656441611913,-97.11538256198624
"75022","Flower Mound","TX","Rheudasil Park","Lake Forest Blvd","75028",33.01658342272549,-97.05810652426273
"75022","Flower Mound","TX","Rockledge Park","Rock","76099",32.982585279791714,-97.06810752310614
"75022","Flower Mound","TX","Heritage Park","800 Spinks Rd","75028",33.000118,-97.041259
"75022","Flower Mound","TX","Harmony Park","23 W Hillside Pl","76262",32.99922384118621,-97.17860775810867
"75022","Flower Mound","TX","Glenwick Park","3332 Cross Timbers Rd","75028",33.04017949950804,-97.07916624542202
"75022","Flower Mound","TX","Colony Park","1001-1011 Colony St","75028",33.05045734,-97.04801361
"75022","Flower Mound","TX","Gerault Park","Gerault Rd & Spinks Rd","75028",33.000225884931766,-97.04494756277822
"75022","Flower Mound","TX","Parker Square Park","Cross Timbers Rd","75028",33.03880351401811,-97.0500464202346
"75023","Plano","TX","Chisholm Trail","6560 Independence Pkwy","75075",33.04993005690481,-96.72703291455238
"75023","Plano","TX","Horseshoe Park","2601 Cross Bend Rd","75023",33.049523344400946,-96.74278968472296
"75023","Plano","TX","Big Bend Park","Chisholm Trail","75023",33.04607348879895,-96.72355805809818
"75023","Plano","TX","High Point Soccer Fields","6500 Alma Dr.","75023",33.06020299427143,-96.70880898362272
"75023","Plano","TX","Buckhorn Park","3801 Mission Ridge Rd","75023",33.04645932516282,-96.75616635537443
"75023","Plano","TX","Clearview Park","6600 Eagle Pass","not_available",33.049882708216124,-96.70549443278351
"75023","Plano","TX","Hoblitzelle Park","Alma rd","75023",33.06800891397657,-96.72539007917102
"75023","Plano","TX","Ruisseau Place Park 1","not_available","75023",33.04325537074403,-96.70875674351636
"75023","Plano","TX","Clark Field (West)","W Spring Creek Pkwy.","not_available",33.06152944574311,-96.7044955860259
"75023","Plano","TX","Wagon Wheel Park","6501 Rainier Rd","75023",33.061738430395295,-96.71374343143736
"75023","Plano","TX","Jack Carter Park - Kickball Time","6521 Roundrock Trl","75023",33.062436,-96.74727
"75024","Plano","TX","Windhaven Meadows Park","5400 Windhaven Pkwy","75093",33.05575942993164,-96.81019592285156
"75024","Plano","TX","Carpenter Park","6701 Coit Rd","75024",33.06321948788166,-96.77608750613464
"75024","Plano","TX","Stonebriar Park","not_available","75034",33.10551764697414,-96.83483035931108
"75024","Plano","TX","Central Park Frisco","3115 Parkwood","not_available",33.10297964585926,-96.81736552023202
"75024","Plano","TX","Big Sky / Rustling Water Park","not_available","75024",33.100370306282684,-96.77971684765903
"75024","Plano","TX","Coyote Creek Park","3900 Communications","75093",33.05984133996586,-96.83386642063246
"75024","Plano","TX","Plano Light the Night","5360 Legacy Dr","75024",33.076166,-96.810766
"75024","Plano","TX","Granite Park 1","5800 Granite Pkwy","75024",33.08755328709903,-96.82021717463185
"75024","Plano","TX","Small Park","7401 Bishop Road","75024",33.07963982144135,-96.82100772857666
"75024","Plano","TX","Baccus Plaza","7600 Ruthie Rd","75024",33.080834261830184,-96.8223166341479
"75025","Plano","TX","Russell Creek Park","Russell Creek and Independence","not_available",33.09595049357638,-96.75394455967346
"75025","Plano","TX","Hidden Meadow Park","Kimble Dr","75025",33.10440135107678,-96.75869145344033
"75028","Flower Mound","TX","The Heritage Park of Flower Mound","Spinks Rd.","75028",33.00093223391221,-97.03973358559875
"75028","Flower Mound","TX","Creekview Park","1806 S. Old Orchard Lane","75067",33.02472539265556,-97.03012413326496
"75028","Flower Mound","TX","Chinn Chapel Soccer Fields","3950 Justin Rd","not_available",33.07344805804002,-97.08930129749503
"75028","Flower Mound","TX","Bakersfield Park","Duncan Ln.","75028",33.00261725269998,-97.03073501586914
"75028","Flower Mound","TX","Iris Lane Park","1303 Iris Lane","75067",33.038318,-97.027804
"75028","Flower Mound","TX","Sylvan Creek Park","1250 Fox Avenue","75067",33.034832779908186,-97.02826217941619
"75028","Flower Mound","TX","Backyard","G Home","75022",33.00942141,-97.08516488
"75032","Rockwall","TX","Yellowjacket Park","not_available","75087",32.910074,-96.454013
"75032","Rockwall","TX","Park at Hickory Ridge","not_available","75032",32.897339774662264,-96.43581360330252
"75032","Rockwall","TX","The Park At Fox Chase","Tubbs St","75032",32.882703081656494,-96.46388010398
"75034","Frisco","TX","Little Elm Park","704 W. Eldorado Parkway","75068",33.15900213484022,-96.94712519645691
"75034","Frisco","TX","Frisco Commons","8000 McKinney Rd","75034",33.153425655796255,-96.81393362705032
"75034","Frisco","TX","Stewart Creek Park","3700 Sparks Road","75056",33.08186879195993,-96.92063829551803
"75034","Frisco","TX","Northeast Community Park","2895 Honey Grove Drive","75035",33.186157,-96.77424
"75034","Frisco","TX","Ruff Range Dog Park","3335 4th Army Memorial Dr.","75056",33.12288831567116,-96.86091934037678
"75034","Frisco","TX","Beavers Bend Park","5011 legacy drive","75034",33.122802122239364,-96.84739884022646
"75034","Frisco","TX","B. F. Phillips Community Park","4th Army Memorial Rd","75034",33.12729654101881,-96.86288113528066
"75034","Frisco","TX","Cottonwood Creek Marina","900 Lobo Ln","75068",33.14269213158196,-96.94269635653598
"75034","Frisco","TX","McCord Park","FM 423","75068",33.16518335315251,-96.89192884421355
"75034","Frisco","TX","Legends Park","Allister","not_available",33.08446171708718,-96.8666022115451
"75034","Frisco","TX","Warren Sports Complex","Eldorado Pkwy.","75068",33.171254821723814,-96.81740810066906
"75034","Frisco","TX","Bi-Centennial Park","9349 Sunset Dr","75035",33.1536890195799,-96.80942336739896
"75034","Frisco","TX","Willow Pond","Parkwood Blvd","75083",33.11610675872257,-96.81098075219772
"75034","Frisco","TX","Bill Allen Memorial Park","5940 Carroll Dr","75056",33.098179965210015,-96.85793289396902
"75034","Frisco","TX","Legends Park","5740 Alister Ln","75056",33.090153,-96.864313
"75034","Frisco","TX","Vivian Stark McCallum Park","Snowberry","75035",33.14238973357535,-96.79851004320143
"75034","Frisco","TX","Country Club Ridge Park","Buena Park Drive","75034",33.17684862990287,-96.8759892409894
"75034","Frisco","TX","Oakbrook Park","8001 Woodstream Drive","not_available",33.14508934071444,-96.81470804184382
"75034","Frisco","TX","Crescent Park","11595 Lenox Ln","75033",33.174764,-96.856785
"75035","Frisco","TX","Limestone Quarry Park","Maltby Dr","75035",33.12578972732438,-96.74682485026591
"75035","Frisco","TX","Aviator Park","Monticello","not_available",33.21299446190385,-96.73959746564618
"75035","Frisco","TX","WestRidge Subdivisions","btw Independence & Custer","75069",33.193224296029065,-96.74433687855145
"75035","Frisco","TX","Dr. Mack Hill Park","1849 Reagan Dr","75035",33.187950134277344,-96.74363708496094
"75035","Frisco","TX","Harold Bacchus Community Park","13995 W Main St","75035",33.150558922467184,-96.75463914871216
"75035","Frisco","TX","Yucca Ridge Park","13813 Sutherland LN","75035",33.16384507241852,-96.75747855760292
"75035","Frisco","TX","George Webb Park","10450 Millbend Drive","75072",33.194944,-96.759179
"75035","Frisco","TX","Foncine settlement Park","Palo Pinto Dr","75070",33.177376784774744,-96.74142122268677
"75035","Frisco","TX","Stephen's Green Park","not_available","75035",33.170208,-96.739669
"75035","Frisco","TX","Shepherds Glen Park","12012 Shepherds Hill Drive","75035",33.143558502197266,-96.77452850341797
"75035","Frisco","TX","West Ridge Soccer Field","not_available","75071",33.196855067610265,-96.74485951613033
"75035","Frisco","TX","Ash Woods Park","10302 JFK Blvd","75070",33.18586788159809,-96.75364977480122
"75035","Frisco","TX","Coyote Crossing Park","10530 Wilton Dr","75035",33.180145109025624,-96.79153586984027
"75035","Frisco","TX","Cannaday Recreation Area","9800 Sean Dr","75035",33.114404,-96.796189
"75038","Irving","TX","Northwest Park","2800 Cheyenne St","75062",32.84460260059668,-97.00082302093506
"75038","Irving","TX","W. O. Harrington Park","5350 Valley View Lane","75060",32.886379679075304,-96.9985455211932
"75038","Irving","TX","Jefferson Ridge Park","not_available","75038",32.87980341807106,-96.96794986724854
"75038","Irving","TX","Victoria Park","3051 W Northgate","75038",32.86025171139323,-96.9888517699749
"75038","Irving","TX","Las Colinas Blvd Bench By The Pond","not_available","75039",32.89873791627632,-96.95212885633227
"75038","Irving","TX","Hidden Ridge, TX","231-1399 Hidden Ridge","75038",32.880393553639486,-96.97158011728482
"75038","Irving","TX","Nichols Park","136-298 W Ireland Dr","75062",32.83870861759154,-96.94673344768272
"75038","Irving","TX","Events In Motion","3401 N Belt Line Rd","75062",32.851198,-96.992788
"75039","Irving","TX","La Villita Lake","6648 Plaza Via","75039",32.89895690650635,-96.9308253549759
"75039","Irving","TX","California Crossing","32.867549,-96.92327","75220",32.868341705856324,-96.92310333251953
"75039","Irving","TX","Wingren Park","not_available","75062",32.857773485267344,-96.94115008746994
"75039","Irving","TX","L B Houston Nature Trail, East Trailhead","10100 Wildwood Dr","not_available",32.866487973928415,-96.92269393623499
"75040","Garland","TX","Firewheel Mall Play Area","245 Cedar Sage Dr","75040",32.954139907170514,-96.61121072658833
"75040","Garland","TX","Coomer Park","554 Apollo","75040",32.94515761878773,-96.6373580618163
"75040","Garland","TX","Katy Railroad Park","2600 Lawing","75088",32.89812637040085,-96.5796850862728
"75040","Garland","TX","Central Park","1 S Glenbrook Dr","75040",32.90475104668438,-96.64474747057608
"75040","Garland","TX","W & S Bench","not_available","75089",32.910142,-96.592646
"75040","Garland","TX","James Park","1213 Highmeadow","not_available",32.900760382038655,-96.60901381175935
"75040","Garland","TX","Embree Park","not_available","75040",32.89805768457778,-96.62288438778666
"75040","Garland","TX","Dave Sanford Park","not_available","75048",32.9673009007623,-96.58385206182072
"75040","Garland","TX","Formanville","1105 Quail Dr","75040",32.898768,-96.616271
"75041","Garland","TX","Lochwood Park","11900 Lochwood Blvd.","75218",32.85671628629367,-96.69178962707518
"75041","Garland","TX","Core Skate Park","475 E Oates Rd","75043",32.857215881347656,-96.60442352294922
"75041","Garland","TX","Buddy Graham Park","Clear Point Drive","75041",32.86614053970088,-96.6559584538168
"75041","Garland","TX","Pecan Grove Park","Centerville Rd @ Glenbrook Dr","75041",32.8703701466763,-96.63279229235162
"75041","Garland","TX","Garland Tennis Center-Cardio Tennis","not_available","75041",32.88980678670839,-96.64198677963012
"75041","Garland","TX","Betsy Ross park","1818 Wynn Joyce Rd","75043",32.86673355102539,-96.60238647460938
"75041","Garland","TX","Troth Ablon Park","not_available","75043",32.863134484643425,-96.62653641220032
"75042","Garland","TX","Harris Hollabaugh Recreation Center","3925 W Walnut St","75042",32.917446000000005,-96.69038499999999
"75042","Garland","TX","P.O.B. Montgomery Park","101-279 N International Rd","75042",32.91420190189264,-96.67480441560289
"75043","Garland","TX","Duck Creek Greenbelt","4917 Duck Creek Drive","75043",32.852996826171875,-96.6128921508789
"75043","Garland","TX","Peninsula Park","not_available","75088",32.879255,-96.528879
"75043","Garland","TX","Cody Park","Duck Creek Rd","not_available",32.848281353493334,-96.60775157698993
"75043","Garland","TX","Joseph Dynasty","Collins","75182",32.82975088794795,-96.56121236318927
"75043","Garland","TX","Elgin B. Robertson Park","not_available","75388",32.87439713468237,-96.51963472366333
"75043","Garland","TX","Forty-Niners Park","not_available","75150",32.83579555523002,-96.61552358342433
"75043","Garland","TX","Audubon Park","5758 O Banion Rd","75043",32.84772469133239,-96.61637386695473
"75044","Garland","TX","Spring Creek Greenbelt","6102 N Shiloh Rd","75044",32.97380480188443,-96.66919703363322
"75044","Garland","TX","Spring Park","3330 Springpark Way","75044",32.979080197379936,-96.67604043662683
"75044","Garland","TX","111 Ranch Park","not_available","75044",32.9731163960176,-96.62500253656741
"75044","Garland","TX","Bisby Park","3114 Pinewood Dr","75044",32.95714476047578,-96.67460078702662
"75048","Sachse","TX","Travis Farm Park","Skyline Drive","75094",32.99382383701632,-96.60024648921132
"75048","Sachse","TX","Joe J.","6000 Laurel Crest, Sachse, TX 75048","75048",32.9698098,-96.5834771
"75048","Sachse","TX","Wilson Park","Elm St, West Carrollton, OH, 45449","45449",32.9768062,-96.5670549
"75050","Grand Prairie","TX","Mike Lewis Park","2410 N Carrier Pkwy","75050",32.785524708917144,-97.02832102775574
"75050","Grand Prairie","TX","Centennial Park","444 W 2nd St","75060",32.812087862353344,-96.95121123860109
"75050","Grand Prairie","TX","Running Bear Park","2600 S Story Rd.","75060",32.78662939950551,-96.97734475111197
"75050","Grand Prairie","TX","Liberty Bell","not_available","75050",32.746140005417864,-97.00715683454808
"75050","Grand Prairie","TX","Mike Lewis Park","North Carrier Parkway","75050",32.770436220504294,-97.02397863048655
"75050","Grand Prairie","TX","Turner Park","600 N. Belt Line Rd.","75050",32.75293993009407,-96.9967090060145
"75050","Grand Prairie","TX","Charles Taylor Recreation Center","601 E Grand Prairie Rd","75051",32.741981506347656,-96.99622344970703
"75050","Grand Prairie","TX","Shady Grove trail park","Shady grove","75060",32.79891987887378,-96.95617701413586
"75050","Grand Prairie","TX","Keller Park","not_available","75060",32.809406583333335,-96.96180911666667
"75050","Grand Prairie","TX","Heritage Park","217 S Main St","75060",32.812295,-96.946662
"75050","Grand Prairie","TX","Good Link Linear Park","Good Link Trail","75050",32.778648986714735,-97.02742749557348
"75050","Grand Prairie","TX","Cp Waggoner Park","2122 N. Carrier Parkway","75050",32.770281,-97.025121
"75051","Grand Prairie","TX","Mountain Creek Lake Park","Lakeview","not_available",32.71183219398196,-96.97967382709805
"75051","Grand Prairie","TX","Corsair Park","not_available","75052",32.71515639566829,-97.02674505748097
"75051","Grand Prairie","TX","Tyre Park","2327 Tyre St.","75051",32.72694396972656,-97.03732299804688
"75051","Grand Prairie","TX","Carl Knox, Jr. Park","1200 Susan Drive","76010",32.723228454589844,-97.05815887451172
"75051","Grand Prairie","TX","Tyre Park","not_available","75051",32.727301948238626,-97.03919803412346
"75051","Grand Prairie","TX","Dalworth Rec Center","2251 Spikes Street","not_available",32.734398131228915,-97.03152752167234
"75051","Grand Prairie","TX","Mountain Valley Park","1097-2251 S Merrifield Rd","75211",32.73528151642991,-96.93122083721735
"75052","Grand Prairie","TX","Lynn Creek Park","5700 Lake Ridge Pkwy","75052",32.63197968026201,-97.03037255906827
"75052","Grand Prairie","TX","Fish Creek Linear Park","Cravens Park to Hwy 360","76018",32.65406835549981,-97.0773916317829
"75052","Grand Prairie","TX","Vickery Park","not_available","76014",32.695983967859995,-97.066096462422
"75052","Grand Prairie","TX","Fish Creek Park & Linear Trail","2372 Norwich Ln","75052",32.66627871766716,-97.03299750319847
"75052","Grand Prairie","TX","Blackland Prairie Park","4907 New York Ave","76018",32.66636276245117,-97.07772064208984
"75052","Grand Prairie","TX","Parkhill Park","5100 Robinson Road","75052",32.650071470399794,-97.0133864362339
"75052","Grand Prairie","TX","Playgrand Adventures","2985 Epic Pl.","75052",32.70096206665039,-97.03353881835938
"75052","Grand Prairie","TX","Foxhaven","not_available","75249",32.64695208840777,-96.96685968250779
"75052","Grand Prairie","TX","Central Park Grand Prairie","1601 Arkansas Ln","75052",32.70086128662413,-97.02774312559463
"75052","Grand Prairie","TX","Brantley Hinshaw Park","2121 Overbrook Drive","76014",32.69628143310547,-97.07325744628906
"75052","Grand Prairie","TX","Fish Creek Neighborhood Park","2121 Havenwood Drive","76018",32.65372848510742,-97.07247924804688
"75052","Grand Prairie","TX","The Place Where Danae Knocked Me Over","Fish Creek Trail","75052",32.66109278,-97.04041612
"75056","The Colony","TX","Arbor Hills Nature Preserve","6701 W. Parker Road","75093",33.04795972176409,-96.8480375365988
"75056","The Colony","TX","Toyota of Lewisville Railroad Park","1301 S. Railroad Street","75057",33.032034798686446,-96.97136163711548
"75056","The Colony","TX","East Hill Park","2681 Lake Ridge Road","75056",33.064967198294504,-96.90634489059448
"75056","The Colony","TX","Sommerset @ The Tribute","2800 Waverly","75056",33.111327,-96.923043
"75056","The Colony","TX","Lion's Club Park","4800 nash dr.","75056",33.09199459386959,-96.88982289683277
"75056","The Colony","TX","Arbor Hills Eastern Lot","not_available","75093",33.04916527718683,-96.84538855804442
"75057","Lewisville","TX","Lewisville Lake Park","Lake Park Road","75057",33.07658322673801,-97.00633764266968
"75057","Lewisville","TX","Lake Park Soccer Complex","200 Lake Park Road","75057",33.07267695515541,-97.00714109072119
"75057","Lewisville","TX","Memorial Park","1950 S Valley Pkwy","75067",33.01936480956964,-97.02163749414969
"75057","Lewisville","TX","Central Park","1899 S. Edmonds Lane","75067",33.01677336359902,-97.00398190532266
"75057","Lewisville","TX","Fox Creek Greenbelt Park","689 Bellaire Boulevard","75067",33.025428769697875,-96.99873007745899
"75057","Lewisville","TX","Hidden Creek","1200 College Pkwy","75077",33.046965911000115,-97.02522797030096
"75057","Lewisville","TX","Orchard Valley Park","1133 Brittany Place","75077",33.061192482398106,-97.02192589997227
"75057","Lewisville","TX","College Street Park","535 W. College St.","75057",33.049808502197266,-97.00496673583984
"75057","Lewisville","TX","Sycamore Park","700 Hembry","75057",33.039140317702056,-96.9917893409729
"75057","Lewisville","TX","Raldon-Lake Cities Park","800 Foxwood Place","75067",33.03399856196601,-97.0040973546227
"75057","Lewisville","TX","Oakbend Park","Oakbend","75067",33.00803551121897,-96.98907686272095
"75060","Irving","TX","River Bottoms","not_available","75247",32.81238460139803,-96.90842777521533
"75061","Irving","TX","Sunnybrook Pocket Park","not_available","75061",32.82681651182987,-96.96228010944884
"75061","Irving","TX","Lively Park","O'Connor Blvd.","not_available",32.82705143368791,-96.95249695576867
"75061","Irving","TX","Towne Lake Park","800 Esters Road","75061",32.82403711733524,-97.00475982203703
"75061","Irving","TX","West Park","530 Davis Dr","75061",32.82042,-96.998459
"75061","Irving","TX","Rose Meadow Park","1505 Rose Street","75061",32.83048629760742,-96.93878936767578
"75061","Irving","TX","Sunrise Park","1809 E. Union Bower","75061",32.82964522182123,-96.92250860216565
"75061","Irving","TX","Irving Art Association","1923 Puritan Dr","75061",32.836244,-96.97128000000001
"75062","Irving","TX","Fraiser Dam Recreation Area","9300 S Stemmons Freeway Frontage Rd","75220",32.862513,-96.893178
"75063","Irving","TX","Tim Markwood  Park","1001 MacArthur Park","75063",32.914791107177734,-96.96268463134766
"75063","Irving","TX","Grapevine Springs Park Reserve","Park Ln","not_available",32.95312507224574,-97.00092494487762
"75063","Irving","TX","The Water Circle","8605 N MacArthur Blvd","75063",32.925933837890625,-96.95502471923828
"75065","Lake Dallas","TX","Doubletree Ranch Park","310 Highland Village Rd","75077",33.088642946123784,-97.03513653470915
"75065","Lake Dallas","TX","West Lake Park","Main St.","75065",33.111026698795584,-97.0023250579834
"75065","Lake Dallas","TX","Arrowhead Park","not_available","75065",33.10831037252517,-97.02735925144778
"75065","Lake Dallas","TX","Sycamore Bend Park","Sycamore Bend Road","not_available",33.10830684870807,-97.0609178351719
"75065","Lake Dallas","TX","Copperas Branch Park","Copperas Branch Dr","75077",33.09388719189096,-97.02814143833533
"75065","Lake Dallas","TX","Brazos Park","190 Brazos","75077",33.08561744919319,-97.05019345798246
"75065","Lake Dallas","TX","harbor grove park, hickory creek, tx","not_available","76210",33.108640431752924,-97.05031949059712
"75065","Lake Dallas","TX","Bluet Sup","218 Orchid Hill Ln","76226",33.101352,-97.070944
"75065","Lake Dallas","TX","Unity Park","2200 Briarhill Blvd","75077",33.079427501750466,-97.06620676736141
"75065","Lake Dallas","TX","Bruce Lockhart Lions Club Park","500 Highland Village Road","75077",33.092513,-97.039139
"75065","Lake Dallas","TX","Wichita Forest Park","not_available","75077",33.092166,-97.039652
"75065","Lake Dallas","TX","Sunset Point","400 Edgewater","75077",33.09295045862153,-97.05545552325266
"75065","Lake Dallas","TX","Silverthorne Park","930 Silverthorne Trail","75077",33.082325,-97.0724
"75067","Lewisville","TX","Forest Vista Playground","800 Forest Vista","75028",33.02146643001518,-97.0414137751659
"75068","Little Elm","TX","Beard Park","not_available","75068",33.16336768501631,-96.93212860378449
"75068","Little Elm","TX","Windrose Park","Bridle Blvd","75034",33.13645,-96.881516
"75068","Little Elm","TX","Waterstone Pool","5931 Indian Blanket Dr","75034",33.127612,-96.895736
"75068","Little Elm","TX","Hydros Wakeboard Park, Little Elm","280 E Eldorado Pkwy","75068",33.162059,-96.934803
"75068","Little Elm","TX","Villa Paloma Park","1211 Villa Palomoa Blvd, Little Elm, TX 75068","75068",33.22034978875125,-96.9201456382561
"75069","Mckinney","TX","Towne Lake Park","not_available","75069",33.18528634902025,-96.63327233508971
"75069","Mckinney","TX","Valley Creek Park","not_available","75072",33.17212,-96.654096
"75069","Mckinney","TX","Finch Park","West Standifer Street","not_available",33.19104956147129,-96.62004117020234
"75069","Mckinney","TX","McKissick Park","2702 Taylor Burk Dr.","75071",33.2239318305737,-96.6495750513605
"75069","Mckinney","TX","Cottonwood Park","212 McMakin St","75069",33.18149185180664,-96.61585235595703
"75069","Mckinney","TX","Wilson Creek Bike Trail","2700 N Brook Dr","75070",33.193484999999995,-96.651927
"75069","Mckinney","TX","Towne Lake Park","1405 Wilson Creek Pkwy","not_available",33.184791564941406,-96.63334655761719
"75069","Mckinney","TX","El Dorado Pointe Neighborhood Park","Aspen Drive","75070",33.16203907530629,-96.65967500347432
"75070","Mckinney","TX","Nora Haney Park","not_available","75070",33.18662089317065,-96.68530521445872
"75070","Mckinney","TX","Stonebridge Beach & Tennis Club","6201 Virginia Pkwy","75071",33.197686796997594,-96.7005443572998
"75070","Mckinney","TX","Carey Cox Memorial Park","1611 N Stonebridge Dr","75071",33.21317210563737,-96.71767474275495
"75070","Mckinney","TX","EA Randles Park","5400 Cedar Elm Dr","75070",33.167850494384766,-96.68904113769531
"75070","Mckinney","TX","Tom Allen Jr., Park","3301 Bahnman Dr","75070",33.170387268066406,-96.72105407714844
"75070","Mckinney","TX","Woodcliff Park","Woodcliff","75070",33.19321834209271,-96.7244306736337
"75070","Mckinney","TX","The Courts at McKinney","3253 Alma Rd","75070",33.171302000000004,-96.709683
"75071","Mckinney","TX","Melissa Zadow Park","3001 McKinney St.","75454",33.28942045,-96.575062
"75071","Mckinney","TX","Erwin Park","4300 CR 1006","75071",33.25449609756393,-96.65613592460977
"75071","Mckinney","TX","Bob Miller Park","not_available","75454",33.2737665959574,-96.56818117627475
"75071","Mckinney","TX","W.B. Finney Park at Glen Oaks","Glen Oaks Dr","75070",33.189817812026305,-96.69827301121971
"75071","Mckinney","TX","Inspiration Park","4212 Shawnee Dr.","75071",33.24230873002119,-96.62111062254476
"75071","Mckinney","TX","Tucker Hill Playground","Addison","75071",33.221343592872735,-96.71086727750593
"75074","Plano","TX","Haggard Park","901 E 15th St","75074",33.021246219449075,-96.69992063841222
"75074","Plano","TX","Willow Creek Park","1617-1619 19th St","75074",33.02828346218208,-96.68279492233218
"75074","Plano","TX","Shoshoni Park","3450 Hillridge Drive","75074",33.01686477661133,-96.66923522949219
"75074","Plano","TX","Cityline Park","Routh Creek","75082",32.999638,-96.70326
"75074","Plano","TX","Blue Ridge Park","not_available","75075",33.01598197799212,-96.69680532037341
"75074","Plano","TX","Bob Griffith Park","2601 San Gabriel Dr","not_available",33.03546905517578,-96.66010284423828
"75074","Plano","TX","Shawnee Park","1800 p ave.","75074",33.04403289889195,-96.68945074081421
"75075","Plano","TX","Eldorado Park","Eldorado Dr","75093",33.02263631328062,-96.78177739996092
"75075","Plano","TX","Hackberry Park","1600 Rio Grande Dr","not_available",33.02229346991703,-96.72729418951546
"75075","Plano","TX","Arrowhead Park and Trail","Millington","75093",33.033547817844806,-96.78253772437495
"75075","Plano","TX","Evans Park","1601 Mollimar Dr.","75075",33.021942178030784,-96.75496101379395
"75075","Plano","TX","Pradeea Dog Park","not_available","75080",33.00244061948874,-96.7418384207978
"75075","Plano","TX","Harrington Park","401 W 16th St","75075",33.02198901479786,-96.712079298552
"75077","Lewisville","TX","Meadowlake Park","1430 Brazos Blvd.","75077",33.07652242225437,-97.03572755541214
"75077","Lewisville","TX","Kids Kastle","Briarhill Blvd.","75077",33.077889224730576,-97.06601308423518
"75077","Lewisville","TX","Highlands Park","1936 Big Sky Drive","75077",33.075630266671624,-97.04176425933838
"75077","Lewisville","TX","Dixon Park and Playground","Windridge Lane","75028",33.067284322494665,-97.0705350676232
"75077","Lewisville","TX","Victoria Park","202 Victoria Drive","75077",33.078260046009085,-97.0478566466219
"75078","Prosper","TX","Silo Park","380 West Broadway","75078",33.23709239219409,-96.80520640070458
"75078","Prosper","TX","Cherokee Rose Park","not_available","76227",33.2311102,-96.896731
"75078","Prosper","TX","Log park and Swing","not_available","75078",33.235561,-96.856811
"75078","Prosper","TX","Willow Ridge Playground","932 Hawthorn Dr","75078",33.22431418470805,-96.78986928407534
"75080","Richardson","TX","Heights Park","711 W Arapaho Rd","75080",32.96073782216877,-96.74481247377155
"75080","Richardson","TX","Creek","Prairie Creek Dr E","75080",32.989147225558426,-96.71790463132908
"75080","Richardson","TX","Mimosa Park","1300 Mimosa Dr.","75080",32.967794997675526,-96.76201657753482
"75080","Richardson","TX","FUMCR Really Big Jesus","503 N Central Expy","75080",32.956459299184154,-96.73393410912868
"75080","Richardson","TX","Cottonwood Park","1400 W Belt Line Road","75080",32.949308430391675,-96.76519024359291
"75080","Richardson","TX","Mckamy Springs Park","Brick Row Dr.","75071",32.94199147977118,-96.73571826079488
"75080","Richardson","TX","Canyon Creek Park","600 Aspenwood","75080",32.98065085007994,-96.73881799819348
"75080","Richardson","TX","Custer Park","700-764 W Renner Rd","75080",32.99842967584821,-96.736501315129
"75080","Richardson","TX","Eastside Park","not_available","75081",32.97319878702952,-96.71375049927482
"75080","Richardson","TX","Spring Creek Nature Area","US-75","not_available",32.97880331057182,-96.70945154039374
"75080","Richardson","TX","Terrace Park","Grove rd","not_available",32.950228303196965,-96.71857062712004
"75081","Richardson","TX","Huffhines Park","1500 Apollo Rd.","75081",32.95082185462456,-96.69741641890371
"75081","Richardson","TX","Mark Twain Neighborhood","Beltline","75081",32.95309731916515,-96.70403156366098
"75081","Richardson","TX","Berkner Park","1800 E. Spring Valley","not_available",32.9375834624348,-96.68999483697195
"75081","Richardson","TX","Buckingham Park","500 Buckingham Rd","75081",32.934043884277344,-96.7249984741211
"75081","Richardson","TX","National At Camden Park At Buck Apartments Richardson","430 Buckingham Rd","75081",32.93397521972656,-96.72785186767578
"75082","Richardson","TX","Breckenridge Park","3555 Park Vista Rd.","75082",32.9912266631002,-96.62627032909853
"75082","Richardson","TX","Foxboro Park","Spring Creek Trail","75082",32.98946677503194,-96.69863341017235
"75082","Richardson","TX","Crowley Park","2400 Lookout Dr","75082",32.98652262974051,-96.67575469082153
"75082","Richardson","TX","Galatyn Woodland Preserve","911 E Lookout Dr","not_available",32.987754493971885,-96.70719208040086
"75082","Richardson","TX","Creek Hollow Park","Breckenridge Blvd","75082",32.98933569886852,-96.64332384446743
"75082","Richardson","TX","Fox Creek Park","e cityline dr","75082",32.996826,-96.6952
"75087","Rockwall","TX","Harry Myers Park","815 E. Washington St.","not_available",32.931000907867855,-96.44798389579502
"75087","Rockwall","TX","The Park at Emerald Bay","Park View Drive","75087",32.942236048939684,-96.47771904679959
"75087","Rockwall","TX","Lofland Park","403 E Kaufman St","75087",32.931946999999994,-96.457308
"75087","Rockwall","TX","Harry Myers Park Twilight Camp","1401-1481 E Washington St","75087",32.92979121208191,-96.44587397575378
"75087","Rockwall","TX","May Vernon Park","not_available","75132",32.95492413387147,-96.38083743443165
"75087","Rockwall","TX","Rockwall Fishing Marina","Willow Bend","75087",32.92894941952641,-96.4738655090332
"75087","Rockwall","TX","Rockwall City Park","E Washington Street","75087",32.9308945209637,-96.44708633422852
"75087","Rockwall","TX","Northshore Park","Highland Drive","75087",32.93704472231634,-96.46872639656067
"75089","Rowlett","TX","Rowlett Community Park","Phase3","not_available",32.957654504143676,-96.5307037510039
"75090","Sherman","TX","The Puup Seat","709 N Collins Fwy Lot 125","75459",33.514098,-96.614295
"75090","Sherman","TX","Pecan Grove Park  West","Unnamed Rd","75092",33.6675129552381,-96.61219037234784
"75090","Sherman","TX","Sherman Skate Park","not_available","75090",33.61465,-96.59891
"75092","Sherman","TX","Fairview Park","1101-1599 W Taylor St","75092",33.65307983414248,-96.62736075510469
"75092","Sherman","TX","Herman Baker Park","not_available","75092",33.61988067626953,-96.63581192493439
"75093","Plano","TX","Lakeside on Preston Park","Silver Creek Dr","75093",33.05064061847264,-96.80026777023723
"75093","Plano","TX","ParkwayHills Sand Volleyball","2700 Dallas Pkwy","75093",33.03601837158203,-96.8281478881836
"75093","Plano","TX","Parkwood Park","Parkwood Blvd","75093",33.03364769862428,-96.82560629151415
"75093","Plano","TX","Windhaven Park","Windhaven Park Trail","75093",33.04728269857865,-96.82195031289461
"75093","Plano","TX","The Cones of Dunshire","2600 Ventura Dr","75093",33.03481674194336,-96.79803466796875
"75094","Plano","TX","The Preserve at Maxwell Creek Trails","670 North Murphy Road","75094",33.024047621064014,-96.60560270571665
"75094","Plano","TX","Waters Edge Park","not_available","75094",33.02393367564609,-96.60363123203716
"75094","Plano","TX","Mustang Park","580 Mustang Ridge Drive","75094",33.02222589975417,-96.61728947820542
"75094","Plano","TX","Murphy City Park","333 Pine Top Dr","75094",33.00691,-96.60602800000001
"75098","Wylie","TX","Kreymer Estates Park","101 Lyndhurst Dr.","75098",33.013215604631895,-96.52126978663499
"75098","Wylie","TX","Olde City Park","112 South Ballard ST","not_available",33.013134532101,-96.53976270552002
"75098","Wylie","TX","Riverway Park","not_available","75098",33.02684269207652,-96.58699087240355
"75102","Barry","TX","Tanglewood Forest","not_available","75102",31.977872871946577,-96.6606407152205
"75103","Canton","TX","Cherry Creek City Park","not_available","75103",32.5596932615505,-95.88321791445222
"75104","Cedar Hill","TX","Lakeside City Park","not_available","75116",32.6562086307394,-96.92000413100287
"75104","Cedar Hill","TX","Armstrong Park (Kidsville)","at S Main St. & E Wheatland Rd.","75116",32.64746947229865,-96.90615177154541
"75104","Cedar Hill","TX","Valley Ridge Park","2850 Park Ridge Dr","75104",32.556332295303434,-97.00672650462897
"75104","Cedar Hill","TX","Virgina Weaver Park","631 Somerset Dr.","75104",32.57891082763672,-96.94884490966797
"75104","Cedar Hill","TX","Crawford Park","not_available","75104",32.595813611415664,-96.95508629426382
"75104","Cedar Hill","TX","Lions Park","not_available","75137",32.639558258761745,-96.91741481996884
"75104","Cedar Hill","TX","Cow Pasture Park","311 N Joe Wilson Rd","75104",32.594992,-96.92597099999999
"75104","Cedar Hill","TX","Park In The Woods","6800 Mountaim Creek Prkwy","75249",32.642076476683734,-96.95486605494443
"75104","Cedar Hill","TX","Kingswood Park","Sharon Drive","75104",32.568131055941954,-96.97634285408749
"75109","Corsicana","TX","Bunert park","Hwy 31 E","75110",32.100196,-96.446475
"75109","Corsicana","TX","Pleasant park","NW 2nd St","32601",32.1254244,-96.27477
"75110","Corsicana","TX","Jester Park","700 W Park Ave","75110",32.09620909094978,-96.47412300109862
"75110","Corsicana","TX","Community Park","843-1051 Oaklawn Dr","75110",32.101761020243885,-96.47826038331792
"75110","Corsicana","TX","IOOF Park","not_available","75110",32.07956017934743,-96.5115458578876
"75110","Corsicana","TX","Oak Park","not_available","76679",31.96121326339042,-96.68742020234477
"75114","Crandall","TX","Heartland Amenity Center","not_available","75126",32.68624690206366,-96.44538780888405
"75115","Desoto","TX","Grimes Park","501 E Wintergreen Rd","75115",32.61976737629117,-96.84347780039617
"75115","Desoto","TX","Ernie Roberts Park","515 E Pleasant Run Rd","75115",32.60554885864258,-96.84768676757812
"75115","Desoto","TX","Meadow Creek Park","not_available","75115",32.56909359218292,-96.83816985247717
"75115","Desoto","TX","Mount Vernon Dog Park","1020 Scotland Dr","75115",32.644107818603516,-96.8821792602539
"75115","Desoto","TX","Pyburn Park","915 Astaire Ave","75137",32.639713,-96.88844
"75115","Desoto","TX","H. Louis Nichols Park","1500 S. Cockrell Hill Rd","75137",32.62921,-96.89067
"75115","Desoto","TX","Moseley Park","1300 Honor St","75115",32.612514,-96.84668
"75115","Desoto","TX","badge office","1111 sparrow ln.","75115",32.572259,-96.848582
"75115","Desoto","TX","Danieldale Park","500 W Wheatland Rd","75232",32.646467,-96.831202
"75115","Desoto","TX","Willoughby Park","not_available","75232",32.640464681540095,-96.82776983142199
"75116","Duncanville","TX","Red Bird Park","W Red Bird Ln","not_available",32.67358260883803,-96.91256756817323
"75117","Edgewood","TX","Edgewood City Park","400-498 E Pine St","75117",32.69568457283591,-95.88175385348319
"75119","Ennis","TX","JayCee Park","not_available","75119",32.343653440475464,-96.648183
"75119","Ennis","TX","Fishing Point","2137-2199 Baldridge Street","75119",32.32675229446149,-96.65490929827334
"75119","Ennis","TX","Ennis Municipal Airport Park","3000-3004 Airport Drive","75119",32.32218245006885,-96.66114706718436
"75119","Ennis","TX","Ferris Park","not_available","75125",32.53149003720548,-96.65888156469457
"75125","Ferris","TX","Adams Street Park","not_available","75172",32.59961354121252,-96.6909818945981
"75126","Forney","TX","Forney Community Park","241 South FM 548","75126",32.73685877167879,-96.45652770996094
"75126","Forney","TX","Bell Park","Boise D' Arc","75126",32.747528,-96.47281
"75134","Lancaster","TX","Lancaster Community Park","not_available","75134",32.61228112540817,-96.76096569438775
"75134","Lancaster","TX","Campbell Park","200 S. Denton St.","75141",32.6441650390625,-96.71304321289062
"75142","Kaufman","TX","Kaufman City Park","2226 N State Highway 34","75142",32.598609924316406,-96.28461456298828
"75142","Kaufman","TX","Kaufman City Lake Park","not_available","75142",32.618183,-96.26672
"75143","Kemp","TX","Kemp City Park","not_available","75143",32.44181796847825,-96.23165529624652
"75146","Lancaster","TX","Lancaster City Park","211 W. Beltline Ed","75146",32.58734966068032,-96.7584666477547
"75149","Mesquite","TX","Valley Creek Ball Park","not_available","75181",32.73558107329336,-96.58960840395116
"75149","Mesquite","TX","Westover Park","not_available","75149",32.790506,-96.64789
"75149","Mesquite","TX","Debusk Park","1625 Gross Rd","not_available",32.78427924603622,-96.62981297712385
"75149","Mesquite","TX","Hodges Park","300 W Cartwright Rd","75180",32.747899,-96.600702
"75149","Mesquite","TX","Shaw Park","700 Purple Sage Trl","75149",32.773228,-96.579526
"75149","Mesquite","TX","Joe P Hawn Park","not_available","75227",32.75904078695082,-96.65815599439524
"75149","Mesquite","TX","Valley View Park","7100 Valley View Park","not_available",32.746076,-96.599022
"75149","Mesquite","TX","Pleasant Oaks Park","8107 Greenmound","75217",32.75199920487687,-96.67311275162822
"75149","Mesquite","TX","anderson-bonner park","LBJ","75180",32.73717597,-96.61052801
"75149","Mesquite","TX","Paschall Park","1001 New Market Road","75149",32.75683842634156,-96.61151749165893
"75150","Mesquite","TX","Hillview Park","8525 Freeport Drive","75228",32.8101921081543,-96.67572021484375
"75154","Red Oak","TX","Heritage Community Park","304-334 E Bear Creek Rd","75154",32.559617180455625,-96.84813177101925
"75154","Red Oak","TX","Red Oak City Park","not_available","75154",32.514913709823894,-96.81213890389067
"75159","Seagoville","TX","Segofest","not_available","75159",32.6552848815918,-96.56231689453125
"75159","Seagoville","TX","Central Park","Hwy 175","75159",32.654923426869885,-96.56231210272004
"75159","Seagoville","TX","casa grande park","800 Casa Grande","75159",32.65964474027994,-96.54368164066335
"75159","Seagoville","TX","Bruce Central Park","175","not_available",32.65498054388991,-96.56244761696826
"75160","Terrell","TX","Dog Run","117 W Damon St","75160",32.74823784828186,-96.28044605255127
"75160","Terrell","TX","Breezy Hill Park","not_available","75160",32.72876,-96.28693
"75160","Terrell","TX","Rockin' Sunset RV","9091 FM 2728","75161",32.679473876953125,-96.20083618164062
"75164","Josephine","TX","Josephine Park","not_available","75164",33.06291038272807,-96.31010284101573
"75165","Waxahachie","TX","Getzendaner Memorial Park","S. Grand Ave.","not_available",32.394674787539614,-96.86559677124023
"75165","Waxahachie","TX","Matthewâ€™s Park","Harvest Grove","75165",32.417959,-96.810353
"75165","Waxahachie","TX","Brown-Singleton Park","Farley St.","75165",32.398008507979675,-96.82860374450684
"75165","Waxahachie","TX","Chapman Park","not_available","75165",32.40700449890163,-96.8391434673577
"75166","Lavon","TX","Lavonia Park","County Road 384","75166",33.04452299838163,-96.44323922462448
"75167","Waxahachie","TX","Midlothian City Park","not_available","76065",32.442731,-96.989187
"75167","Waxahachie","TX","Kimmell Park","272 4th St","76065",32.48390136961168,-97.00134236952375
"75173","Nevada","TX","Little Ridge Park","not_available","75173",33.064563267704955,-96.45732340859675
"75180","Balch Springs","TX","Cheyenne Park","760-772 Cheyenne Rd","75217",32.72490906646891,-96.63731459657737
"75182","Sunnyvale","TX","Sunnyvale Town Park","Tripp","not_available",32.79219212749803,-96.56401152020456
"75189","Royse City","TX","Walker Hawk","not_available","75189",32.97200654819493,-96.33819387357288
"75201","Dallas","TX","Klyde Warren Park","2012 Woodall Rodgers Fwy","75201",32.78913254347952,-96.8019962310791
"75201","Dallas","TX","Exall Park","Skiles St","75204",32.79429189502202,-96.78424127266491
"75201","Dallas","TX","Reverchon Park","3505 Maple Ave","75219",32.80096580246053,-96.81207611563896
"75201","Dallas","TX","Belo Garden","1014 Main St.","75202",32.77957146197397,-96.80223226547241
"75201","Dallas","TX","Pioneer Plaza","530 S Griffin St","75202",32.7766164824028,-96.801539013177
"75201","Dallas","TX","Julius Schepps Park","not_available","75201",32.782133803128275,-96.78914676346668
"75201","Dallas","TX","Griggs Park","2200 Hugo St","75204",32.796659481568135,-96.79448209815641
"75201","Dallas","TX","Main Street Garden","1900 Main St","75201",32.781135544479234,-96.79518304726031
"75201","Dallas","TX","Beck Park","1732 North Ackard Street","75201",32.78625374909392,-96.80053980367138
"75201","Dallas","TX","Thanks-Giving Square","1627 Pacific Ave","75201",32.782566175382364,-96.79847717285156
"75201","Dallas","TX","J.W. Ray Park","2101 Caddo St.","75204",32.80037378747338,-96.78936255573124
"75201","Dallas","TX","DSS Flag Football - Griggs","2100 Clark St.","75204",32.795780181884766,-96.79449462890625
"75201","Dallas","TX","WFAA Plaza","701 Wood St.","75202",32.77711450384112,-96.805049099803
"75201","Dallas","TX","Precinct 3009","not_available","75204",32.79506,-96.78741
"75201","Dallas","TX","Dallas","Pike Park","not_available",32.79329,-96.809625
"75201","Dallas","TX","Harry Hines Memorial Park","2402 Harry Hines Blvd","75201",32.79060363769531,-96.80545043945312
"75201","Dallas","TX","Exall Park Recreation Center","1355 Adair St","75204",32.794332108882934,-96.78426085078893
"75201","Dallas","TX","Swiss / Oak Park","900 Oak Street","75226",32.789634704589844,-96.78478240966797
"75201","Dallas","TX","Walford Park","1720 N Haskell","75204",32.800694667091385,-96.78420782089233
"75202","Dallas","TX","Reunion Park","Reunion Blvd.","75207",32.77292096976474,-96.80878504965872
"75203","Dallas","TX","Lake Cliff Park","312 E. Colorado Blvd.","75203",32.75703571755159,-96.81916236877441
"75203","Dallas","TX","Q Park","1517 Hickory st","75215",32.768943786621094,-96.78775024414062
"75203","Dallas","TX","Blues, Bandits & BBQ","1200 N. Zang Blvd.","75203",32.753558247978134,-96.82060540826095
"75203","Dallas","TX","Moore Park","not_available","75203",32.74849091047741,-96.79719701029323
"75203","Dallas","TX","Dallas Sportatorium Site","1000 S Riverfront Blvd","not_available",32.7658,-96.8028
"75203","Dallas","TX","Renner Park","Renner","75216",32.736137130497944,-96.80658237837658
"75203","Dallas","TX","Cedars Browder McKee Park","not_available","75215",32.769287109375,-96.78963470458984
"75203","Dallas","TX","Oak Cliff Founders Park","1400 N Zang Blvd","75203",32.76284411779897,-96.81546118654751
"75204","Dallas","TX","Mutts Canine Cantina","2889 Cityplace West Blvd","75204",32.80602250250253,-96.79513275302708
"75204","Dallas","TX","Oak Lawn Park","3400 Turtle Creek Blvd.","75219",32.80822283995447,-96.80383045216477
"75204","Dallas","TX","Turtle Creek Parkway Park","not_available","75219",32.808625,-96.803491
"75204","Dallas","TX","Cole Park","4039 Cole Ave","75204",32.81330125977729,-96.79322004318237
"75204","Dallas","TX","Garrett Park","Garrett Ave","not_available",32.806700605929535,-96.77114009857178
"75204","Dallas","TX","Cochran Park","5118 Mission Street","not_available",32.81662325032571,-96.78228470333666
"75204","Dallas","TX","Monarch Park","1823 N. Fitzhugh","75201",32.80627376728337,-96.78048039493794
"75204","Dallas","TX","Ichoosefit Bootcamp With AJ","3499 Lee Pkwy","75219",32.808597270080575,-96.80449487995153
"75204","Dallas","TX","Oak Lawn Park","3400 Turtle Creek Blvd","75219",32.808694,-96.80396999999999
"75204","Dallas","TX","Saber Park","4600 block Bryan st","75204",32.796504,-96.783256
"75204","Dallas","TX","Stonebridge Drive Park","3860 Turtle Creek Blvd","75219",32.814908746154686,-96.79938566240311
"75204","Dallas","TX","Deep Ellum Lofts Dog Park","3210 Commerce St.","75226",32.78511047363281,-96.77520751953125
"75205","Dallas","TX","Glencoe Park","3700 Glencoe St.","75206",32.83215609923479,-96.77737919373797
"75205","Dallas","TX","Lakeside Park","Lakeside Dr","75205",32.827296751150406,-96.80150762416292
"75205","Dallas","TX","Craddock Park","4600 Lemmon Ave.","75219",32.81961,-96.81586
"75205","Dallas","TX","Davis Park","4500 Drexel Ave","75205",32.82642235468245,-96.79780905818659
"75205","Dallas","TX","Germany Park","5678 W. University Blvd.","75205",32.844713739427036,-96.81325340544684
"75205","Dallas","TX","Knox Park","not_available","75205",32.81975666089877,-96.78763470438888
"75205","Dallas","TX","Flippen Park","4400 N Versailles Ave","75205",32.83119430377798,-96.81299701607331
"75205","Dallas","TX","Burleson Park","3000 University Blvd.","75205",32.84588573952734,-96.78015091795467
"75205","Dallas","TX","Curtis Park","Lovers Ln","not_available",32.85060557119166,-96.79195404052734
"75205","Dallas","TX","Williams Park","McFarlin Blvd.","not_available",32.84502786790505,-96.79847342439398
"75205","Dallas","TX","Prather Park","Drexel","75205",32.82639023368201,-96.79814908728626
"75205","Dallas","TX","Abbott Park","4814 Abbott Ave","75205",32.82643263827452,-96.78887563932366
"75205","Dallas","TX","Park","George W. Bush Presidential Center","not_available",32.84030457802983,-96.77850878779478
"75205","Dallas","TX","Team Blonde Practice","not_available","75206",32.832656,-96.777555
"75205","Dallas","TX","Cave Park","Abbott And Auburndale","not_available",32.82741073941306,-96.78901077047082
"75206","Dallas","TX","Tietze Park","2900 Skillman St.","75206",32.822971225242505,-96.76087681450585
"75206","Dallas","TX","Caruth Park","3400 Caruth Blvd","75225",32.858250328035396,-96.78825758365355
"75206","Dallas","TX","Coffee Park","3400 W Northwest Hwy.","75220",32.8646886183117,-96.78724065979407
"75206","Dallas","TX","Buebron Park","not_available","75214",32.841346740722656,-96.75667572021484
"75207","Dallas","TX","Benito Juarez Parque De Heroes","not_available","75212",32.78366467849399,-96.83901783881389
"75207","Dallas","TX","Allan Shivers Park","3700-3798 Scottish Rite Way","75219",32.803133,-96.814365
"75207","Dallas","TX","Twelve Hills Nature Center","800 Mary Cliff","75208",32.75344287478184,-96.8448817771756
"75207","Dallas","TX","Highland Park Dog Park","Hawthorne Ave","75219",32.81229115376635,-96.82611079695752
"75208","Dallas","TX","Kidd Springs Park","not_available","75208",32.753171888541544,-96.83534331104528
"75208","Dallas","TX","Wynnewood Parkway","not_available","75224",32.72763555416922,-96.83274718843215
"75208","Dallas","TX","Gannon Park","not_available","76011",32.73467051405155,-96.83113513210517
"75208","Dallas","TX","stafford park","1200 Stafford St","not_available",32.77048979638782,-96.83680890981638
"75208","Dallas","TX","Elmwood Parkway Park","Elmwood Blvd. / Rugged Dr.","75224",32.72889494355933,-96.8416465714169
"75209","Dallas","TX","Devonshire Dog Park","not_available","75209",32.854500861953596,-96.81360216912414
"75209","Dallas","TX","Greenway Parks","5444 Wateka Dr","75209",32.844629860815346,-96.81738974571837
"75209","Dallas","TX","Weischel Park","not_available","75235",32.8265488482105,-96.83720672088518
"75209","Dallas","TX","Polk Park Community Garden","6814 Victoria","75209",32.84144461154938,-96.83199942111969
"75209","Dallas","TX","Providence Gardens Park","1893 W Mockingbird Ln","75235",32.82311248779297,-96.85325622558594
"75210","Dallas","TX","Fair Park","1200 S 2nd Ave","75210",32.77958950271796,-96.76172018051147
"75210","Dallas","TX","Mildred L. Dunn Park","3431 Carpenter Avenue","75215",32.76463317871094,-96.74910736083984
"75210","Dallas","TX","Butterfly House And Insectarium","not_available","75210",32.775662,-96.760302
"75211","Dallas","TX","Westhaven Park","Wisteria LN","not_available",32.71061852963131,-96.8962876370649
"75211","Dallas","TX","Moss Park","2600 sunset avenue","not_available",32.743202209472656,-96.86237335205078
"75211","Dallas","TX","Briargate Park","not_available","75233",32.706514037694085,-96.87316106126598
"75211","Dallas","TX","Beverly Hills Park","3419 sheldon","not_available",32.75065537473445,-96.88405546248697
"75211","Dallas","TX","Westmount Park","not_available","75211",32.741631646056796,-96.87167893446295
"75211","Dallas","TX","Martin Weiss Park","3440 W. Clarendon Dr.","not_available",32.736669543876346,-96.87664325821704
"75211","Dallas","TX","Pecan Grove Park","3443 West Kiest","not_available",32.714128123865976,-96.8793151273729
"75211","Dallas","TX","Western Park","4600 Wisteria St","75211",32.71626926149962,-96.89367698496729
"75212","Dallas","TX","Winnetka Park","1000 Morris St","75212",32.783035217749486,-96.83875322341919
"75214","Dallas","TX","Samuell-Grand Park","6120 E Grand Ave","not_available",32.797115182897265,-96.74230029919292
"75214","Dallas","TX","Lakewood Park","7142 Williamson Rd","75214",32.8317454902828,-96.73524267918559
"75214","Dallas","TX","Lindsley Park","not_available","75223",32.808509475537406,-96.73908862467374
"75214","Dallas","TX","Buckner Park","400 Carroll Av","75246",32.79613969587265,-96.76923688336039
"75214","Dallas","TX","Randall Park","101 Glasgow","75214",32.80382287876276,-96.75159215325482
"75214","Dallas","TX","The Cove Aquatic Center","3201 Samuell Blvd.","75223",32.793853,-96.742526
"75215","Dallas","TX","Texas Horse Park","811 Pemberton Hill Rd","75217",32.727659,-96.71968000000001
"75215","Dallas","TX","Rochester Park","3000 Municipal St","75215",32.74251373008987,-96.74427932943081
"75215","Dallas","TX","Sargent park","2825 sargent rd","not_available",32.724998474121094,-96.77230072021484
"75215","Dallas","TX","William Blair, Jr Park","3000 Rochester","not_available",32.742318139813044,-96.74484906226986
"75216","Dallas","TX","Glendale Park","Ledbetter","not_available",32.68359659112064,-96.79779859578099
"75216","Dallas","TX","Beckley-Saner Park","114 W Hobson Ave","75224",32.714103,-96.823475
"75216","Dallas","TX","College Park","not_available","75241",32.682936558427485,-96.76570787438975
"75217","Dallas","TX","Trinity River Audubon Center","6500 Great Trinity Forest Way","75217",32.70372146775891,-96.70534121959601
"75217","Dallas","TX","Crawford Park","Crawford Park","75217",32.71447470406484,-96.67050361633301
"75217","Dallas","TX","Fireside Park","not_available","75217",32.69379925779726,-96.66510927866518
"75217","Dallas","TX","Gateway Park","jim miller","75227",32.75716749980496,-96.7008010696003
"75217","Dallas","TX","Fireside Rec","8601 Fireside Dr","75217",32.701358795166016,-96.67063903808594
"75217","Dallas","TX","Pemberton Hill Park","Elam Road","75217",32.7215533409609,-96.7031046141379
"75217","Dallas","TX","Apache Park","Apache dr","75217",32.723416686058044,-96.65340721607208
"75217","Dallas","TX","Great Trinity Forest Gateway and Horse Trails","2161 Dowdy Ferry Road","not_available",32.677547454833984,-96.67625427246094
"75218","Dallas","TX","White Rock Lake Park","8300 E Lawther Dr","75218",32.843683190865164,-96.71676635742186
"75218","Dallas","TX","Flag Pole Hill","8100 Doran Cir","75238",32.86230388743505,-96.72260284423828
"75218","Dallas","TX","Lake Highlands Park","1000 N Buckner Blvd.","75218",32.84151047782022,-96.70677687469396
"75218","Dallas","TX","McCree Park","not_available","75238",32.87020567420723,-96.69970417257994
"75218","Dallas","TX","Stone Tables @ White Rock","not_available","75218",32.83890447999185,-96.70892913602802
"75218","Dallas","TX","St. Francis Tennis Center","not_available","75228",32.809807,-96.708602
"75218","Dallas","TX","Pecan Grove at the Dallas Arboretum","8525 Garland Rd","75218",32.82299041748047,-96.71687316894531
"75218","Dallas","TX","Old Fish Hatchery","White rock","75231",32.858661632921354,-96.71956612310599
"75218","Dallas","TX","City Of Dallas Auquatics Division Office","833 Lawther","75215",32.833053,-96.71161
"75218","Dallas","TX","DSS Flag Football - Norbuck","Northwest Hwy & Buckner","not_available",32.859022637383205,-96.71704777808029
"75218","Dallas","TX","Dallas Bike Polo at Norbuck Park","130-188 N Buckner Service Rd E","75218",32.85455185,-96.71680809
"75218","Dallas","TX","Ferguson Road Park","1814-1998 Inadale Ave","75228",32.818062524863386,-96.68439657434827
"75219","Dallas","TX","Maria Luna Park","4500 Maple Av","75219",32.81294058097306,-96.8229603767395
"75219","Dallas","TX","Dragon Park","3520 Cedar Springs Rd","75219",32.80864547537678,-96.81263681216932
"75219","Dallas","TX","William B. Dean Park","3636 Turtle Creek Blvd","75219",32.810843,-96.800675
"75220","Dallas","TX","Bachman Lake Park","3500 W Northwest Hwy","75220",32.857399590459764,-96.86230513023527
"75220","Dallas","TX","Hines Park","9700 Harry Hines Blvd","75220",32.849438,-96.87817
"75220","Dallas","TX","SYNLawn Texas","10485 Olympic Drive 101","75220",32.86401,-96.88692781
"75220","Dallas","TX","Bachman Lake Picnic Area (South Shore)","2793-3299 Shorecrest Dr","75235",32.853845702472626,-96.86211196609332
"75220","Dallas","TX","Bachman Lake Playground","3000-3088 Lakefield Park","75220",32.85625641832905,-96.86302132601459
"75220","Dallas","TX","Southwest Airlines Athletic Fields","Research Blvd.","75235",32.84225264982924,-96.86768835730423
"75220","Dallas","TX","Bachman Pavillion","not_available","75220",32.85622148146616,-96.86303613388573
"75220","Dallas","TX","Child's Play","2755 Bachman Dr","75220",32.85318782999006,-96.87058492992301
"75220","Dallas","TX","Walnut Hill Park","4173 Walnut Hill Ln","75229",32.8801733410109,-96.83910486891293
"75223","Dallas","TX","owenwood park","fairview ave.","75223",32.790075477174355,-96.73877042868956
"75224","Dallas","TX","Kiest Park","3080 S Hampton Rd","75224",32.70970833833862,-96.85250759124756
"75224","Dallas","TX","Glendale Swimming Pool","1534 Five Mile Dr.","75224",32.70293273658118,-96.85646158449894
"75224","Dallas","TX","Keist Park","not_available","75216",32.71302313391954,-96.85448767335551
"75225","Dallas","TX","Barns Park","not_available","75225",32.85360864873569,-96.79289714412805
"75226","Dallas","TX","Reimagine Crowdus","not_available","75226",32.78428,-96.783485
"75227","Dallas","TX","Bisbee Park","3250 Bisbee Drive","not_available",32.767777790363,-96.71192779467529
"75227","Dallas","TX","Everglade Park","Everglade Rd","75227",32.78583138054556,-96.6996431350708
"75227","Dallas","TX","Urbandale Park","4000 Lomax Drive","75227",32.774568798112234,-96.69387642249377
"75227","Dallas","TX","Francine's Bark Park","6229 Belgrade Ave","75227",32.773075103759766,-96.71168625354767
"75228","Dallas","TX","Lakeland Hill Park","2600 St. Francis Ave.","75228",32.80412091982957,-96.69725972642004
"75229","Dallas","TX","Peter Pan Park","Peter Pan Dr.","not_available",32.8906340809365,-96.85194614614227
"75229","Dallas","TX","Netherland Park","5600 Dittmar","75229",32.88884057412887,-96.80871180048285
"75230","Dallas","TX","The Jungle","not_available","75240",32.92518035562109,-96.7757685103248
"75230","Dallas","TX","Anderson Bonner Park","12700 Park Central Dr","75251",32.92042533225466,-96.77772434538967
"75231","Dallas","TX","Watercrest Park","not_available","75231",32.87495,-96.732032
"75231","Dallas","TX","Lake Highlands North Park","9344 Church Rd","75238",32.885406,-96.727963
"75231","Dallas","TX","The Park at Park Lane","8020 Park Ln","75231",32.87001869612399,-96.76892923593076
"75231","Dallas","TX","R.P Brooks Park","7101 Merriman Pkwy","not_available",32.872900793578225,-96.73988366963894
"75231","Dallas","TX","Lake Highlands Town Center","Skillman St","75231",32.87791125639131,-96.73187255859375
"75231","Dallas","TX","Orbiter Park","9100 Orbiter Drive","not_available",32.89868331965022,-96.76266489206232
"75231","Dallas","TX","Northwood Park","White Rock Creek & Lake Trails (Dallas)","75231",32.8977933230331,-96.75431482646614
"75231","Dallas","TX","Shops Of Park Lane Courtyard","8070 Park Ln","75231",32.869571685791016,-96.7679672241211
"75231","Dallas","TX","Merriman Park Estates Park","Merriman Parkway","not_available",32.878237236312586,-96.73594398290362
"75231","Dallas","TX","Harry S. Moss Park","8000 Greenville Ave.","75231",32.89302439350304,-96.75311336630116
"75232","Dallas","TX","Meadow Stone Park","not_available","75237",32.6568353213484,-96.86201712961774
"75234","Dallas","TX","Farmers Branch Historical Park","2540 Farmers Branch Lane","75234",32.91716825213679,-96.89268322990478
"75235","Dallas","TX","Cherrywood Park","5449 Cedar Springs","75235",32.81848822366157,-96.83278382653963
"75235","Dallas","TX","Rosemont at Arlington Park","1716 Chattanooga Pl","75235",32.815512,-96.851872
"75237","Dallas","TX","Park at cliff creek","7310 Marvin D Love Fwy","75237",32.65692890373833,-96.87254740503025
"75240","Dallas","TX","Valley View Park","7100 Valley View Lane","75240",32.9269946884234,-96.78351375373823
"75240","Dallas","TX","Olive Shapiro Park","7400 Goforth","75238",32.92740719820719,-96.78260373120304
"75240","Dallas","TX","Stanford Park","13701 Dallas North Tollway","75381",32.93343242973778,-96.82023909664001
"75243","Dallas","TX","Richland College Soccer Fields","12800 Abrams Rd","75243",32.921186829067764,-96.72485914785582
"75243","Dallas","TX","Walking Trail","not_available","75243",32.9170039467855,-96.74856551615817
"75244","Dallas","TX","Alpha Road Mini Park","not_available","75244",32.932534,-96.844086
"75248","Dallas","TX","Winnwood Park","5500 Beltline Rd.","not_available",32.95362022137103,-96.81156635284424
"75248","Dallas","TX","Campbell Green Park","7000 Campbell Rd.","75248",32.977348115789475,-96.78712606430054
"75248","Dallas","TX","Twin Lakes Park","not_available","75248",32.97717737107107,-96.77409511539898
"75248","Dallas","TX","Arapahoe Park","7416 Roundrock Rd","75248",32.95333875521924,-96.77890767697193
"75252","Dallas","TX","Somerset HOA Park","7539 Larchmont Dr","75252",32.994968,-96.77306
"75254","Dallas","TX","White Rock Creek Park","5350 Belt Line Rd","75001",32.94487104097645,-96.80920885008213
"75254","Dallas","TX","Celestial Park - Sundial","5300 Celestial Rd","75254",32.94781550859053,-96.81356735299514
"75254","Dallas","TX","Celestial Park","5501 Celestial Road","75001",32.94688595560647,-96.80967807769775
"75254","Dallas","TX","Fretz Park","6950 Belt Line Rd","75254",32.949032545487945,-96.78289661062574
"75254","Dallas","TX","Bert Fields Park","Hughes Ln","75254",32.94490519157088,-96.79989337921143
"75287","Dallas","TX","Katie Jackson Park","5000 Haverwood Ln.","75287",33.00661897677573,-96.81989371900039
"75287","Dallas","TX","Country Brooks Estates Pond","Park Grove Rd","75287",33.00264252031881,-96.83771722558403
"75401","Greenville","TX","Downtown Greenville Park","not_available","75401",33.140026,-96.108999
"75401","Greenville","TX","Arnold Park","2300 Jones St","75401",33.13263651553091,-96.10580558804244
"75402","Greenville","TX","Oak Creek Park","not_available","75402",33.070579364853444,-96.08769362848183
"75407","Princeton","TX","Bratonia Park","not_available","75407",33.109768,-96.5181
"75409","Anna","TX","Natural Springs","not_available","75409",33.34182849856636,-96.56394871716182
"75410","Alba","TX","Lake Fork Recreation Area","not_available","75497",32.86457202361603,-95.53832864118566
"75418","Bonham","TX","Catron Park","not_available","75418",33.659063,-96.17532
"75424","Blue Ridge","TX","Parkhill Prairie","CR 668","75424",33.271977844858355,-96.29904644041129
"75426","Clarksville","TX","at the fire park in clarksville tx","not_available","75426",33.61261749267578,-95.0567855834961
"75428","Commerce","TX","roadside park","not_available","75462",33.29992805781682,-95.85121774954489
"75428","Commerce","TX","Commerce Park","not_available","75428",33.24046619333202,-95.8979739245759
"75428","Commerce","TX","Cain Sports Complex (MRC)","2401 hubbell dr.","75428",33.239261832141594,-95.9157943725586
"75432","Cooper","TX","Delta County Fair Grounds","not_available","75432",33.370763,-95.676664
"75432","Cooper","TX","Enloe Community Center","not_available","75441",33.43367498342743,-95.6573261977378
"75442","Farmersville","TX","South Lake Park","1687 Old Josephine Rd","75442",33.137425,-96.349154
"75442","Farmersville","TX","Bike Trail","not_available","75442",33.16520638461718,-96.35863401247047
"75455","Mount Pleasant","TX","Heritage Park","1713 North Edwards","75455",33.17201958060835,-94.98460495299118
"75455","Mount Pleasant","TX","Oaklawn Park","not_available","75455",33.14597716437359,-94.97576835924129
"75457","Mount Vernon","TX","Historic Roadside Park","not_available","75480",33.072225,-95.267917
"75457","Mount Vernon","TX","Mount Vernon Downtown Square","not_available","75457",33.18885370608156,-95.22147874612567
"75460","Paris","TX","RRV Veterans Memorial","not_available","75460",33.660939,-95.555513
"75482","Sulphur Springs","TX","Sulphur Springs Downtown Square","not_available","75482",33.13803730447798,-95.60109039185312
"75482","Sulphur Springs","TX","Coleman Park","Coleman Park","75482",33.12469966849364,-95.6225778878813
"75482","Sulphur Springs","TX","High School Softball Field","125-199 Gladys Alexander Dr","75482",33.137887275732325,-95.62356347906135
"75494","Winnsboro","TX","American Legion Memorial Park","not_available","75494",32.949548,-95.29424
"75495","Van Alstyne","TX","Forest Moore Park","Waco St","75495",33.408391992893954,-96.57145996166514
"75495","Van Alstyne","TX","Forest Moore Park","Van Alstyne, TX","75495",33.429801,-96.577696
"75501","Texarkana","TX","Kidtopia","201-299 Oak St","75501",33.420810093638586,-94.04808747930548
"75501","Texarkana","TX","Grady T. Wallace Park","S Bishop St,Texarkana,Texas","not_available",33.383285866914655,-94.08852581594174
"75501","Texarkana","TX","Karrh park","2020 S Ann St, Texarkana, TX 75501","75501",33.39904234619324,-94.06606451377115
"75501","Texarkana","TX","Spring Lake Park","2-98 Fairground Ave","75503",33.46134277323594,-94.0559600871409
"75501","Texarkana","TX","Artspark","not_available","75501",33.422501,-94.045589
"75559","De Kalb","TX","Trailhead Park","101 S Ellis St","75570",33.46308166191184,-94.41909672008687
"75559","De Kalb","TX","Scrap Miller Park","Hadaway Street","75570",33.47738585349671,-94.41541828361859
"75559","De Kalb","TX","Tapp Park","not_available","75570",33.450406,-94.419402
"75601","Longview","TX","Willow Lake","not_available","75605",32.52860283221508,-94.74179297933748
"75601","Longview","TX","The Green","Spur 63 & Hwy 31","75601",32.494213,-94.75312
"75601","Longview","TX","Guthrie Park","not_available","75601",32.50971400299547,-94.74320806241197
"75601","Longview","TX","Spring Creek Park","700 Tullie Dr","75601",32.507435,-94.68012399999999
"75601","Longview","TX","Akin Park","Delwood","75605",32.52705,-94.73517
"75601","Longview","TX","Lois Jackson Park","200 Bill Owens Pkwy","75604",32.50866,-94.761437
"75602","Longview","TX","LEDCO Picnic Pavilion","not_available","75602",32.458412170410156,-94.69035339355469
"75603","Longview","TX","145","County Road 2186","75691",32.337908148765564,-94.59814846515656
"75604","Longview","TX","Kidsview Park","100 Pals Parkway","75604",32.49644264363212,-94.77699279785156
"75604","Longview","TX","White Oak City Park & Splash Pool","not_available","75693",32.525050743335704,-94.85254212251037
"75604","Longview","TX","Stragent Small Dog Park","not_available","75604",32.532609385583726,-94.76402410209722
"75604","Longview","TX","Paul G. Boorman Trail","Princeton Trailhead","75601",32.523542451906955,-94.76167823875964
"75604","Longview","TX","Julianna Trail","906 Reel Rd","75604",32.52853299491456,-94.79459013018295
"75604","Longview","TX","HomePlace RV Park","138 Texas St","75647",32.531410217285156,-94.90331268310547
"75605","Longview","TX","hinsley park","Longview, TX","75605",32.54882817762943,-94.73002393390344
"75605","Longview","TX","Hinsley Park","N. US 259","75605",32.54889371652322,-94.7295388749864
"75605","Longview","TX","Christmas Lights Galore","Hwy 259","75605",32.587715,-94.74185
"75631","Beckville","TX","The Square","not_available","75633",32.1566194115832,-94.33773168723467
"75631","Beckville","TX","Davis Park","100 park rd","not_available",32.16140474693093,-94.34195044022816
"75631","Beckville","TX","Jonathan Anderson Memorial Park","Carthage Square","75633",32.157001,-94.338143
"75631","Beckville","TX","Tatum Eagle Park","not_available","75691",32.308958,-94.533987
"75644","Gilmer","TX","Gilmer City Park","not_available","75644",32.75162592258123,-94.93832097275187
"75647","Gladewater","TX","Everett Park","not_available","75647",32.540881,-94.934996
"75652","Henderson","TX","Lake Forest Park","1301-1533 Texas 64","75652",32.16492654744275,-94.81106862929873
"75654","Henderson","TX","Picnic Area","not_available","75681",31.980735363072938,-94.70959454324435
"75657","Jefferson","TX","Port Jefferson","not_available","75657",32.756583,-94.343276
"75657","Jefferson","TX","Caddo Lake National Wildlife Refuge","Hwy. 134","not_available",32.67273434409974,-94.16542155535717
"75662","Kilgore","TX","Synergy Park @ Elder Lake","1001 Synergy Blvd","75662",32.412418784905604,-94.8317350152748
"75662","Kilgore","TX","City Park","North St.","75662",32.38484480448937,-94.87097294425632
"75670","Marshall","TX","Marshall City Park","Pope & Valleloma","75670",32.53912644016862,-94.36954862803385
"75686","Pittsburg","TX","Broach Park","2210 County Road","75686",33.0126909553573,-94.97230211571326
"75692","Waskom","TX","Waskom Park","not_available","75692",32.47711,-94.06738
"75701","Tyler","TX","The Children's Park","not_available","75701",32.339404824994304,-95.3003242189593
"75701","Tyler","TX","Windsor Grove Park","Front Street","75702",32.34374253323322,-95.3262192396934
"75701","Tyler","TX","PT Cole Park","903 Mockingbird Ln","75701",32.336228000000006,-95.310496
"75701","Tyler","TX","clarkston elementary playground","2915 Williamsburg Dr","75701",32.319400787353516,-95.26119995117188
"75701","Tyler","TX","Southside Park","Donnybrook Ave","75703",32.293229118889094,-95.29732805264652
"75702","Tyler","TX","Boys & Girls Club","504 W 32nd St","75702",32.379515999999995,-95.304407
"75702","Tyler","TX","Goodman Museum","624 N Broadway Ave","75702",32.356768,-95.301562
"75703","Tyler","TX","Faulkner Park","not_available","75703",32.254825891839545,-95.31553715106291
"75703","Tyler","TX","The WaterPark @ the Villages","not_available","75762",32.235774288737524,-95.3042393771931
"75705","Tyler","TX","Kilgore Park","Kilgore","not_available",32.375919342041016,-95.131103515625
"75706","Tyler","TX","Timberline","not_available","75771",32.49429483544271,-95.43020227547034
"75706","Tyler","TX","Five Star Recreational Vehicle LLC","10929 Lavender Road","75706",32.4230661,-95.309121
"75707","Tyler","TX","Whitehouse Park","311 E Main St","75791",32.227455,-95.221633
"75707","Tyler","TX","The Nature Center","not_available","75707",32.305382535129915,-95.21423797904052
"75709","Tyler","TX","Lindsey Park","not_available","75709",32.31721960829773,-95.38662663743627
"75709","Tyler","TX","Neches River Bridge Highway 31","not_available","75704",32.31604960577989,-95.45316156452549
"75751","Athens","TX","Christmas Park - Land of Lights","1500 NW Loop 7","75751",32.216787778476125,-95.88520270185072
"75751","Athens","TX","cain center tennis courts","not_available","75751",32.202476501464844,-95.84832000732422
"75751","Athens","TX","Kiwanis Park","S Prairieville St.","75751",32.19766917048839,-95.85571086576506
"75751","Athens","TX","East Texas Arboretum and Botanical","1601 Patterson Rd","75751",32.212794287595976,-95.87802529854959
"75752","Athens","TX","Lost","County Road 3621","not_available",32.274221,-95.697255
"75754","Ben Wheeler","TX","Edom park","Middle of nowhere","75754",32.404273,-95.598103
"75757","Bullard","TX","red landing park","not_available","75763",32.08888871734898,-95.44520895802543
"75758","Chandler","TX","Winchester Park","not_available","75758",32.297090371788975,-95.48475756040503
"75766","Jacksonville","TX","Jim Hogg Park","Park Road 50","75785",31.80711018009622,-95.12408837541753
"75766","Jacksonville","TX","Reklaw Community Park","W Henderson St.","75784",31.862487316459227,-94.98931646347046
"75766","Jacksonville","TX","Nichols Green Park","not_available","75766",31.945475525575407,-95.25214933385982
"75771","Lindale","TX","The Bottomland","County Rd 4106","75771",32.588374,-95.363469
"75789","Troup","TX","Gardenview Park","218 Gardenview St","75791",32.212556,-95.215821
"75801","Palestine","TX","Texas State Railroad / Polar Express","Palestine Station","75801",31.73883808713939,-95.5701531616722
"75801","Palestine","TX","Broom City","not_available","75839",31.622234638229386,-95.52020313510498
"75801","Palestine","TX","Greens Park Disc Golf Course","not_available","75803",31.776064915456665,-95.64002649825763
"75801","Palestine","TX","Texas State Railroad Palestine Depot","Park Road 70","75801",31.739037371729363,-95.57079126413409
"75801","Palestine","TX","Reagan Park","not_available","75801",31.75804901379729,-95.62518535436108
"75831","Buffalo","TX","Picnic Area","Teague, TX 75860","75860",31.554450520692136,-96.13174899751967
"75831","Buffalo","TX","Harriman Park","Buffalo,TX,75831","75831",31.462208896245787,-96.05110841165428
"75831","Buffalo","TX","Eagle Scout Park","not_available","75846",31.359023596628255,-96.14451512841302
"75833","Centerville","TX","I45 southbound picnic area","not_available","75833",31.195148953013746,-95.99390365792823
"75835","Crockett","TX","Crockett Family Resort","not_available","75835",31.409055113823158,-95.57795576359823
"75839","Elkhart","TX","Grapeland Drive Thru Safari","Grapeland, TX","not_available",31.54090866794292,-95.48333404075245
"75844","Grapeland","TX","Caddo Mounds State Historic Site","1649 State Highway 21","75925",31.59653091430664,-95.1490478515625
"75901","Lufkin","TX","Kit McConnico Park","Kit McConnico Dr.","75901",31.371938955918132,-94.69170235361821
"75901","Lufkin","TX","Huntington City Park","not_available","75949",31.282266426354656,-94.57159345032773
"75901","Lufkin","TX","SKATETOWN USA","not_available","75901",31.34223072037875,-94.71473148487652
"75901","Lufkin","TX","Mantooth Park","Mantooth Ave","75904",31.34088239621191,-94.73583698272705
"75904","Lufkin","TX","Barkzone","not_available","75904",31.334831809342433,-94.76394826443298
"75904","Lufkin","TX","Meadowbrook","223 Mount Carmel Rd","75904",31.327212,-94.779703
"75904","Lufkin","TX","Jones Park","Martin Luther King Jr Blvd","75904",31.336189,-94.784527
"75904","Lufkin","TX","Morris Frank Park","N. Airport Ave","75904",31.35140636571805,-94.75410036840366
"75904","Lufkin","TX","Lonesome Pine","120 Tarver Hill Rd","75904",31.347913,-94.809463
"75935","Center","TX","Community Park","1215 Ballard St","75935",31.777918,-94.179946
"75939","Corrigan","TX","Damascus Woods Mail Boxes","not_available","75939",31.064812979542157,-94.82237925766387
"75941","Diboll","TX","Diboll","925 Denman St","75941",31.194549560546875,-94.77725219726562
"75941","Diboll","TX","Old Orchard Park","641-699 Hall","75941",31.18760089154369,-94.77634658280948
"75941","Diboll","TX","Cotton Sqaure","not_available","75941",31.168621063232422,-94.77750396728516
"75948","Hemphill","TX","Dr. Mann Memorial City Park","not_available","75948",31.339837,-93.84396
"75951","Jasper","TX","Jasper City Park","not_available","75951",30.91370835850546,-94.00202820555866
"75951","Jasper","TX","Kiwanis Park","200 S Main St","75951",30.9193172454834,-94.00025939941406
"75961","Nacogdoches","TX","Pioneer Park","1501 Lenwood","not_available",31.587636715225933,-94.66348973866248
"75961","Nacogdoches","TX","kiwanis park","505 S Fredonia St","75961",31.60037725142792,-94.6560566345379
"75961","Nacogdoches","TX","Carl Monk Sr. Scenic Oveook","not_available","75961",31.623902,-94.470005
"75961","Nacogdoches","TX","Pecan Park","826 E Starr Ave","75961",31.615741982908197,-94.64394784048615
"76001","Arlington","TX","S.J. Stovall Park","2800 W. Sublett Road","76001",32.64667667913984,-97.15497739665483
"76001","Arlington","TX","F.J. ""Red"" Kane Park","6500 South Cooper Street","76001",32.639123042356744,-97.13657653064722
"76001","Arlington","TX","Lewitt Pavillion","not_available","76010",32.6452560414477,-97.17374633535647
"76001","Arlington","TX","Martha Walker Park","7509 Sharon Lee Drive","76001",32.62308883666992,-97.1471939086914
"76001","Arlington","TX","Bowman Branch Linear Park","South Matlock Road","76002",32.6276472472713,-97.11570739746094
"76001","Arlington","TX","Bad Konighofen Picnic Pavillion","not_available","76001",32.647161,-97.154557
"76001","Arlington","TX","Stoval Park","Sublett Road","76017",32.64427554179114,-97.18423250601724
"76001","Arlington","TX","Fit 30 Boot Camp","2800 W Sublett Rd.","76001",32.6463508605957,-97.15506744384766
"76001","Arlington","TX","O.W. Fannin Natural Area","Hardisty & Fox Hunt","76001",32.63164095672312,-97.14117765426636
"76001","Arlington","TX","Sublett Creek Linear Park","Big Springs Drive","76017",32.635218879877044,-97.17169046401978
"76002","Arlington","TX","Webb Community Park","1100 Mansfield Webb Road","76002",32.623602848090876,-97.09324750237096
"76002","Arlington","TX","Don Misenheimer Park","201 East Lonesome Dove Trail","76002",32.61874966071006,-97.11139464588857
"76002","Arlington","TX","Lynn Creek Linear Park","6501 Matlock Road","76002",32.63828634899869,-97.10870599958369
"76002","Arlington","TX","W O & Zeta Workman Park","6701 Tabor Drive","not_available",32.63893984038949,-97.10507175272917
"76002","Arlington","TX","Bandee's House","6205 Minuteman Ln","76002",32.644273,-97.110512
"76002","Arlington","TX","Webb Park","not_available","76002",32.625186335410234,-97.08865841221717
"76006","Arlington","TX","River Legacy Parks","701 N.W. Green Oaks Blvd.","76006",32.79041211265388,-97.11371266460566
"76006","Arlington","TX","Clarence Thompson Park","1600 Brown Blvd.,","76011",32.76941825805831,-97.08921377440103
"76006","Arlington","TX","Dunlop Park","1500 NW Green Oaks Blvd.","76012",32.778518616418964,-97.12874231730203
"76006","Arlington","TX","River Legacy Parks - East","1601 NE Green Oaks Blvd","76006",32.7879419742515,-97.098069190979
"76006","Arlington","TX","Elm Grove Picnic Area","not_available","76006",32.79017,-97.116024
"76006","Arlington","TX","Parkway Central Park","2001 Van Buren Dr","76011",32.764212,-97.107966
"76006","Arlington","TX","Fit 30 Boot Camp","703 NW Green Oaks Blvd","76006",32.78308868408203,-97.11514282226562
"76006","Arlington","TX","Dixon W. Holman Park","2409 Burney Palace","76006",32.780587304910114,-97.06768802285839
"76006","Arlington","TX","Park Ellis","2601 Shadow Ridge Dr","76006",32.780712,-97.072503
"76008","Aledo","TX","Vista West Park","not_available","76108",32.742365652659466,-97.5060489035666
"76008","Aledo","TX","Gene Voyles Park","not_available","76087",32.76042683733988,-97.69711653053744
"76008","Aledo","TX","Pointe Vista Park","not_available","76008",32.708178,-97.616604
"76009","Alvarado","TX","Aiden's Adventure Land","123 Fun Lane","76009",32.49170684814453,-97.18059539794922
"76009","Alvarado","TX","parkway park","not_available","76009",32.407101260355404,-97.21894377862783
"76010","Arlington","TX","Levitt Pavilion","100 W Abram St","76010",32.735299181816735,-97.10797086297147
"76010","Arlington","TX","Knapp Heritage Park","201 W Front St","76011",32.738183,-97.108463
"76010","Arlington","TX","Meadowbrook Park","1300 Dugan St","76010",32.7338981628418,-97.09248352050781
"76010","Arlington","TX","Cooper Chase Smoking Area","not_available","76013",32.73333815992002,-97.11474817745047
"76010","Arlington","TX","Helen Wessler Park","2200 Greenway Street","76010",32.727108001708984,-97.07042694091797
"76010","Arlington","TX","Valley View Park","908 Highland Dr","76010",32.724401,-97.086303
"76010","Arlington","TX","Gene Allen Park","121 West Main Street","76010",32.73700714111328,-97.10807800292969
"76010","Arlington","TX","Bob Cooke Park","2025 Craig Hanking Dr","76010",32.714395,-97.079611
"76010","Arlington","TX","Meadowbrook recreation center","1400 Dugan St","76010",32.73386031827979,-97.09068905126114
"76010","Arlington","TX","Senter Park","700 S Mary St.","76010",32.73014997701442,-97.10316922060426
"76011","Arlington","TX","Centerpoint Pond","2460 East Road to Six Flags Street","76011",32.74935117214811,-97.06745357186378
"76011","Arlington","TX","Richard Greene Linear Park","16010 East Randol Mill Road","76011",32.75129760423197,-97.08696311068114
"76011","Arlington","TX","Dr. Robert Cluck Linear Park","Randol Mill Road","76012",32.74835549862177,-97.07251310348511
"76011","Arlington","TX","Parkway Central Park","not_available","76012",32.759656659948284,-97.11477971616493
"76011","Arlington","TX","D-uri","Titan","not_available",32.7556359,-97.07422509999999
"76012","Arlington","TX","Bob Findlay Linear Park","900 Findlay Drive","76012",32.747474670410156,-97.16175842285156
"76012","Arlington","TX","Village Creek Historical Park","Eastchase Pkwy","not_available",32.74187426746314,-97.16832763227158
"76012","Arlington","TX","Randol Mill Park","1901 W Randol Mill Rd","76012",32.75193501828012,-97.13846424014312
"76012","Arlington","TX","O.S. Gray Natural Area","2021 West Abram Street","76013",32.73354480838817,-97.14150163049615
"76012","Arlington","TX","Pirie Park","1016 W Cedar Street","76012",32.74431228637695,-97.1218032836914
"76012","Arlington","TX","High Oak Park","Wesley Dr.","76012",32.739951,-97.149393
"76013","Arlington","TX","Clarence Foster Park","4400 Woodland Park Blvd.","76013",32.71230272700434,-97.18065976307282
"76013","Arlington","TX","Rush Creek Linear Park- North","4200 W Pioneer Pkwy","76013",32.716087341308594,-97.17274475097656
"76013","Arlington","TX","Rush Creek Dog Park","1900 Valleywood Dr","76013",32.71506,-97.171595
"76013","Arlington","TX","Fielder Park","1100 South Fielder Road","76013",32.7252154282255,-97.13312200256799
"76013","Arlington","TX","Heroes Park","2100 W Green Oaks Blvd","76013",32.71002960205078,-97.1909408569336
"76013","Arlington","TX","Howard Moore Park","1018 W. Tucker Blvd.","76013",32.71361400402509,-97.11992598272002
"76013","Arlington","TX","Doug Russell Park","W Mitchell St","76010",32.72524821435489,-97.11737279394221
"76013","Arlington","TX","Rush Creek Linear Parks - South","4200 W Pioneer Pkwy.","76013",32.716087341308594,-97.17274475097656
"76013","Arlington","TX","College Hills Park","151 University Drive","76013",32.728284893695445,-97.12233781814575
"76013","Arlington","TX","Woodland West Park","3200 Norwood Ln","76013",32.72364044189453,-97.15991973876953
"76013","Arlington","TX","Tennis Courts","Howard Moore","76013",32.71142579397495,-97.11992383003235
"76013","Arlington","TX","Duncan Robinson Park","2100 West Tucker Blvd.","76013",32.71349334716797,-97.14202117919922
"76014","Arlington","TX","Marrow Bone Springs Park","600 West Arkansas","76014",32.70230514689241,-97.11074288189137
"76014","Arlington","TX","Marrow bones spring park","Arkansas","76014",32.70582664129881,-97.11298728954574
"76014","Arlington","TX","B. C. Barnes Park","3000 Daniel Drive","76014",32.69530647424583,-97.09980381438308
"76014","Arlington","TX","Vandergriff Park","2800 S Center St","76014",32.697560543237074,-97.11005958776497
"76015","Arlington","TX","Lakes at Matlock","700 Central Park Drive","76015",32.696319580078125,-97.11561584472656
"76015","Arlington","TX","Calfornia Lane Park","2401 California Lane","76015",32.700144873771855,-97.13981494045237
"76016","Arlington","TX","Richard Simpson Park","not_available","76016",32.697164746647175,-97.20341912424291
"76016","Arlington","TX","Bowman Springs Park","7003 West Poly Webb Road","76016",32.6893502291574,-97.21736440830206
"76016","Arlington","TX","Gene Schrickel, Jr. Park","4500 Park Springs Blvd","76017",32.672582774153476,-97.16749645248525
"76016","Arlington","TX","Veterans Park","3600 W Arkansas Ln.","76016",32.70441393105323,-97.16305139379752
"76016","Arlington","TX","Thora Hart Park","3510 West Green Oaks Blvd.","76016",32.6973276833192,-97.2035853387883
"76016","Arlington","TX","Acid Park","not_available","76017",32.67148756879088,-97.16338279036766
"76016","Arlington","TX","Cliff Nelson Park","4600 W Bardin Rd","76017",32.66798299286333,-97.1822698416424
"76016","Arlington","TX","Marti Van Ravenswaay Park","4601 Bowman Springs Road","76016",32.67366409301758,-97.22196960449219
"76016","Arlington","TX","Ah Pappy Elkins Park","3299 Elkins Dr","76016",32.70144073331519,-97.16030691460153
"76017","Arlington","TX","Cash America Picnic","Kelly Elliott Rd, Arlington, TX 76017","76017",32.65871810913086,-97.17552185058594
"76017","Arlington","TX","Uselessness","not_available","76060",32.64724522812038,-97.19690964799172
"76017","Arlington","TX","Picnic Table In The Shade","Fawn Meadow Trail","76017",32.647421,-97.196646
"76017","Arlington","TX","Wimbledon Park","2300 Wimbledon Dr.","76017",32.6610538176173,-97.14646787900152
"76018","Arlington","TX","Bob McFarland Park","410 East Embercrest Drive","76018",32.67221669106852,-97.10895445708536
"76020","Azle","TX","Shady Grove Park","not_available","76020",32.90799506740954,-97.53144338539177
"76020","Azle","TX","Wildwood Park","not_available","76135",32.81096929991303,-97.49421500621041
"76021","Bedford","TX","Bedford Boys Ranch","2801 Forest Ridge Dr","76021",32.84867604198502,-97.14678867555284
"76021","Bedford","TX","Monterrey Park","Monterrey St","76022",32.837371,-97.15563
"76021","Bedford","TX","boys ranch","not_available","76021",32.85263405326913,-97.14559213165317
"76022","Bedford","TX","West Park","not_available","76040",32.827863508306905,-97.12267011951857
"76022","Bedford","TX","Brookhollow Park","not_available","76022",32.825066335664744,-97.15044376124236
"76023","Boyd","TX","Softball fields","Hobbs Ave","76023",33.08011326,-97.574558
"76028","Burleson","TX","Warren Park","301 SW Johnson Ave.","76028",32.53933641,-97.32858
"76028","Burleson","TX","Rosemary Ridge Park","4350 Red Clover Lane","76036",32.593360900878906,-97.38750457763672
"76028","Burleson","TX","Veterans Plaza","409 S Oak St","76036",32.57447052001953,-97.3660888671875
"76028","Burleson","TX","Bailey Lake","not_available","76028",32.526033,-97.32365
"76028","Burleson","TX","Bicentennial Park","1701-1843 E Main St","76036",32.580415686458664,-97.34440048233637
"76028","Burleson","TX","Fit 30 Boot Camp","721 S Crowley Rd","76036",32.56927490234375,-97.35139465332031
"76031","Cleburne","TX","John Butner Park","606-608 N Buffalo Ave","76033",32.351008,-97.390233
"76031","Cleburne","TX","Hulen Park Softball Field","901 S Walnut St","76033",32.33656692504883,-97.38838958740234
"76031","Cleburne","TX","Whistle Stop","not_available","76033",32.3361931503434,-97.38848232113598
"76033","Cleburne","TX","Chisholm Trail Museum","101 Chisholm Trail, Cleburne, Texas 76033","76033",32.322967529296875,-97.44964599609375
"76033","Cleburne","TX","Byron Stewart Park","Byron Stewart Park Rd","76033",32.33135027046989,-97.44809472639365
"76034","Colleyville","TX","Spider Park","not_available","76034",32.87264552781225,-97.15191111079018
"76034","Colleyville","TX","Parr Park","W.T. Parr rd","76051",32.905166505866134,-97.11428561135095
"76034","Colleyville","TX","Noteboom Park","not_available","76054",32.871886,-97.181502
"76034","Colleyville","TX","Echo Hills Park","500 Heneretta","not_available",32.87475729993678,-97.17356277992535
"76034","Colleyville","TX","Pecan Park","not_available","76051",32.889440052202225,-97.11358651185479
"76036","Crowley","TX","Hallmark Park","not_available","76134",32.635554968531295,-97.33296655154183
"76036","Crowley","TX","Neighboorhood Park","not_available","76123",32.608017,-97.392517
"76036","Crowley","TX","Creekside Park","Cloverglen Ln","76123",32.626027,-97.35986048
"76036","Crowley","TX","Hulen Meadows Park","3600 Blue Springs","76123",32.62171997107292,-97.37595923200556
"76036","Crowley","TX","Trinity Heights Park","not_available","76132",32.65178221822235,-97.43159976323038
"76036","Crowley","TX","T-Bird Model Airplane Field @ Mustang Park","not_available","76126",32.609602,-97.484996
"76036","Crowley","TX","Longhorn Park","not_available","76036",32.64720171367636,-97.44582861278421
"76036","Crowley","TX","Mustang Park","Benbrook Lake","76126",32.610208917090944,-97.47739189617879
"76036","Crowley","TX","French Lake Park Off Hulen & French Lake Dr.","not_available","76133",32.638041919895564,-97.38882010165815
"76039","Euless","TX","Bear Creek Children's Park","1800 Bear Creek Pkwy.","76039",32.86156490232035,-97.06755638122559
"76039","Euless","TX","Chittam Park","?","?",32.85944599162977,-97.07802096077992
"76039","Euless","TX","James' Bootcamp :D","not_available","76039",32.863666878134595,-97.06974184224507
"76039","Euless","TX","Midway Park","359 E Midway Dr.","76039",32.844790519431996,-97.08436230273811
"76039","Euless","TX","Villages of Bear Creek Dog Park","1951 Bear Creek Pkwy","76039",32.865259766322204,-97.06961631774901
"76039","Euless","TX","Bob Eden Park","1099 W Mid Cities Blvd.","76039",32.86615086115438,-97.09755128662154
"76040","Euless","TX","Rickel Park","1001 Bluebonnet","not_available",32.81187126789456,-97.15595192027726
"76040","Euless","TX","Tesco Park","100 Arwine Dr.","76053",32.8118542537683,-97.15596095205728
"76040","Euless","TX","South Euless Park","603 S Main St","76040",32.829190000000004,-97.080572
"76040","Euless","TX","SRO Walking Path","4700 American Blvd","76155",32.833352000000005,-97.067872
"76040","Euless","TX","Heritage Park","359 Cullum Dr","76040",32.83436058046865,-97.07922928918593
"76040","Euless","TX","The Kiwi Park","not_available","76155",32.82973047690752,-97.06371181945718
"76040","Euless","TX","Simmons Center","508 Simmons Dr","76040",32.830388,-97.091721
"76043","Glen Rose","TX","Cody Day Park","TX-67","76043",32.24721477704272,-97.73760959177046
"76043","Glen Rose","TX","Big Rock Park","not_available","76043",32.23860306429289,-97.74578421104357
"76048","Granbury","TX","Houston Street Park","not_available","76048",32.44475948463101,-97.78790832759078
"76048","Granbury","TX","Lambert Branch City Park","510 N Brazos St","76048",32.446617126464844,-97.7845687866211
"76051","Grapevine","TX","Bear Run Park","360","76051",32.894261440326105,-97.09510217152659
"76051","Grapevine","TX","Heritage Park","165-299 Ball St.","76051",32.93904555859233,-97.08356697502963
"76051","Grapevine","TX","Oak Grove Park","2520 Oak Grove Loop S","not_available",32.966356500694,-97.08109436089637
"76051","Grapevine","TX","Bear Creek Disc Golf Course","420 Woods Dr","76051",32.897208327869286,-97.09150467196551
"76051","Grapevine","TX","Dove Crossing Park","Stoneway Dr.","76051",32.96546347445248,-97.09263795345741
"76051","Grapevine","TX","Katie's Woods Park","1899 Katieâ€™s Woods Loop","not_available",32.95976452469326,-97.06788762718733
"76052","Haslet","TX","Haslet Community Park","not_available","76052",32.97392607003345,-97.37947369771227
"76052","Haslet","TX","John Gammill Park","Gammill St","76052",32.973866,-97.349098
"76052","Haslet","TX","Haslet Park","299-257 Broadway S","76052",32.9741366542173,-97.35109929555499
"76052","Haslet","TX","Harriet Creek Park","Cowboy trail","not_available",33.04219960815345,-97.32426054410533
"76052","Haslet","TX","Harriet Creek Park","Cowboy Trail","76247",33.037807247909626,-97.31893159527118
"76053","Hurst","TX","Hurst Community Park","601 Precinct Line Rd.","76053",32.820207976416164,-97.18862056732178
"76053","Hurst","TX","Wells Park","not_available","76053",32.81872864954097,-97.1865793596686
"76053","Hurst","TX","Hurst Central Park","Mary Dr","76040",32.82068292898925,-97.17565613798838
"76053","Hurst","TX","Wan Ka Kani Park","748 Shady Lane","76053",32.81684112548828,-97.15630340576172
"76053","Hurst","TX","Redbud Park","594 redbud dr","not_available",32.81403953206969,-97.1783111
"76053","Hurst","TX","Dunlop Park BMX Trails","Trinity Blvd.","not_available",32.81182382,-97.1560132
"76054","Hurst","TX","Chisholm Park","2200 Norwood Dr","76054",32.85825461561642,-97.172857217148
"76055","Itasca","TX","Covington City Park","not_available","76636",32.1783,-97.255801
"76063","Mansfield","TX","Katherine Rose Memorial Park","not_available","76063",32.56780126790069,-97.13588245587886
"76063","Mansfield","TX","Clayton W Chandler Park","1530 N Walnut Creek Dr","76063",32.596222999999995,-97.129134
"76063","Mansfield","TX","Mansfield Sports Complex","Holland Rd.","76063",32.56764570715623,-97.07459573174484
"76063","Mansfield","TX","Willowstone Pond","Willowstone Trail","76063",32.606697758108346,-97.1384432068746
"76063","Mansfield","TX","McClendon Park East","740 W.Kimball","76063",32.56052283563138,-97.14951287874503
"76067","Mineral Wells","TX","Lake Palo Pinto Marina and Campgrounds","1921 FM 3137","76484",32.667091369628906,-98.30204010009766
"76067","Mineral Wells","TX","Mineral Wells Fossil Park","not_available","76067",32.810855741308714,-98.06595291152742
"76085","Weatherford","TX","McGratton Park","645 N. Main St","76086",32.76599884033203,-97.7983627319336
"76085","Weatherford","TX","Marshall Park","not_available","76086",32.775264,-97.795383
"76086","Weatherford","TX","Chandor Gardens","711 W Lee Ave","76086",32.7540168762207,-97.80806732177734
"76086","Weatherford","TX","Cherry Park","300 S. Alamo St.","76086",32.755460942958734,-97.80114827503144
"76086","Weatherford","TX","Love St. Park","309 love street","not_available",32.755489349365234,-97.81285858154297
"76092","Southlake","TX","Bicentennial Park","450 W Southlake Blvd","76092",32.9440471935219,-97.1580596025256
"76092","Southlake","TX","North Park","200 E Dove Road","76092",32.972626904491364,-97.1471094736423
"76092","Southlake","TX","Liberty Park At Sheltonwood","500 E Dove Rd","76092",32.969433985117284,-97.14485866049684
"76092","Southlake","TX","Milestone Activity Center","not_available","76248",32.918568361271994,-97.19021030386521
"76092","Southlake","TX","McPherson Park","1297 Federal Way","76092",32.9463005065918,-97.1318588256836
"76092","Southlake","TX","Chesapeake Park","not_available","76092",32.928978,-97.201022
"76092","Southlake","TX","Dove Park","1509 Hood Lane","76051",32.95522556626774,-97.09792439945217
"76092","Southlake","TX","The Cliffs at Clariden Ranch","Sunrise Ranch Rd","not_available",32.99204656895839,-97.15917996165632
"76102","Fort Worth","TX","Trinity Trails","Taylor St","76107",32.76071688548088,-97.33105659484862
"76102","Fort Worth","TX","Trinity Park","University Blvd","76107",32.74364508816002,-97.35504627227783
"76102","Fort Worth","TX","Burnett Park","not_available","76102",32.75044442277604,-97.33354568481445
"76102","Fort Worth","TX","Fort Worth Water Gardens","1502 Commerce St","76102",32.747888917407764,-97.32626952375249
"76102","Fort Worth","TX","Linwood Park","Wimberly St","76107",32.754953,-97.358367
"76102","Fort Worth","TX","Dream Park","not_available","76107",32.74157,-97.357223
"76102","Fort Worth","TX","Marine Park","303 NW 20th St","76164",32.780413,-97.350081
"76102","Fort Worth","TX","Sundance Square Pavilion","420 Main Street","76102",32.75473628303072,-97.3313864142708
"76102","Fort Worth","TX","Trinity Park Duck Pond","2200 Trinity Park Dr.","76107",32.75001717265205,-97.35084082518173
"76102","Fort Worth","TX","Arneson Park","Grand Ave","76164",32.77115862679332,-97.35862701608751
"76102","Fort Worth","TX","Ranch Bash","not_available","76106",32.76067056390479,-97.3400808886835
"76102","Fort Worth","TX","Newby Park","not_available","76110",32.73284423685539,-97.34988080095675
