"zip","city","state","name","address","postalCode","lat","lon"
"27006","Advance","NC","Tractor Supply Co.","196 Westwood Village Dr","27012",36.031024,-80.385921
"27006","Advance","NC","Steelman's Ace Hardware","5431 US Highway 158","27006",36.0060599,-80.43419
"27006","Advance","NC","Wright Farm Gates","not_available","not_available",35.978938,-80.455432
"27006","Advance","NC","Residential Building Specialties, Inc.","6220 Hacker Bend Ct Ste D","27103",36.0406846,-80.36977259999999
"27006","Advance","NC","Poindexter Lumber Company","6965 Idols Rd","27012",35.998443,-80.385214
"27006","Advance","NC","Sherwin-Williams Paint Store","2662 Lewisville Clemmons Rd","27012",36.024865000000005,-80.382588
"27006","Advance","NC","Jack's New Grass Mowers Sales And Service","4798 Kinnamon Rd","27012",36.040665701215715,-80.37595874737787
"27006","Advance","NC","J Royal","3720 Stanford Way","27012",35.995796,-80.388737
"27011","Boonville","NC","Yadkin Lumber Company, Inc.","800 N State St, Yadkinville, NC 27055","27055",36.142672,-80.6644
"27012","Clemmons","NC","Lowe's","935 Hanes Mall Blvd","27103",36.0636261,-80.3135019
"27012","Clemmons","NC","The Home Depot","1000 Hanes Mall Blvd","27103",36.0673883,-80.3155567
"27012","Clemmons","NC","Smitherman Hardware & Equipment","1305 Lewisville Clemmons Rd","27023",36.079324,-80.389646
"27012","Clemmons","NC","Sherwin-Williams Paint Store","1017 Hanes Mall Blvd","27103",36.066650390625,-80.3193588256836
"27012","Clemmons","NC","Consignment Furniture Emporium, Inc.","130 Cloverleaf Dr","27103",36.0491237,-80.3223939
"27012","Clemmons","NC","Wilson Lighting","3065 Trenwest Dr","27103",36.080528259277344,-80.29757690429688
"27012","Clemmons","NC","Penn Tool","2431 Spaugh Industrial Dr","27103",36.033941,-80.317479
"27012","Clemmons","NC","Premier Window","4711-4729 Benton Rd","27104",36.074016094207764,-80.33921420574188
"27012","Clemmons","NC","Pfaff's, Inc.","1550 S Stratford Rd","27103",36.07275,-80.304
"27012","Clemmons","NC","Ace Hardware (Arcadia)","8201 N NC Hwy 150","27012",35.949535,-80.306391
"27012","Clemmons","NC","triad restorations","not_available","27103",36.04077911376953,-80.31536865234375
"27012","Clemmons","NC","Murray Supply Company","240 Olive St.","27103",36.082978902825204,-80.29995786812935
"27012","Clemmons","NC","Interpol Solutions, LLC","1444 River Ridge Dr","27012",36.075233000000004,-80.39235699999999
"27013","Cleveland","NC","Steele Feed & Seed","not_available","28125",35.67626853238506,-80.6935200178703
"27014","Cooleemee","NC","Heritage Hardware True Value","7814 Hwy 801 S","27014",35.81354522705078,-80.55267333984375
"27017","Dobson","NC","Lowe's","692 South Andy Griffith Parkway, Ste. 100","27030",36.48489509,-80.61587695
"27017","Dobson","NC","Tractor Supply Co.","2149 Rockford St Ste C","27030",36.476046999999994,-80.618243
"27017","Dobson","NC","Lowe's","492 Cc Camp Road","28621",36.273512,-80.840908
"27017","Dobson","NC","Tractor Supply Co.","1925 North Bridge St Ste 100","28621",36.283512,-80.85348
"27017","Dobson","NC","minuteKEY","548 Cc Camp Rd","28621",36.27591323852539,-80.83223724365234
"27017","Dobson","NC","minuteKEY","2241 Rockford St","27030",36.47169876098633,-80.618408203125
"27017","Dobson","NC","Freeman's Saddle And Tack","not_available","27017",36.395985731993136,-80.78533594859788
"27017","Dobson","NC","Price Power Equipment","2116 N Bridge St","28621",36.28771,-80.85221899999999
"27017","Dobson","NC","Merritt Supply","not_available","27030",36.48069500427909,-80.60412139606689
"27019","Germanton","NC","Main Street Lawn, Garden & Hardware","130 E Wall St","27045",36.222607,-80.285074
"27020","Hamptonville","NC","Ace Hardware","1475 West Memorial Highway","28689",36.036947,-80.896695
"27020","Hamptonville","NC","The Shop","not_available","28689",36.051176275125556,-80.83614891337574
"27020","Hamptonville","NC","Union Grove Hdw/Bldrs Supply","1475 W Memorial Hwy","28634",36.007834,-80.833792
"27021","King","NC","City Electric Supply King","141 Pineview Dr","27021",36.265821,-80.358979
"27021","King","NC","King Lawn & Garden","509 S Main St","27021",36.271137,-80.360939
"27023","Lewisville","NC","Shallowford Road","6250 Jennings Rd","27023",36.10185623168945,-80.4129867553711
"27023","Lewisville","NC","minuteKEY","5175 Brookberry Park Ave","27104",36.09392547607422,-80.36785125732422
"27025","Madison","NC","Lowe's","6844 NC-135","27027",36.413157,-79.939283
"27025","Madison","NC","Tractor Supply Co.","124 New Market","27025",36.396767,-79.96718299999999
"27025","Madison","NC","Western Auto","322 N Main St","27052",36.296321999999996,-80.141225
"27028","Mocksville","NC","Lowe's","1427 Yadkinville Road","27028",35.9172115,-80.5870309
"27028","Mocksville","NC","Tractor Supply Co.","1029 Yadkinville Rd Ste 101","27028",35.910695000000004,-80.577074
"27028","Mocksville","NC","Caudell True Value Lumber","162 Sheek St","27028",35.90091324,-80.55118561
"27028","Mocksville","NC","Sherwin-Williams Paint Store","1743 US Highway 601 N","27028",35.92705424720579,-80.59411771414536
"27030","Mount Airy","NC","Merritt Supply Inc","451 N South St","27030",36.502323,-80.615593
"27030","Mount Airy","NC","Sherwin-Williams Paint Store","196 Mayberry Mall","27030",36.507928,-80.623565
"27030","Mount Airy","NC","Do It Best","not_available","27041",36.38995743041866,-80.48483306504687
"27030","Mount Airy","NC","City Electric Supply Mount Airy","630 W Independence Blvd","27030",36.5013297,-80.6191813
"27030","Mount Airy","NC","United Plumbing Supply - Mount Airy","925 W Lebanon St","27030",36.52052,-80.6215
"27030","Mount Airy","NC","Riverside Building Supply","Pine St","27030",36.504947662353516,-80.5836181640625
"27040","Pfafftown","NC","Sherwoods Ace Hardware","3450 Robinhood Rd","27106",36.1165978,-80.3163125
"27040","Pfafftown","NC","GLC Home Improvement CO","4315 Shadi Green Ln","27040",36.1739276,-80.3545451
"27040","Pfafftown","NC","Sherwin-Williams Paint Store","3655 Reynolda Rd","27106",36.15866702755911,-80.31880259513855
"27040","Pfafftown","NC","Shouse Surplus & Tool Co","3557 Yakinville Rd","not_available",36.153901631720736,-80.31729295769877
"27045","Rural Hall","NC","Tractor Supply Co.","1011 Bethania Rural Hall Rd","27045",36.213541,-80.30014
"27045","Rural Hall","NC","Byrd's Mobile Locksmith","5771 Germanton Rd","27105",36.19853817552917,-80.25388240814209
"27051","Walkertown","NC","Webster Bros. Hardware. Inc.","2700 Hwy. 66","27051",36.1702999,-80.158199
"27055","Yadkinville","NC","Dorsett Technologies","100 Woodlyn Dr","27055",36.11815,-80.654629
"27055","Yadkinville","NC","Husqvarna US","1517 US 601 Hwy","27055",36.066070556640625,-80.64197540283203
"27101","Winston Salem","NC","H&E Equipment Services","3760 N Liberty St","27105",36.1371725,-80.2307064
"27101","Winston Salem","NC","H4H Build Site","not_available","27105",36.15731802520558,-80.25420357860098
"27101","Winston Salem","NC","Colonial Materials Inc","2600 Lowery Street","27101",36.09580115,-80.20235152
"27101","Winston Salem","NC","AMS Metal Slitting Corp.","1710 N 25th Ave","60160",36.12286617807761,-80.22427082061768
"27101","Winston Salem","NC","Murray Supply","102 W 3rd St Ste 810","27101",36.09699310793109,-80.24501770734787
"27101","Winston Salem","NC","Discount Builders Supply","4258 Kernersville Rd","27284",36.091739654541016,-80.13890075683594
"27101","Winston Salem","NC","Sherwin-Williams Paint Store","651 Peters Creek Pkwy","27103",36.08286116742242,-80.25655388832092
"27101","Winston Salem","NC","Quality Glass Service","900 W Northwest Blvd","27101",36.10432052612305,-80.25873565673828
"27103","Winston Salem","NC","Lowe's","1450 Lumber Lane","27127",36.0313938,-80.2639092
"27103","Winston Salem","NC","Cloverdale Ace Hardware","2287 Cloverdale Avenue","27103",36.0900699,-80.27589
"27103","Winston Salem","NC","Harbor Freight Tools","2658 PETERS CREEK PARKWAY","27127",36.05866372707796,-80.26012390075063
"27103","Winston Salem","NC","Sherwin-Williams Paint Store","165 Beau View Ct","27127",36.05357545129833,-80.25843931100843
"27103","Winston Salem","NC","House Doctors Handyman of Winston Salem","1625 Stoneshire Ct","27127",36.04589759,-80.26800636
"27103","Winston Salem","NC","Sherwin-Williams Commercial Paint Store","355 Witt St","27103",36.08927917480469,-80.2850112915039
"27103","Winston Salem","NC","minuteKEY","180 Harvery Rd.","27103",36.0852287,-80.2937468
"27103","Winston Salem","NC","ACR Supply","1735 Link Rd","27103",36.07042855314513,-80.26302324565812
"27103","Winston Salem","NC","Badcock Home Furniture &more","1215 Silas Creek Pkwy","27127",36.0677261,-80.25469629999999
"27103","Winston Salem","NC","Sherwin-Williams Paint Store","113 Oakwood Dr","27103",36.09090065,-80.28133616
"27103","Winston Salem","NC","City Electric Supply Winston Salem Central","1525 Peters Creek Pkwy","27103",36.07246216499955,-80.25726467370987
"27103","Winston Salem","NC","minuteKEY","1450 Lumber Ln","27127",36.0313606262207,-80.26403045654297
"27105","Winston Salem","NC","The Home Depot","5721 University Parkway","27105",36.1779762,-80.272898
"27105","Winston Salem","NC","Lowe's","5901 University Pky","27105",36.1832884,-80.2720009
"27105","Winston Salem","NC","City Electric Supply Wake Forest University","2841 Fairlawn Dr","27106",36.141721711122436,-80.29911249876022
"27105","Winston Salem","NC","minuteKEY","5039 University Pkwy","27106",36.160560607910156,-80.27713012695312
"27105","Winston Salem","NC","minuteKEY","5901 University Pkwy","27105",36.18429183959961,-80.27537536621094
"27105","Winston Salem","NC","Sherwin-Williams Paint Store","6035 University Pkwy","27105",36.191072,-80.277328
"27105","Winston Salem","NC","Ferguson Bath, Kitchen & Lighting Gallery","7905 N Point Blvd","27106",36.14982604980469,-80.2738037109375
"27107","Winston Salem","NC","Southside Bargain Center","3425 Thomasville Rd","27107",36.055316,-80.208171
"27107","Winston Salem","NC","Bloomin Blinds","4117 Shadetree Drive","27107",36.0640272,-80.13785969999999
"27107","Winston Salem","NC","Carter Lumber","9376 Old Us Hwy 52","27374",35.9456963201438,-80.22218375080536
"27107","Winston Salem","NC","Fred's Sheds LLC","not_available","27150",36.02688935430189,-80.20744800567627
"27127","Winston Salem","NC","Snead's Mower","not_available","27127",36.03996543933467,-80.24191440217704
"27203","Asheboro","NC","Lowe's","1120 East Dixie Drive","27203",35.6932676,-79.7936706
"27203","Asheboro","NC","Tractor Supply Co.","1200 East Dixie Dr","27203",35.694522,-79.792321
"27203","Asheboro","NC","Sherwin-Williams Paint Store","642 N Fayetteville St","27203",35.716018,-79.810724
"27203","Asheboro","NC","Husqvarna US","1611 N Fayetteville St","27203",35.74055099487305,-79.8089599609375
"27203","Asheboro","NC","Southern States - 75167","504 E Dixie Dr","27205",35.688313,-79.808835
"27203","Asheboro","NC","City Electric Supply Asheboro","837 W Salisbury St","27203",35.708142585614056,-79.82646181250863
"27203","Asheboro","NC","asheboro outdoor power equipment","not_available","27203",35.70570344885686,-79.79635064207456
"27203","Asheboro","NC","minuteKEY","1226 E Dixie Dr","27203",35.692666,-79.7899149
"27203","Asheboro","NC","Valdez Heating and Air, LLC","849 Gold Hill Rd","27203",35.728628,-79.782967
"27203","Asheboro","NC","minuteKEY","1120 E Dixie Dr","27203",35.69292068481445,-79.79371643066406
"27203","Asheboro","NC","Ag Supply","not_available","27248",35.734238,-79.709724
"27203","Asheboro","NC","Hammerheads Hardware","1537 N Fayetteville St","27203",35.738113,-79.808947
"27205","Asheboro","NC","Asheboro Supply Company","1916 S Fayetteville St","27205",35.679293,-79.81866600000001
"27209","Biscoe","NC","Miller's Hardware","not_available","27209",35.35862731933594,-79.77959442138672
"27209","Biscoe","NC","Tractor Supply Co.","527 East Main St","27209",35.362444,-79.768461
"27214","Browns Summit","NC","Southern States - 78687","341 Us 29 Business","27320",36.2678263314563,-79.652203401075
"27214","Browns Summit","NC","Cardinal Lawn And Garden","not_available","27405",36.14838595517662,-79.7315336570505
"27215","Burlington","NC","Lowe's","125 Huffman Mill Road","27215",36.0789308,-79.4809406
"27215","Burlington","NC","The Home Depot","2771T Kirkwood Dr","27215",36.0660533,-79.4651278
"27215","Burlington","NC","Northern Tool & Equipment Co","2495 Eric Ln","27215",36.065872,-79.477157
"27215","Burlington","NC","Harbor Freight Tools","1819 S Church St","27215",36.08416748046875,-79.4610824584961
"27215","Burlington","NC","Sears","350 Holly Hill Mall","27215",36.07959132,-79.48610581
"27215","Burlington","NC","Lowes Of Burlington","125 Huffman Mill Rd","27215",36.07909393310547,-79.48139953613281
"27215","Burlington","NC","minuteKEY","3141 Garden Rd","27215",36.072102,-79.499019
"27215","Burlington","NC","Hunt Electric Company","not_available","27215",36.080546,-79.430329
"27215","Burlington","NC","Carolina Supply Inc.","1324 S Mebane St","27215",36.080928,-79.445491
"27215","Burlington","NC","Auto Trim Design Inc","614 Chapel Hill Road","27215",36.0762303,-79.44617149999999
"27215","Burlington","NC","Payment Terminal Systems LLC","413 Tucker St","27215",36.087008,-79.432158
"27215","Burlington","NC","Sherwin-Williams Paint Store","3246 S Church St","27215",36.080477,-79.505459
"27215","Burlington","NC","Southern States","not_available","27589",36.08013888888889,-79.467336
"27215","Burlington","NC","City Electric Supply Burlington","1735 Maple Ave","27215",36.07303016769728,-79.42830383777618
"27215","Burlington","NC","Tractor Supply Co.","3129 Garden Rd","27215",36.071797,-79.497419
"27215","Burlington","NC","Ferguson","2265 Hanford Rd","27215",36.062356,-79.438249
"27217","Burlington","NC","Sherwin-Williams Paint Store","903 Mebane Oaks Rd","27302",36.07676,-79.273288
"27217","Burlington","NC","Southern States - 77737","1902 Nc Route 119","27302",36.1352172,-79.2770692
"27217","Burlington","NC","MCGUIRE Air Compressors Inc.","729 Elm Streen","27253",36.078189,-79.385231
"27217","Burlington","NC","Bdc","not_available","27253",36.0850944519043,-79.4042739868164
"27217","Burlington","NC","Builder's Discount Center","213 W Hanover Rd","27253",36.085613,-79.404256
"27235","Colfax","NC","Northern Tool and Equipment","8521 Triad Dr","27235",36.09377373702188,-79.99488504087687
"27235","Colfax","NC","HD Supply White Cap","8717 W Market St","27409",36.09928266,-79.97884636
"27235","Colfax","NC","Colfax Trading Company","not_available","27235",36.10199496808235,-79.9960215870312
"27235","Colfax","NC","BTL Siding & Windows","4702 Sandy Camp Rd","27262",36.065933,-79.998637
"27235","Colfax","NC","BetterDoor","101 Little Santee Rd","27235",36.10326385498047,-79.98764038085938
"27239","Denton","NC","C & M Landscape Supply, LLC","not_available","28127",35.51861111111111,-80.14444444444445
"27239","Denton","NC","Carolina Specialty Products","5595 NC Highway 49","27239",35.544845,-80.110282
"27239","Denton","NC","Husqvarna US","PO Box 1702","27239",35.62458038330078,-80.0976333618164
"27239","Denton","NC","Wilson Carter Supply","not_available","27239",35.62040328979492,-80.10506439208984
"27239","Denton","NC","GHS Corporation","9543 NC Highway 49 S","27239",35.588032,-80.0505357
"27242","Eagle Springs","NC","Burney True Value Hardware","11865 Hwy 15-501S","28315",35.26782385,-79.58776454
"27242","Eagle Springs","NC","Burney True Value Hardware Of Seven Lakes","270 N Trade St","27376",35.26782818,-79.58778192
"27243","Efland","NC","G & G General Services","1000 Splendor Ct","27278",36.038306,-79.13728499999999
"27244","Elon","NC","Ross Grocery","hwy 87","27249",36.2841671705246,-79.55635786056519
"27248","Franklinville","NC","Zack White Leather","809 Moffitt St","27316",35.736686,-79.653863
"27253","Graham","NC","Lowe's","200 Lowes Boulevard","27302",36.0671464,-79.302191
"27253","Graham","NC","Colonial Hardware","126 E Elm St","27253",36.069613,-79.399497
"27253","Graham","NC","Woodworkers Supply Of NC","1125 Jay Ln","27253",36.06974,-79.370759
"27253","Graham","NC","Graham Tractor Co","109 S Marshall St","27253",36.0686,-79.398947
"27253","Graham","NC","Husqvarna US","PO Box 753","27253",36.021087646484375,-79.36829376220703
"27260","High Point","NC","Lowe's","2600 North Main Street","27265",35.9920983,-80.0262794
"27260","High Point","NC","The Home Depot","2300 N Main St","27262",35.985656,-80.02279
"27260","High Point","NC","Harbor Freight Tools","2645 N Main St","27265",35.991673999999996,-80.03071
"27260","High Point","NC","Southside Hardware Center","2937 S Main St","27263",35.91994,-79.97632
"27260","High Point","NC","Jamestown True Value","715 W Main St","27282",35.9930266784442,-79.9528166219122
"27260","High Point","NC","Harbor Freight Tools","North Main Street","not_available",35.962676,-80.01032
"27260","High Point","NC","Marco Supply Co.","not_available","27260",35.967997807163606,-79.94181062449248
"27260","High Point","NC","Precision Products","1219 Dorris Ave","27260",35.935351,-80.01671899999997
"27260","High Point","NC","FAS-GLAS Glass & Mirror","3022 West English Road","27262",35.930986,-80.046125
"27260","High Point","NC","Huffman Paint and Wallcoverings","Main Street","not_available",35.9595516783677,-80.01507808620454
"27260","High Point","NC","Sherwin-Williams Paint Store","127 Westchester Dr","27262",35.982361,-80.025756
"27260","High Point","NC","Furniture Clearance Center, LLC.","1229 S Main St","27260",35.9433771,-80.0012325
"27260","High Point","NC","minuteKEY","2628 S. Main St.","27263",35.9276643,-79.9873082
"27260","High Point","NC","Airgas / National Welders","2704 Uwharrie Rd","27263",35.92088915092449,-80.00888108725995
"27260","High Point","NC","minuteKEY","2710 N Main St","27265",35.99412155151367,-80.02910614013672
"27260","High Point","NC","Ferguson Plumbing Supply","334 W Russell Ave","27260",35.952394,-80.010526
"27260","High Point","NC","Economy Plumbing","2621 Dallas Ave","27265",35.982307,-79.9786
"27260","High Point","NC","Beeson Decorative Hardware & Plumbing","2210 Geddie Pl","27260",35.96394348144531,-79.9666748046875
"27260","High Point","NC","minuteKEY","2600 N Main St","27265",35.99171829223633,-80.02642059326172
"27260","High Point","NC","Womack Electric Supply Co.","808 W Green Dr","27260",35.948293,-80.014299
"27260","High Point","NC","City Electric Supply High Point Nc","1944 West Green St.","27260",35.933572,-80.0158156
"27260","High Point","NC","True Hardware","not_available","27282",35.992309,-79.953278
"27260","High Point","NC","Mannington Laminate Floors","210 Pendleton St","27260",35.963531494140625,-79.97126770019531
"27260","High Point","NC","Wurth Wood Group","201 Pendleton St","27260",35.962644,-79.969266
"27260","High Point","NC","Carbide Saws Inc.","701 Garrison St","27260",35.9506266,-79.9783674
"27263","High Point","NC","Williams Hardware","8700-8898 U.S. 311","27263",35.874101014682765,-79.91148392526613
"27263","High Point","NC","Shop","not_available","27370",35.8677978515625,-80.00386810302734
"27263","High Point","NC","Kivett Industrial Supply, Inc.","301 Interstate Dr","27263",35.899279,-79.95642099999999
"27263","High Point","NC","Router Bit Service Company, Inc.","7018 Tomball Rd","27263",35.9169734,-79.86668499999999
"27263","High Point","NC","Davis Feed And Supply","not_available","27317",35.87656366283516,-79.85683358058021
"27263","High Point","NC","Leitz","not_available","27263",35.898223,-79.957728
"27263","High Point","NC","Crossover Roofing","10729 N Main St","27263",35.908731,-79.967741
"27265","High Point","NC","Ace Hardware of Kernersville","1537 Union Cross Rd","27284",36.076147,-80.107023
"27265","High Point","NC","Sherwin-Williams Paint Store","3821 Tinsley Dr","27265",36.02860399872251,-79.96917705965389
"27265","High Point","NC","Tool Locker Plus","408 Gallimore Dairy Rd","27409",36.071548,-79.945278
"27265","High Point","NC","Horneytown Builder Supply","138 Horneytown Rd","27265",36.013090999999996,-80.06111700000001
"27265","High Point","NC","Vallen","4344 Federal Dr","27410",36.06251907348633,-79.9489974975586
"27265","High Point","NC","Ferguson Plumbing Supply","305 Friendship Dr","27409",36.079524,-79.941781
"27265","High Point","NC","Horizon Tool, Inc.","4300 Waterleaf Ct","27410",36.0591441,-79.9431252
"27265","High Point","NC","Aloi Materials Handling – High Point","2638 Willard Dairy Rd","27265",36.043296999999995,-79.963474
"27278","Hillsborough","NC","The Home Depot","625 Hampton Point Blvd","27278",36.0543004,-79.0816567
"27278","Hillsborough","NC","Tractor Supply Co.","1701 Nc Hwy 86 South","27278",36.061921,-79.085178
"27278","Hillsborough","NC","Lumber Liquidators Flooring","3157 Hillsborough Rd","27705",36.01697179860769,-78.94078152768748
"27278","Hillsborough","NC","Orange Garden Center, Inc.","1218 us 70 east","27278",36.08125305175781,-79.0776138305664
"27278","Hillsborough","NC","Town and Country Hardware","1129 Weaver Dairy Rd","27514",35.96267328524359,-79.05339922395866
"27278","Hillsborough","NC","Husqvarna US","PO Box 1414","27278",36.074581146240234,-79.0776596069336
"27278","Hillsborough","NC","Hillsborough Locksmith Pro","660 N Churton St","27278",36.085465,-79.09904300000001
"27278","Hillsborough","NC","Duron Paints & Wallcoverings","3172 Hillsborough Rd Ste A","27705",36.018167,-78.94189899999999
"27278","Hillsborough","NC","Porter Paints","3161 Hillsborough Rd","27705",36.017096,-78.941252
"27278","Hillsborough","NC","Brewer Homes Improvements","3423 Iva Ada Dr.","27278",36.13188,-79.01155
"27278","Hillsborough","NC","Sherwin-Williams Paint Store","3148 Hillsborough Rd","27705",36.017475,-78.940111
"27278","Hillsborough","NC","Talbert Building Supply","3101 Hillsborough Road","27705",36.01509,-78.937957
"27278","Hillsborough","NC","Tri-City Signs & Awards","4226 Garrett Rd","27707",35.95956340247626,-78.97591416806127
"27278","Hillsborough","NC","City Electric Supply Chapel Hill","7401 Rex Rd Ste 102","27516",35.970298052352575,-79.07367253443226
"27278","Hillsborough","NC","Marble Unlimited Countertops","3738 Durham Chapel Hill Blvd","27707",35.971573,-78.953277
"27278","Hillsborough","NC","hillsborough plumbing company","1020 NC Highway 57","27278",36.103523,-79.100798
"27278","Hillsborough","NC","Dual Supply Co","King Street","not_available",36.075413184377204,-79.09984368976964
"27278","Hillsborough","NC","Duke University Locksmith Pro","2608 Erwin Rd","27705",36.00878736581311,-78.94397735595703
"27281","Jackson Springs","NC","Seven Lakes Ace Hardware","4379 NC 211","27376",35.2531,-79.5167
"27284","Kernersville","NC","Lowe's","145 Harmon Creek Road","27284",36.1068534,-80.1047058
"27284","Kernersville","NC","Farmers Hardware","637 N Main St","27284",36.128671999999995,-80.06324599999999
"27284","Kernersville","NC","Tractor Supply Co.","8005 Market Place Dr","27310",36.172031,-79.989935
"27284","Kernersville","NC","The Plumbing Service Company","411 Graves Mill Rd","27284",36.122249,-80.059308
"27284","Kernersville","NC","minuteKEY","145 Harmon Creek Rd","27284",36.107021,-80.10509
"27284","Kernersville","NC","Farmer's Feed And Seed","311 N Main St","27284",36.123459000000004,-80.07135699999999
"27284","Kernersville","NC","minuteKEY","1035 Beesons Field Dr","27284",36.087852478027344,-80.10143280029297
"27284","Kernersville","NC","Sherwin-Williams Paint Store","8007 Marketplace Dr","27310",36.172360999999995,-79.99089599999999
"27284","Kernersville","NC","Farmers Hardware","Main St","27284",36.128826360381524,-80.08661995385191
"27284","Kernersville","NC","Piedmont Bobcat","1015 North Carolina 66","27285",36.105355,-80.0601326
"27284","Kernersville","NC","Ferguson Waterworks","444 W Bodenhamer St","27284",36.131122,-80.08085600000001
"27284","Kernersville","NC","minuteKEY","1130 S Main St","27284",36.1097719,-80.1023662
"27284","Kernersville","NC","Sherwin-Williams Paint Store","936 Nc Highway 66 S","27284",36.107261657714844,-80.06242370605469
"27284","Kernersville","NC","City Electric Supply Kernersville","1496 Hampton Plaza Dr","27284",36.0892573,-80.0660954
"27288","Eden","NC","Tractor Supply Co.","842a S Van Buren Rd","27288",36.48448944091797,-79.73735046386719
"27288","Eden","NC","Builders Mart","137 Cox St","27288",36.51141,-79.743084
"27292","Lexington","NC","Lowe's","130 Lowe's Blvd","27292",35.7929332,-80.2578664
"27292","Lexington","NC","Lanier Ace Hardware","218 S Main St","27292",35.7657,-80.2274
"27292","Lexington","NC","Black's Concrete","805 Cotton Grove Rd","27292",35.80359061666667,-80.26371293333334
"27292","Lexington","NC","Sherwin-Williams Paint Store","825 S Main St","27292",35.816584999999996,-80.261071
"27292","Lexington","NC","minuteKEY","130 Lowes Blvd","27292",35.792528,-80.257428
"27292","Lexington","NC","Tractor Supply Co.","15 Plaza Pkwy","27292",35.78451864,-80.25787271
"27292","Lexington","NC","Hedgecock Builders Supply","not_available","27292",35.82571029663086,-80.24903106689453
"27292","Lexington","NC","City Electric Supply Lexington Nc","911 S Main St","27292",35.81552942332258,-80.26205241680145
"27292","Lexington","NC","minuteKEY","90 W US Highway 64","27295",35.83483123779297,-80.2771987915039
"27292","Lexington","NC","Ferguson Plumbing Supply","1122 S Main St","27292",35.811076,-80.268476
"27292","Lexington","NC","Seaman's Door & Awnings","110 Cotton Grove Rd Ste O","27292",35.812279,-80.261094
"27292","Lexington","NC","Husqvarna US","555 Central Ave","27292",35.82059097290039,-80.27949523925781
"27298","Liberty","NC","Kitchen Solvers of Raleigh","6757 Duncan Farm Rd","27298",35.833702,-79.574633
"27298","Liberty","NC","Liberty Hardware","130 W Swannanoa Ave, Liberty, NC 27298","27298",35.853662,-79.571536
"27301","Mc Leansville","NC","A & A Handyman Services LLC","4227 Camp Burton Rd","27301",36.1163,-79.70708499999999
"27306","Mount Gilead","NC","James River Equipment Co.","not_available","27306",35.2154994,-79.9983524
"27312","Pittsboro","NC","Lowe's","121 Lowe's Drive","27312",35.7453549,-79.1650021
"27312","Pittsboro","NC","Online Bookmarking","60134 Davie","27517",35.85188,-79.034039
"27312","Pittsboro","NC","Popes Hardware","not_available","27517",35.847752394504866,-79.08891793546412
"27312","Pittsboro","NC","Poultry Villa Landscaping And Supplies","3151 US Hwy 15 501 N","27312",35.76174,-79.16377
"27312","Pittsboro","NC","Town & Country Hardware","11470 suite 106 15-501 N","27517",35.846962,-79.089066
"27312","Pittsboro","NC","All Clean Water","916 East St Unit 224","27312",35.71895130000001,-79.1612985
"27313","Pleasant Garden","NC","Colonial Materials Inc","6211 Hunt Road","27313",35.955457,-79.76179
"27316","Ramseur","NC","Burgess Woodworks","not_available","27316",35.71400381490834,-79.62575893451677
"27317","Randleman","NC","Uncle Buck's General Store","4710-4730 State Road 1007","27406",35.928085276115254,-79.82704527945313
"27317","Randleman","NC","Viking Hose And Fittings","644 W Academy St","27317",35.822895,-79.817413
"27317","Randleman","NC","H @ M Grocery","5700-5998 U.S. 311","27350",35.82355170512908,-79.86033098472463
"27317","Randleman","NC","Randolph Hardware & Building Supply","233 Randolph St","27317",35.821873,-79.806125
"27317","Randleman","NC","Melvin's True Value Hardware","100 S Main St","27317",35.81783,-79.80308
"27317","Randleman","NC","Randolph Boiler & Mechanical Inc.","152 Pointe South Dr","27317",35.802879,-79.810772
"27320","Reidsville","NC","Lowe's","5201 US 29 Business","27320",36.3783607,-79.6626052
"27320","Reidsville","NC","Saunders Ace Hardware","202 Piedmont St","27320",36.356608,-79.663482
"27320","Reidsville","NC","Sherwin-Williams Paint Store","620 S Scales St","27320",36.353913,-79.66506
"27320","Reidsville","NC","reidsville service center","not_available","27320",36.32205,-79.6713
"27320","Reidsville","NC","Husqvarna US","2425 S Scales St","27320",36.32133865356445,-79.67141723632812
"27320","Reidsville","NC","McCollum's Hardware & Grocery","10475 US 158","27320",36.277793884277344,-79.76728057861328
"27320","Reidsville","NC","Big Apple Farm Supply","407 SW Market St","27320",36.357146,-79.662538
"27320","Reidsville","NC","Fastenal","1704 Freeway Dr","27320",36.352973,-79.692073
"27330","Sanford","NC","Lowe's","3015 S Horner Boulevard","27332",35.4527091,-79.1345518
"27330","Sanford","NC","Tractor Supply Co.","3004 South Horner Blvd","27332",35.451164,-79.13907900000001
"27330","Sanford","NC","Sherwin-Williams Paint Store","2105 S Horner Blvd","27330",35.463214,-79.148975
"27330","Sanford","NC","Praxair Welding Supply Company","1602 Hawkins Ave","27330",35.501113000000004,-79.178655
"27330","Sanford","NC","Cuber Building","not_available","27330",35.551421465207135,-79.18268635393686
"27330","Sanford","NC","City Electric Supply Sanford Nc","3341 Nc Hwy 87 S","27332",35.44122,-79.125822
"27330","Sanford","NC","minuteKEY","3015 S Horner Blvd","27332",35.4535026550293,-79.1341552734375
"27330","Sanford","NC","minuteKEY","3310 NC Hwy. 87 S.","27332",35.4428988,-79.1306384
"27330","Sanford","NC","Sears","2534 Lee Avenue","27332",35.455391,-79.152747
"27332","Sanford","NC","Angier Paint & Hardware","80 Amarillo Ln","27332",35.278558000000004,-79.06809
"27344","Siler City","NC","Tractor Supply Co.","100 Siler Xing","27344",35.735344,-79.439256
"27344","Siler City","NC","S & J - Plumbing & Electrical","not_available","27344",35.729013,-79.453932
"27344","Siler City","NC","Siler City Hardware Inc.","119 E Raleigh St","27344",35.723379,-79.462913
"27356","Star","NC","Hurley's Ornamental Iron Shop","2179 Love Joy Rd","27371",35.407378,-79.90740799999999
"27357","Stokesdale","NC","Southern Hardware","not_available","27357",36.24179448587782,-79.98403951811744
"27358","Summerfield","NC","Summerfield Field Mill","not_available","27358",36.196500149542956,-79.89878502268213
"27358","Summerfield","NC","Sherwin-Williams Paint Store","4011 Battleground Ave","27410",36.147364,-79.87009599999999
"27358","Summerfield","NC","Southern States","6199 Lake Brandt","not_available",36.199562146825194,-79.84439610646962
"27360","Thomasville","NC","Sherwin-Williams Paint Store","708 Randolph St","27360",35.871968,-80.07592199999999
"27360","Thomasville","NC","Quality Hardware","811 Randolph St","27360",35.87162,-80.074601
"27360","Thomasville","NC","Tractor Supply Co","1122 Randolph St Ste 100","27360",35.858925,-80.07304
"27360","Thomasville","NC","minuteKEY","1585 Liberty Dr Ste 1","27360",35.85569381713867,-80.06595611572266
"27360","Thomasville","NC","Food Lion","2194 Todd randolph hgy 62","27360",35.792875,-80.0141629
"27376","West End","NC","Olmsted Village Hardware","244 Central Park Ave","28374",35.2055197732667,-79.4822171489508
"27376","West End","NC","Hughes","300 McCaskill Rd","28374",35.20015877,-79.46849624
"27401","Greensboro","NC","Carolina Tool Repair","807 Huffman St","27405",36.081340000000004,-79.764257
"27401","Greensboro","NC","Airgas National Welders","not_available","27401",36.078333,-79.751959
"27401","Greensboro","NC","McKnight Hardware","1709 E Bessemer Ave","27405",36.085273,-79.76292
"27401","Greensboro","NC","Sherwin-Williams Commercial Paint Store","1415 E Bessemer Ave","27405",36.085432,-79.76740600000001
"27401","Greensboro","NC","Automotive  Fasteners, Inc.","2111 S Elm Eugene St","27406",36.046655362747025,-79.79075671460892
"27401","Greensboro","NC","Sherwin-Williams Paint Store","500 Summit Ave","27405",36.078693,-79.782824
"27403","Greensboro","NC","Sears","3200 W Friendly Ave","27408",36.08633761325931,-79.8335615270127
"27403","Greensboro","NC","ProBuild","2410 Binford St, Greensboro, NC 27407","27407",36.056971000000004,-79.834211
"27403","Greensboro","NC","Water Improvement Technologies","not_available","27407",36.048619,-79.8419717
"27403","Greensboro","NC","ACR Supply","not_available","27403",36.059692999999996,-79.832566
"27403","Greensboro","NC","Abc Supply Co. Inc.","2900 Patterson St","27407",36.057559999999995,-79.844121
"27405","Greensboro","NC","Lowe's","2005 East Cone Boulevard","27405",36.1148009,-79.7527791
"27405","Greensboro","NC","North Greensboro Ace Hardware","419 Pisgah Church Rd","27455",36.130331,-79.7969304
"27405","Greensboro","NC","Sherwin-Williams Paint Store","108 Pisgah Church Rd","27455",36.133721,-79.791327
"27405","Greensboro","NC","Sherwin-Williams Paint Store","2109 Roseland St","27408",36.101976,-79.786045
"27405","Greensboro","NC","minuteKEY","2005 E Cone Blvd","27405",36.114383697509766,-79.75247955322266
"27405","Greensboro","NC","Bryant's Sentry Hardware","3915 E. Wendover Ave","27405",36.08675311923108,-79.7254481432255
"27406","Greensboro","NC","The Home Depot","2912 S Elm Eugene St","27406",36.033223200294024,-79.79478478431702
"27406","Greensboro","NC","Harbor Freight Tools","3709 Farmington Dr","27407",36.03496214102692,-79.85870466769155
"27406","Greensboro","NC","Lowe's","109 West Elmsley Drive","27406",36.001868,-79.7955604
"27406","Greensboro","NC","Randleman Rd Ace Hardware","3002 Randleman Rd","27406",36.0236999,-79.802199
"27406","Greensboro","NC","Sherwin-Williams Paint Store","4210 W Gate City Blvd","27407",36.036783,-79.863011
"27406","Greensboro","NC","DBJ Corporation","2507 Greengate Dr","27406",36.027039,-79.79948900000001
"27406","Greensboro","NC","Torsion Spring Repair Houston","8340 Long Point Road","77055",36.026056372281715,-79.8036789894104
"27406","Greensboro","NC","Retro Faucet Parts, Inc.","3800 Spring Garden St","27407",36.06141,-79.85773
"27406","Greensboro","NC","DeWALT","3402 W Wendover Ave Ste E","27407",36.061561584472656,-79.8623275756836
"27406","Greensboro","NC","Ferguson HVAC Supply","4007 Spring Garden St","27407",36.064689,-79.86666600000001
"27406","Greensboro","NC","minuteKEY","109 W Elmsley St","27406",36.002253,-79.795509
"27406","Greensboro","NC","Tractor Supply Co.","4104 South Elm Eugene St","27406",35.996305,-79.793229
"27406","Greensboro","NC","Drillers Service, Inc.","211 Atwell Ave","27406",36.03069,-79.78786
"27406","Greensboro","NC","Sherwin-Williams Floorcovering Store","171 Blue Bell Rd","27406",36.027864,-79.78700699999999
"27406","Greensboro","NC","B T South","4416 Groometown Rd","27407",35.994989091687025,-79.8655933544922
"27406","Greensboro","NC","Capital Electric","407 Pomona Dr Ste A","27407",36.065155029296875,-79.86947631835938
"27407","Greensboro","NC","The Home Depot","4425 W Wendover Ave","27407",36.0544319,-79.9003158
"27407","Greensboro","NC","Lowe's","1703 South Forty Drive","27407",36.0530545,-79.8876562
"27407","Greensboro","NC","Ace Hardware","5105 W Market St","27409",36.06840515136719,-79.87860870361328
"27407","Greensboro","NC","Sherwin-Williams Paint Store","5111 W Market St","27409",36.068789,-79.879407
"27407","Greensboro","NC","minuteKEY","4424 W Wendover Ave","27407",36.057914,-79.9008756
"27407","Greensboro","NC","Hajoca","902 Norwalk St","27407",36.055948,-79.872059
"27407","Greensboro","NC","Piedmont Fasteners INC","3705 Boren Dr","27407",36.052954,-79.873648
"27407","Greensboro","NC","Procom Flooring","3720 Alliance Dr, Greensboro, NC 27407","27407",36.054233,-79.875977
"27407","Greensboro","NC","minuteKEY","1703 S 40 Dr","27407",36.053165435791016,-79.88746643066406
"27407","Greensboro","NC","cc dickson","not_available","27409",36.0568104851241,-79.8715934701501
"27407","Greensboro","NC","Ameritek Inc","122 S Walnut Cir","27409",36.067602,-79.881517
"27407","Greensboro","NC","Metal Supermarkets Greensboro","104 Meadowood St","27409",36.074927093545675,-79.89416599273682
"27407","Greensboro","NC","City Electric Supply Greensboro West","123 Longale Rd","27409",36.069590999999996,-79.884446
"27407","Greensboro","NC","Window World of the Triad","4401 W Wendover Ave, #104","27407",36.055493,-79.893215
"27407","Greensboro","NC","PPG Porter Paint","5201 W Market St","27409",36.069122314453125,-79.88053894042969
"27408","Greensboro","NC","Lowe's","3001 Battleground Ave","27408",36.114708,-79.837387
"27408","Greensboro","NC","Fleet-Plummer True Value Hardware","2437 Battleground Ave","27408",36.104174970573276,-79.82617039942747
"27408","Greensboro","NC","Re-bath of the Triad","2701 Branchwood Dr","27408",36.10632919842955,-79.82417106628418
"27408","Greensboro","NC","Guilford Builders Supply","1621 Battleground Ave","27408",36.090026,-79.81204
"27408","Greensboro","NC","Glidden Paint","28 Battleground Ct","27408",36.089517,-79.809096
"27408","Greensboro","NC","All About Awards","2172 Lawndale Dr","27408",36.096326,-79.816263
"27409","Greensboro","NC","True Value Rental","214 Stage Coach Trl","27409",36.0792499447,-79.9128510455
"27409","Greensboro","NC","minuteKEY","5611 W Friendly Ave","27410",36.08877182006836,-79.88610076904297
"27410","Greensboro","NC","The Home Depot","3215 Brassfield Rd","27410",36.1311604,-79.8599613
"27410","Greensboro","NC","minuteKEY","3738 Battleground Ave","27410",36.135475158691406,-79.85564422607422
"27455","Greensboro","NC","Quality Complete Concrete","not_available","27455",36.14014434814453,-79.8207778930664
"27455","Greensboro","NC","Cook's Renovation","718 Pisgah Church Rd","27455",36.12934494018555,-79.80461120605469
"27501","Angier","NC","Ace Hardware","61 N Raleigh St","27501",35.508099,-78.741214
"27501","Angier","NC","W & W Plumbing","not_available","27501",35.51098681238405,-78.75185772427457
"27501","Angier","NC","Ace Hardware","N Carolina 50, NC","27504",35.54202837693716,-78.59829948796728
"27502","Apex","NC","Lowe's","1101 Beaver Creek Commons Drive","27502",35.7444492,-78.8757051
"27502","Apex","NC","The Home Depot","1000 Vision Dr","27523",35.7491177,-78.8808722
"27502","Apex","NC","Sherwin-Williams Paint Store","1806 Laura Duncan Rd","27523",35.748107,-78.834088
"27502","Apex","NC","Ewing Irrigation","1700 N Salem St Ste A","27523",35.74971986692412,-78.84694844484329
"27502","Apex","NC","City Electric Supply Apex","1229 Perry Rd Ste 104","27502",35.7118846,-78.8518541
"27502","Apex","NC","Grand Openings Garage Door, LLC","201 Quisisana Rd","27502",35.72680734,-78.91131341
"27502","Apex","NC","Hastings Farm Supply","3423 Apex Peakway","27502",35.713260650634766,-78.85011291503906
"27502","Apex","NC","John Deere Landscapes","not_available","27502",35.73839743449359,-78.96335613892938
"27502","Apex","NC","j&w tool","822 E Williams St","27502",35.722289,-78.846333
"27502","Apex","NC","minuteKEY","1101 Beaver Creek Commons Dr","27502",35.74471664428711,-78.8754653930664
"27502","Apex","NC","Apex Locksmith Pro","1201 Beaver Creek Commons Dr","27502",35.74462890625,-78.87776947021484
"27502","Apex","NC","ACE Hardware","600 E Williams St","27502",35.723675,-78.847829
"27504","Benson","NC","Medlin And Dorman Ace Hardware","216-218 E Main St","27504",35.380119,-78.546267
"27504","Benson","NC","Sherwin-Williams Paint Store","1004 W Cumberland St","28334",35.312923,-78.619236
"27504","Benson","NC","American Dicount","not_available","27524",35.445450435250024,-78.42861093451943
"27504","Benson","NC","Husqvarna US","356 Pope Rd","28334",35.2845344543457,-78.60145568847656
"27504","Benson","NC","Warren Industrial & Agri Supply","2535 US 301 North","28335",35.333229064941406,-78.5931167602539
"27504","Benson","NC","Sears","1002 West Cumberland Street","28334",35.312967,-78.619294
"27504","Benson","NC","Grand True Value Rental Of Dunn","306 S Powell Ave","28334",35.3171851778,-78.6304657648
"27504","Benson","NC","Carr Hardware","311 E Edgerton St","28334",35.307868,-78.606599
"27508","Bunn","NC","Do It Center","450 Main St","27508",35.957009,-78.250244
"27510","Carrboro","NC","Southern States","300 N Greensboro St","27510",35.9130150789453,-79.07175971334573
"27510","Carrboro","NC","Fitch Lumber & Hardware","309 N Greensboro St","27510",35.91218285156519,-79.07235631959905
"27510","Carrboro","NC","Ferguson Plumbing Supply","104 N Carolina 54","27510",35.9174211,-79.0962063
"27510","Carrboro","NC","Sherwin-Williams Paint Store","104 Nc 54","27510",35.916685,-79.096058
"27510","Carrboro","NC","Duron","not_available","27510",35.916581,-79.095381
"27511","Cary","NC","Lowe's","2000 Walnut Street","27518",35.7571402,-78.7428688
"27511","Cary","NC","Garden Supply Company","1421 Old Apex Rd","27513",35.76613042510418,-78.81055289487004
"27511","Cary","NC","Harbor Freight Tools","1731 Walnut St","27511",35.764511999999996,-78.745693
"27511","Cary","NC","Town & Country Hardware","1261 Kildaire Farm Rd","27511",35.7626458549839,-78.7821865081787
"27511","Cary","NC","Sherwin-Williams Paint Store","6601 Hillsborough St","27606",35.78823995857589,-78.74227107537618
"27511","Cary","NC","minuteKEY","2000 Walnut St","27518",35.75738525390625,-78.74308776855469
"27511","Cary","NC","Cary Locksmith Pro","1393 Kildaire Farm Rd","27511",35.758934020996094,-78.78296661376953
"27511","Cary","NC","Sherwin-Williams Paint Store","992 Kildaire Farm Rd","27511",35.77176036870787,-78.78340959548949
"27511","Cary","NC","Around To It Home Improvement and Restorations","115 Buena Vista Dr","27513",35.7655283,-78.8193276
"27511","Cary","NC","Networking Hardware Inc","1640 Old Apex Rd","27513",35.762149810791016,-78.8242416381836
"27511","Cary","NC","Grand Rental Station","115 Woodwinds Industrial Ct","27511",35.762851,-78.816974
"27511","Cary","NC","Habitat For Humanity Restore","Chatham","27511",35.78174982413427,-78.79842002923547
"27511","Cary","NC","Northern Tool & Equipment","1297 Buck Jones Rd","27606",35.7651672390985,-78.74052216152539
"27511","Cary","NC","Metro Rooter Plumbing - Cary","279 E Johnson St","27513",35.792727618484435,-78.77596378326416
"27511","Cary","NC","minuteKEY","2010 Kildaire Farm Rd","27518",35.73717498779297,-78.78211212158203
"27511","Cary","NC","Decks By All Means","1208 Kingston Ridge Rd","27511",35.76218,-78.751367
"27511","Cary","NC","Shepherd Electric Supply","not_available","27513",35.792545000000004,-78.77113100000001
"27513","Cary","NC","Lowe's","1920 NW Maynard Road","27513",35.7981722,-78.7933368
"27513","Cary","NC","Bushranger Fence Company","10305 Chapel Hill Rd","27560",35.831668,-78.828797
"27513","Cary","NC","City Electric Supply Cary","229 James Jackson Ave","27513",35.7951445,-78.8056962
"27513","Cary","NC","M A Trades Benjamin Moore","9942 Chapel Hill Road, 9942 chapelhill road morissville,NC 27560","27513",35.817848205566406,-78.82234191894531
"27513","Cary","NC","Colonial Materials Inc","150 Triangle Trade Drive","27513",35.798339,-78.803802
"27513","Cary","NC","Wolseley Industrial Group","109 International Dr","27560",35.832169,-78.818748
"27513","Cary","NC","Sherwin-Williams Paint Store","5003 Winston Hill Dr","27513",35.790265999999995,-78.846639
"27513","Cary","NC","Dream Home Design of Cary","286 Grande Heights Dr","27513",35.804758,-78.780473
"27513","Cary","NC","Womack Electrical Supply","186 Towerview Ct","27513",35.801396,-78.810369
"27513","Cary","NC","Fred Adams paving co","not_available","27560",35.83398,-78.819459
"27513","Cary","NC","minuteKEY","1920 NW Maynard Rd","27513",35.79812240600586,-78.79331970214844
"27513","Cary","NC","Morrisville Locksmith Pro","9825 Chapel Hill Rd","27560",35.810523986816406,-78.81704711914062
"27513","Cary","NC","Ferguson Waterworks","209 International Dr","27560",35.83406199013645,-78.8249723458058
"27514","Chapel Hill","NC","Lowe's","1801 Fordham Blvd","27514",35.9469645,-79.0127759
"27514","Chapel Hill","NC","Chapel Hill Locksmith Pro","400 S Elliott Rd","27514",35.93148422241211,-79.0264892578125
"27514","Chapel Hill","NC","Sherwin-Williams Paint Store","1201 Raleigh Rd","27517",35.90887451171875,-79.02503967285156
"27514","Chapel Hill","NC","Sherwin-Williams Paint Store","1507 E Franklin St","27514",35.931109,-79.03412900000001
"27514","Chapel Hill","NC","Brown's Paint And Hardware","420 W Franklin St","27516",35.911456,-79.060955
"27514","Chapel Hill","NC","C.c. Diction Supply","not_available","27516",35.91437496755305,-79.05513885871837
"27516","Chapel Hill","NC","Strata Solar","1119 15-501","27517",35.879395655053806,-79.0629139157823
"27517","Chapel Hill","NC","Sherwin-Williams Paint Store","3616 Witherspoon Blvd","27707",35.949226,-78.990225
"27518","Cary","NC","The Home Depot","2031 Walnut Street","27518",35.7563754,-78.7388869
"27518","Cary","NC","Westlake Ace Hardware 138","2976 Kildaire Farm Rd","27518",35.71782684326172,-78.78887939453125
"27518","Cary","NC","Hemlock Plaza Ace Hardware","not_available","27518",35.71804,-78.78863
"27518","Cary","NC","Department 38","2031 Walnut St","27518",35.75639343261719,-78.73906707763672
"27519","Cary","NC","American Soil & Mulch","3761 North Carolina 55","27519",35.8142048,-78.8734395
"27519","Cary","NC","minuteKEY","1001 Shiloh Glenn Dr","27560",35.8667284,-78.8465638
"27519","Cary","NC","Sherwin-Williams Paint Store","1771 W Williams St","27523",35.75914602208147,-78.87754440307617
"27520","Clayton","NC","Lowe's","101 Cleveland Crossing Drive","27529",35.6081754,-78.5584501
"27520","Clayton","NC","Sherwin-Williams Paint Store","11659 US 70 Business Hwy W","27520",35.65420913696289,-78.47494506835938
"27520","Clayton","NC","Hudson's Hardware","77 Amelia Church Rd","27520",35.649471892414766,-78.47089654833484
"27520","Clayton","NC","minuteKEY","101 Cleveland Crossing Dr","27529",35.608394622802734,-78.55894470214844
"27520","Clayton","NC","Oak City Glass","3945 Powhatan Road","27520",35.61388135,-78.41431867
"27520","Clayton","NC","minuteKEY","805 Town Centre Blvd","27520",35.662174224853516,-78.49730682373047
"27520","Clayton","NC","Clayton Locksmith Pro","840 Gulley Dr","27520",35.66695022583008,-78.49681854248047
"27520","Clayton","NC","home supply co","not_available","27577",35.52123379796368,-78.35875850605964
"27520","Clayton","NC","Sears","8878 US 70 Highway West Suite 300, Suite 300","27520",35.62742,-78.42804
"27520","Clayton","NC","Western Cedar Supply","198 Cleveland Crossing Dr","27529",35.604766845703125,-78.55835723876953
"27520","Clayton","NC","Griff's small engine repair","380 Watkins Rd","27520",35.56101269002132,-78.51707453319251
"27520","Clayton","NC","minuteKEY","5141 NC Highway 42 W","27529",35.6081353,-78.554938
"27520","Clayton","NC","Guy C. Lee Building Supply","151 NC Highway 42 E","27527",35.63783264160156,-78.44226837158203
"27520","Clayton","NC","Blackmon Contracting Company","not_available","27520",35.582475,-78.356177
"27520","Clayton","NC","Ace hardware","10278 US 70 Business Hwy W","27520",35.641883850097656,-78.45010375976562
"27520","Clayton","NC","Clayton Paint Company","367 W Main Street","27527",35.65508,-78.46258399999999
"27521","Coats","NC","Popes True Value Hardware","419 N McKinley St","27521",35.413703000000005,-78.673778
"27522","Creedmoor","NC","Town & Country","2535 E Lyon Station Rd","27522",36.14387512207031,-78.72332763671875
"27522","Creedmoor","NC","Tom's Hardware","253t E Lyon Station Rd","27522",36.1436842631488,-78.72292336824685
"27523","Apex","NC","Stock Building Supply","1701 N Salem St","27523",35.751235,-78.846693
"27524","Four Oaks","NC","Lowe's","1230 N Brightleaf Blvd","27577",35.5179175,-78.3143051
"27524","Four Oaks","NC","City Electric Supply Selma","1207 S Pollock St","27576",35.52619120043378,-78.29552657437944
"27524","Four Oaks","NC","Tractor Supply Co.","1401 South Pollock","27576",35.52361468,-78.29915625
"27524","Four Oaks","NC","Husqvarna US","PO Box 1152","27577",35.511817932128906,-78.3472900390625
"27524","Four Oaks","NC","minuteKEY","1299 N Brightleaf Blvd","27577",35.52250671386719,-78.30961608886719
"27524","Four Oaks","NC","Sherwin-Williams Paint Store","932 N Brightleaf Blvd","27577",35.516126016219054,-78.32281408032425
"27524","Four Oaks","NC","BBQ & Outdoor World","Unit 1, 745 The Horsley Drive","2164",35.50856171194364,-78.33927869796753
"27524","Four Oaks","NC","Sherwin-Williams Paint Store","510 S 7th St","27577",35.503788,-78.34436
"27525","Franklinton","NC","Mitchell Hardware","US HWY 1","27525",36.1038500019551,-78.46402999627212
"27525","Franklinton","NC","Ferguson Plumbing Supply","302 Wolfpack Lane","27596",36.040579,-78.490873
"27525","Franklinton","NC","Toney Ace Hardware","1120 US Hwy 1 N","27596",36.038886,-78.49698199999999
"27525","Franklinton","NC","Southeastern Emergency Equipment","5762 NC 96 West","27596",36.046305,-78.503857
"27525","Franklinton","NC","City Electric Supply Youngsville","225 Weathers Ct Ste 113","27596",36.0355702,-78.5009285
"27525","Franklinton","NC","Water Systems Sales And Service Inc.","360 Park Avenue","27596",36.037552,-78.48497600000002
"27526","Fuquay Varina","NC","The Home Depot","901 E Broad St","27526",35.5935871,-78.7839238
"27526","Fuquay Varina","NC","Tractor Supply Co.","1348 North Main St","27526",35.59057812,-78.77542677
"27526","Fuquay Varina","NC","Fuquay Plumbing","5608 Soft Wind Dr","27526",35.62021255493164,-78.70796203613281
"27526","Fuquay Varina","NC","Quality Decorators Inc.","4409 Seth Dr","27540",35.632371,-78.79266600000001
"27526","Fuquay Varina","NC","Sherwin-Williams Paint Store","301 Village Walk Dr","27540",35.64095341251179,-78.83881631660462
"27526","Fuquay Varina","NC","Aloi Materials Handling – Holly Springs","104 Saranac Ridge Dr","27540",35.651616,-78.844963
"27526","Fuquay Varina","NC","Clay's Power Equipment","1206 Broad St","27526",35.6007,-78.80027
"27526","Fuquay Varina","NC","Sherwin-Williams Paint Store","7439 Sunset Lake Rd","27526",35.593288,-78.774465
"27526","Fuquay Varina","NC","Soil toppers","1508 N Main St","27526",35.594460999999995,-78.765614
"27526","Fuquay Varina","NC","City Electric Supply Fuquay Varina","810 S Main St","27526",35.57396485271218,-78.80114972591406
"27526","Fuquay Varina","NC","Ace Hardware","405 Broad St","27526",35.59406386038858,-78.79510483704834
"27529","Garner","NC","Lowe's","1575 U S Highway 70 West","27529",35.7233964,-78.6499358
"27529","Garner","NC","Agri Supply","409 US Hwy. 70 East","27529",35.701421046576,-78.59476499300473
"27529","Garner","NC","The Home Depot","2540 Timber Dr","27529",35.7129686,-78.6379894
"27529","Garner","NC","Hudson's Hardware","305 Benson Rd","27529",35.707031,-78.61279300000001
"27529","Garner","NC","Ace Hardware","7277 NC Highway 42","27603",35.5927409,-78.599492
"27529","Garner","NC","H&E Equipment Services","3821 Generosity Ct","27529",35.7240918,-78.57929469999999
"27529","Garner","NC","minuteKEY","1575 US Hwy 70 West","27529",35.7245472,-78.6481736
"27529","Garner","NC","Sherwin-Williams Paint Store","55 Oxholm Cir","27529",35.60984420776367,-78.56398010253906
"27529","Garner","NC","Cashwells Appliance Parts","not_available","27603",35.73298,-78.64667299999999
"27529","Garner","NC","Ferguson Fire & Fabrication","1045 N Greenfield Parkway","27529",35.696876525878906,-78.57061004638672
"27529","Garner","NC","City Electric Supply Co.","214-A","27529",35.70323196312133,-78.59777287586934
"27529","Garner","NC","Sherwin-Williams Commercial Paint Store","121 Tryon Rd","27603",35.73061925670671,-78.64274382591248
"27529","Garner","NC","Sherwin-Williams Paint Store","1405 US 70 Hwy W","27529",35.72149658,-78.64432526
"27529","Garner","NC","Independent Equipment & Machine","not_available","27529",35.639324,-78.614986
"27529","Garner","NC","Garner Locksmith Pro","2662 Timber Dr","27529",35.714881896972656,-78.63768005371094
"27529","Garner","NC","Post And Pickets","215 Tryon Rd","27603",35.731065,-78.64623900000001
"27529","Garner","NC","City Electric Supply Garner","214A Garner Business Ct Ste A","27529",35.703369529255525,-78.59767600893974
"27529","Garner","NC","Benjamin Moore - Tryon Hills Paint","334 Sherwee Dr","27603",35.734023,-78.648662
"27529","Garner","NC","Ewing Irrigation","3609 Jones Sausage Rd","27529",35.730108,-78.576324
"27530","Goldsboro","NC","Harbor Freight","105 N Berkeley Blvd","27534",35.371829986572266,-77.9528579711914
"27530","Goldsboro","NC","Tractor Supply Co.","1308 West Grantham St","27530",35.399723,-78.017787
"27530","Goldsboro","NC","Sherwin-Williams Paint Store","2537 E Ash St","27534",35.373983,-77.953544
"27530","Goldsboro","NC","Evergreen Irrigation","1815 Oberry Center Rd","27530",35.40595,-78.0384
"27530","Goldsboro","NC","City Electric Supply Goldsboro","501 Patetown Rd Ste 11","27530",35.414136,-77.9777426
"27530","Goldsboro","NC","Fastenal","406 Vann St","27530",35.36336898803711,-78.01220703125
"27530","Goldsboro","NC","Bdc Goldsboro","1301 Collier St","27530",35.40275,-78.014481
"27530","Goldsboro","NC","minuteKEY","1002 N. Spencer Ave.","27534",35.3867015,-77.947067
"27530","Goldsboro","NC","HOLT TRUE VALUE HARDWARE","102 S Center St","27569",35.46544647216797,-78.15946960449219
"27530","Goldsboro","NC","Grantham True Value Hardware","3396 Us Hwy 13 S","27530",35.29720221,-78.16431193
"27530","Goldsboro","NC","Fasteners Supply Of Goldsboro","Hwy 117","27530",35.36270005378932,-78.01054436099265
"27534","Goldsboro","NC","Lowe's","1202N N Berkeley Blvd","27534",35.3799353,-77.9301541
"27534","Goldsboro","NC","Stylecrest","4172 U.S. 70","27534",35.35047752,-77.92130470275879
"27534","Goldsboro","NC","East Coast Mobile Home Supply","not_available","27534",35.349291,-77.921467
"27534","Goldsboro","NC","minuteKEY","1140 Tommys Rd.","27534",35.4150276184082,-77.93834686279297
"27534","Goldsboro","NC","minuteKEY","1202 N Berkeley Blvd","27534",35.379763,-77.92965799999999
"27534","Goldsboro","NC","City Electric Supply","1000 N Berkeley Blvd","27534",35.378353000000004,-77.935311
"27536","Henderson","NC","Lowe's","166 Dabney Road","27537",36.3387571,-78.4390735
"27536","Henderson","NC","Tractor Supply Co.","1733 Dabney Dr","27536",36.334524,-78.439297
"27536","Henderson","NC","Rose Gin","615 U.S.158 Bypass","27536",36.33605187153123,-78.45057964324951
"27536","Henderson","NC","builders discount","not_available","27536",36.349051,-78.37468299999999
"27536","Henderson","NC","minuteKEY","166 Dabney Rd","27537",36.33861541748047,-78.43914031982422
"27536","Henderson","NC","Sherwin-Williams Paint Store","887 S Beckford Dr","27536",36.33381338677221,-78.43064546585083
"27536","Henderson","NC","Sears","1535 Dabney Drive","27536",36.332026,-78.4357707
"27536","Henderson","NC","Hometown Hardware","945 W Andrews Ave","27536",36.33837127685547,-78.41129302978516
"27539","Apex","NC","Holly Springs Ace Hardware","509 N Main St","27540",35.659571,-78.837132
"27539","Apex","NC","Abc Supply Co. Inc.","1140","27610",35.66503119133564,-78.8392071950286
"27539","Apex","NC","Palooza Paint","2700 Ten Oaks Ln","27606",35.687416999999996,-78.73598299999999
"27541","Hurdle Mills","NC","Lowe's","2044 Durham Road","27573",36.366567,-78.985178
"27545","Knightdale","NC","The Home Depot","1020 Shoppes At Midwy Dr","27545",35.79945876914087,-78.50458860397339
"27545","Knightdale","NC","Lowe's","7316 Knightdale Boulevard","27545",35.7963685,-78.4841191
"27545","Knightdale","NC","Knightdale Tractor & Equipment","not_available","27545",35.787419,-78.484936
"27545","Knightdale","NC","Vallen","530 Hinton Oaks Blvd","27545",35.80646514892578,-78.51335144042969
"27545","Knightdale","NC","minuteKEY","7316 Knightdale Blvd","27545",35.796387,-78.484164
"27545","Knightdale","NC","City Electric Supply Knightdale","861 Old Knight Rd Ste 121","27545",35.8006866,-78.4747802
"27545","Knightdale","NC","Tractor Supply Co.","1201 Mammoth Dr","27545",35.799698,-78.496734
"27545","Knightdale","NC","Sears","2001 Widewaters Parkway, Suite A","27545",35.794854,-78.50534
"27545","Knightdale","NC","Sherwin-Williams Paint Store","7513 Knightdale Blvd","27545",35.799631,-78.47699200000001
"27545","Knightdale","NC","minuteKEY","7106 Knightdale Blvd","27545",35.7965159,-78.491106
"27546","Lillington","NC","Husqvarna US","PO Box 580","27546",35.387577056884766,-78.84693908691406
"27546","Lillington","NC","J.E. Womble & Sons, Inc.","805 W Front St","27546",35.400962,-78.828114
"27549","Louisburg","NC","Toney Ace Hardware","402 S Bickett Blvd","27549",36.087292,-78.305533
"27549","Louisburg","NC","Sears","326 South Bickett Boulevard","27549",36.090012,-78.301396
"27549","Louisburg","NC","Tractor Supply Co.","271 South Bickett Blvd","27549",36.09041,-78.297887
"27549","Louisburg","NC","Manning's General Merchandise & Wicked Tints","2739 S Old Franklin Rd","27856",35.9327201,-78.0392028
"27560","Morrisville","NC","Sherwin-Williams Paint Store","5112 Apex Hwy","27713",35.894659999999995,-78.897616
"27560","Morrisville","NC","B.A. Hoft","7412 Acc Blvd","27617",35.91108,-78.76609599999999
"27560","Morrisville","NC","Payne's Tool & Supply Inc","5010 NC Highway 55","27713",35.89676,-78.897041
"27560","Morrisville","NC","J + W Tools, Inc.","312 Carpenter Fletcher Rd","27713",35.91601356666666,-78.88994276666666
"27560","Morrisville","NC","Capital Electric","4001 Stirrup Creek Dr","27703",35.919559478759766,-78.84685516357422
"27560","Morrisville","NC","minuteKEY","10050 Glenwood Ave","27617",35.91234,-78.778015
"27560","Morrisville","NC","Triangle Caseworks","not_available","27617",35.904268,-78.762327
"27560","Morrisville","NC","Sherwin-Williams Floorcovering Store","4324 S Alston Ave","27713",35.911646069992585,-78.88956069946289
"27563","Norlina","NC","L R West True Value","633 W Ridgeway St","27589",36.4070860786501,-78.1647156865151
"27565","Oxford","NC","Oxford Ace Hardware","119 Hillsboro St","27565",36.311296,-78.589128
"27565","Oxford","NC","Steves Lawn & Garden Inc","625 Hillsboro St","27565",36.30563,-78.59962
"27565","Oxford","NC","F&S Building Supply","6139 US Highway 15","27565",36.350626,-78.590761
"27565","Oxford","NC","Husqvarna US","603 Roxboro Rd","27565",36.32373809814453,-78.6048583984375
"27571","Rolesville","NC","Ace Hardware","411H S Main St","27571",35.916829,-78.465259
"27572","Rougemont","NC","T G Brooks Co","411 Helena Moriah Rd","27583",36.286370931971305,-78.95168307049771
"27572","Rougemont","NC","Talbert Building Supply","1101 Old Durham Rd","27573",36.364058,-78.977692
"27573","Roxboro","NC","Tractor Supply Co.","754 North Madison Blvd","27573",36.405424,-78.97692
"27573","Roxboro","NC","Sherwin-Williams Paint Store","207 W Morehead St","27573",36.39738204701894,-78.9842426776886
"27573","Roxboro","NC","Absolute Security & Lock","not_available","27573",36.402343,-78.978453
"27573","Roxboro","NC","Bullock Lumber Company","730 North Main Street","27573",36.402803000000006,-78.97636999999999
"27573","Roxboro","NC","Harbor Freight Tools","818 N Madison Blvd","27573",36.406048,-78.97598
"27576","Selma","NC","Carolina Curb Appeal","6347 Nc Highway 39","27576",35.65690421666667,-78.25835088333334
"27587","Wake Forest","NC","The Home Depot","9517 Strickland Rd","27615",35.8996558,-78.6545048
"27587","Wake Forest","NC","Lowe's","11800 Galaxy Drive","27587",35.9683583,-78.5390228
"27587","Wake Forest","NC","The Home Depot","11915 Retail Drive","27587",35.9714107,-78.542637
"27587","Wake Forest","NC","Westlake Ace Hardware 112","10930 Raven Ridge Rd","27614",35.907099,-78.590295
"27587","Wake Forest","NC","Tractor Supply Co.","55 Gatekeeper Dr","27596",36.03272143117366,-78.5028665901376
"27587","Wake Forest","NC","Homewood Nursery & Garden Center","10809 Honeycutt Rd","27614",35.927308562873975,-78.62172058023836
"27587","Wake Forest","NC","Sherwin-Williams Paint Store","7201 Sandy Forks Rd","27615",35.87247700328894,-78.62324876594951
"27587","Wake Forest","NC","Sherwin-Williams Paint Store","11904 Galaxy Dr","27587",35.971438,-78.539816
"27587","Wake Forest","NC","Sherwin-Williams Paint Store","8327 Creedmoor Rd","27613",35.900244591766985,-78.68245124816893
"27587","Wake Forest","NC","Zydico PC","9509 Creedmoor Rd","27615",35.925573,-78.68435799999999
"27587","Wake Forest","NC","J Harlan Co","2811 Van Huron Dr","27615",35.879723,-78.591354
"27587","Wake Forest","NC","H&E Equipment Services","2701 Connector Dr","27587",35.9296947,-78.5385336
"27587","Wake Forest","NC","The Water Heater Experts","7413 Six Forks Rd #101","27615",35.88069534301758,-78.64726257324219
"27587","Wake Forest","NC","Wake Outdoor Equipment","7105 Cheviot Hills Dr","27616",35.882767,-78.572231
"27587","Wake Forest","NC","POWERHOME SOLAR","9208 Falls of Neuse Rd Ste 120","27615",35.9007508,-78.60542509999999
"27587","Wake Forest","NC","True Value Rental","13948 Capital Blvd","27587",36.01168,-78.51807
"27587","Wake Forest","NC","minuteKEY","2114 S Main St","27587",35.95207,-78.53504
"27587","Wake Forest","NC","City Electric Supply Raleigh North","4500 Preslyn Dr Unit B","27616",35.89355834821382,-78.57054151132388
"27587","Wake Forest","NC","Ferguson HVAC Supply","1418 Wall Rd","27587",36.012977,-78.51496
"27587","Wake Forest","NC","Town&Country Hardware","8111-143 Creedmoor Rd","27613",35.899145978952404,-78.68251350845173
"27587","Wake Forest","NC","minuteKEY","11800 Galaxy Dr","27587",35.96807098388672,-78.53900146484375
"27587","Wake Forest","NC","Colonial Materials Inc","10601 Ponderosa Service Rd","27587",35.934667,-78.544393
"27587","Wake Forest","NC","Spectrum Paint","8800 Harvest Oaks Dr","27615",35.902717,-78.657812
"27591","Wendell","NC","Debnam Hardware","117 N Arendell Ave","27597",35.821821,-78.313286
"27591","Wendell","NC","minuteKEY","841 E Gannon Ave","27597",35.8314323425293,-78.29642486572266
"27591","Wendell","NC","Bridgers Farm Supply","15 N. Cypress St","not_available",35.781826,-78.371649
"27591","Wendell","NC","Zebulon Locksmith Pro","164 Wakelon St","27597",35.83248519897461,-78.31696319580078
"27596","Youngsville","NC","Benjamin Moore Paints","not_available","27587",35.963109,-78.517731
"27596","Youngsville","NC","B&W Hardware Co.","232 S White St","27587",35.977658,-78.51009
"27596","Youngsville","NC","A Fresh Potti By Foster","119 Brooks St","27587",35.97774167,-78.50847117
"27596","Youngsville","NC","Frazier","2737 Wait Ave","27587",35.963264,-78.435794
"27596","Youngsville","NC","Duvall & Co.","417-B Brooks Street","27587",35.97423037,-78.50847301
"27596","Youngsville","NC","Sherwin-Williams Paint Store","109 Capcom Ave","27587",35.95067412888599,-78.52833688259125
"27601","Raleigh","NC","Handy Man Hardware","1103 New Bern Ave, #102","27601",35.780186,-78.623788
"27601","Raleigh","NC","Wilson's Outdoor","500 W Morgan St","27603",35.780086,-78.646292
"27601","Raleigh","NC","Lisle Architecture & Design","5 W Hargett St","27601",35.777631,-78.639756
"27603","Raleigh","NC","Seaboard Ace Hardware","802 Semart Dr Suite 112","27604",35.790212536745734,-78.64000797271729
"27603","Raleigh","NC","Seaboard Ace Hardware","not_available","27604",35.790485,-78.63956
"27603","Raleigh","NC","Burke Brothers Hardware","5227 Hillsborough St","27606",35.79096728179618,-78.7147960111907
"27603","Raleigh","NC","Sherwin-Williams Paint Store","713 W Peace St","27605",35.788315000000004,-78.649837
"27603","Raleigh","NC","Ferguson Xpress","5563 Western Blvd Ste 12","27606",35.78412628173828,-78.72051239013672
"27603","Raleigh","NC","Raleigh Glass","6305 Lake Wheeler Rd","27603",35.696139,-78.692263
"27603","Raleigh","NC","Atlas Copco Rental","5205 Beryl Rd","27606",35.7901257,-78.7126114
"27603","Raleigh","NC","Southern Yankee Home Services LLC","5700 Manor Plantation Dr","27603",35.622133000000005,-78.67577299999999
"27603","Raleigh","NC","Ppg Paints","1458 Garner Station Blvd","27603",35.724971771240234,-78.65363311767578
"27603","Raleigh","NC","Right Of Way Equipment","5500 Hillsborough St","27606",35.787672,-78.71879
"27603","Raleigh","NC","Ferguson","5563 Western Blvd","27606",35.78412628173828,-78.72051239013672
"27604","Raleigh","NC","Lowe's","4601 Capital Blvd","27604",35.8460394,-78.5824003
"27604","Raleigh","NC","Habitat for Humanity Re-Store","2420 N Raleigh Blvd","27604",35.81073184952867,-78.59858068253031
"27604","Raleigh","NC","Wilkinson Supply","3300 Bush St","27609",35.826401000000004,-78.61238900000001
"27604","Raleigh","NC","Harbor Freight Tools","3302 Capital Blvd","27604",35.82398703391565,-78.58585810802819
"27604","Raleigh","NC","Clay's Power Equipment","2031 New Hope Church Rd","27604",35.83502,-78.603606
"27604","Raleigh","NC","Builder Products","4001 Atlantic Ave","27604",35.837712740127806,-78.60193026480582
"27604","Raleigh","NC","J & S Tools","1309 Hodges St","27604",35.813653,-78.615206
"27604","Raleigh","NC","Sears Parts And Repair","4500 Falls of Neuse Rd","27609",35.843406677246094,-78.61119079589844
"27604","Raleigh","NC","Grainger","4820 Signett Dr","27616",35.85150909423828,-78.58338928222656
"27604","Raleigh","NC","Usa Flooring","4011 Capital Blvd #141","27604",35.83639907836914,-78.58364868164062
"27604","Raleigh","NC","Stone Systems","not_available","27610",35.801137,-78.580109
"27604","Raleigh","NC","Dewalt/Black & Decker","2930 Capital Blvd","27604",35.819137,-78.594061
"27604","Raleigh","NC","Store 02","not_available","27608",35.813366,-78.640857
"27604","Raleigh","NC","Sherwin-Williams Paint Store","2414 Wake Forest Rd","27608",35.814589,-78.626049
"27604","Raleigh","NC","Vallen","2820 Yonkers Rd","27604",35.802359,-78.595114
"27604","Raleigh","NC","D & L Appliance Parts","2324 Atlantic Ave","27604",35.811436,-78.61841
"27604","Raleigh","NC","Sherwin-Williams Paint Store","3910 Capital Blvd","27604",35.83364525052814,-78.582683801651
"27604","Raleigh","NC","Lennox Parts Plus","4011 Atlantic Ave","27604",35.83797836303711,-78.60215759277344
"27604","Raleigh","NC","Carolina Flooring","5111-100A Falls of the Neuse Rd","not_available",35.85154689428726,-78.61502214566008
"27605","Raleigh","NC","American Security & Lock Inc","608 W Johnson St","27603",35.787324,-78.647341
"27606","Raleigh","NC","Mecha Inc","6204 Daimler Way, Raleigh, NC 27607","27607",35.788207,-78.73139300000001
"27606","Raleigh","NC","Hilti","628 Hutton St","27606",35.790556,-78.70303
"27606","Raleigh","NC","Whitherspoon Woodworks LLC","not_available","27607",35.792305999999996,-78.689313
"27606","Raleigh","NC","Smith Hardware & Garden","not_available","27606",35.791498,-78.715133
"27607","Raleigh","NC","Sherwin-Williams Paint Store","6429 Glenwood Ave","27612",35.858484000000004,-78.70743900000001
"27607","Raleigh","NC","Precision Outdoor Power Equipment","5227A Hillsborough St","27606",35.790888,-78.714619
"27608","Raleigh","NC","BIRD","1505 Capital blvd","not_available",35.80302810668945,-78.62932586669922
"27608","Raleigh","NC","Plumb-rite Plumbing Specialties","1600 Automotive Way","27604",35.79990757593849,-78.62463766081234
"27608","Raleigh","NC","Benjamin Moore Wake Paint & Decorating","3024 Wake Forest Rd Suite 100","27609",35.82331848144531,-78.62042236328125
"27608","Raleigh","NC","Raleigh Door Center","not_available","27609",35.81630570960745,-78.6213235987769
"27609","Raleigh","NC","Ace Hardware","6196 Falls Of Neuse Rd Ste 100","27609",35.8669905,-78.6191475
"27609","Raleigh","NC","Briggs Hardware","2533 Atlantic Ave","27604",35.816759999999995,-78.617264
"27609","Raleigh","NC","minuteKEY","1725 New Hope Church Rd","27609",35.8372204,-78.6082869
"27609","Raleigh","NC","McCarthy Builder Supply","4200 Atlantic Ave Ste 153","27604",35.8399,-78.59933
"27609","Raleigh","NC","Murray Supply","2501 Atlantic Ave","27604",35.81454,-78.618402
"27609","Raleigh","NC","City Electric Supply Raleigh","4209 Atlantic Ave","27604",35.840494695926665,-78.601955473423
"27609","Raleigh","NC","Westlake Ace Hardware 111","6196 Falls of Neuse Rd #100","27609",35.867162,-78.619321
"27609","Raleigh","NC","Porter Paints","Spring Forest Square","27616",35.85779,-78.59657
"27610","Raleigh","NC","nb handy","5120 Trademark Dr, Raleigh, NC 27610","27610",35.767256,-78.549873
"27610","Raleigh","NC","White Cap Construction Supply","1211 Intrepid Ct","27610",35.765571,-78.554601
"27610","Raleigh","NC","Dillon Supply Co","440 Civic Blvd","27610",35.7779426574707,-78.56749725341797
"27612","Raleigh","NC","Lowe's","4831 Grove Barton Rd","27613",35.8687983,-78.718777
"27612","Raleigh","NC","Batts Distributing - Tile","6616 Fleetwood Dr","27612",35.869517,-78.72605899999999
"27612","Raleigh","NC","CRS Marble & Granite","not_available","27612",35.87224753976143,-78.72729146367253
"27613","Raleigh","NC","Landa Services Inc","5812-5816 Triangle Dr","27617",35.89692296,-78.74674775
"27613","Raleigh","NC","Raleigh Locksmith Pro","9010 Glenwood Ave","27617",35.893814,-78.753677
"27613","Raleigh","NC","John Deere Landscapes","8925 Midway West Rd","27617",35.909224,-78.757979
"27615","Raleigh","NC","Sears","7330 Old Wake Forest Rd","27616",35.86702074,-78.57723028
"27615","Raleigh","NC","84 Lumber","6301 Old Wake Forest","27604",35.865525,-78.59444599999999
"27615","Raleigh","NC","Quality Construction Products","not_available","27616",35.869189251088066,-78.5850723753083
"27615","Raleigh","NC","Ferguson express","220 Newton Rd","27615",35.877739,-78.643407
"27615","Raleigh","NC","Ashcroft Saw & Tools","3216 Wellington Ct Ste 107","27615",35.886744,-78.580059
"27615","Raleigh","NC","Raleigh Saw","5805 Departure Dr","27616",35.862951,-78.591396
"27616","Raleigh","NC","The Home Depot","4901 Capital Blvd","27616",35.8529315,-78.5838827
"27616","Raleigh","NC","Sherwin-Williams Commercial Paint Store","5301 Capital Blvd","27616",35.858228000000004,-78.582376
"27616","Raleigh","NC","Southern Fastening Systems","5608 Spring Ct Ste 116","27616",35.85720443725586,-78.58842468261719
"27616","Raleigh","NC","Fastenal","5608 Spring Ct Ste 106","27616",35.8569238989526,-78.5885095959117
"27616","Raleigh","NC","Equipment Repair Services","5608 Primavera Ct","27616",35.857023,-78.591121
"27616","Raleigh","NC","Sherwin-Williams Paint Store","7520 Ramble Way","27616",35.876353,-78.537683
"27616","Raleigh","NC","Surplus WareHouse Raleigh","3901 Capital Boulevard","27604",35.8348548,-78.5857792
"27616","Raleigh","NC","minuteKEY","8000 Town Dr","27616",35.869747,-78.565077
"27617","Raleigh","NC","HD Supply White Cap Raleigh - 258","8909 Midway W Rd","27617",35.9079704284668,-78.75888061523438
"27617","Raleigh","NC","White Cap Construction Supply","8909 Midway West Rd","27617",35.908241,-78.758911
"27617","Raleigh","NC","Apex Appliance","6300 Limousine Dr","27617",35.901413,-78.758652
"27617","Raleigh","NC","HD Supply Kenseal","8909 Midway West Road","27617",35.90812207,-78.75906775
"27617","Raleigh","NC","Right Electrical Services LLC","9807 Castain Drive","27617",35.905631,-78.807733
"27701","Durham","NC","Harbor Freight Tools","2000 Avondale Dr Ste 104","27704",36.01596862436253,-78.88497397416525
"27701","Durham","NC","Public Hardware","505 N Mangum St","27701",35.99844302318002,-78.89788887968216
"27701","Durham","NC","Barnes Supply Co.","774 9th St","27705",36.010377800830994,-78.9218468344773
"27701","Durham","NC","Surplus WareHouse Durham","364-398 Foushee St","27704",36.0165379,-78.8849457
"27701","Durham","NC","Common Ground Green Building Center","326 W Geer St","27701",36.004020000000004,-78.899479
"27701","Durham","NC","Durham Locksmith Pro","905 W Main St","27701",35.99993133544922,-78.91017150878906
"27701","Durham","NC","Durham","2000 Avondale Drive, Suite A1","27704",36.0165379,-78.8849457
"27701","Durham","NC","Consolidated Electrical Distributors (CED)","816 Ramseur St","27701",35.987528999999995,-78.894622
"27701","Durham","NC","Ferguson Plumbing Supply","1750 E Lawson St","27703",35.973801,-78.876767
"27701","Durham","NC","Reuse Warehouse","800 Taylor St","27701",35.991153717041016,-78.88968658447266
"27701","Durham","NC","Home Outlet","2000 Avondale Drive Suite A1","27704",36.0168,-78.885481
"27703","Durham","NC","Sherwin-Williams Paint Store","1425 S Miami Blvd","27703",35.953813779502624,-78.83953213691711
"27703","Durham","NC","Ferguson HVAC Supply","1301 Person St","27703",35.966356,-78.874716
"27703","Durham","NC","H&E Equipment Services","815 Ellis Rd","27703",35.966077,-78.868012
"27703","Durham","NC","Pope True Value Hardware","1000 N Miami Blvd","27703",35.99345779418945,-78.86809539794922
"27703","Durham","NC","City Electric Supply Durham","2436 S Miami Blvd Ste 200-4","27703",35.934447,-78.843644
"27703","Durham","NC","84 Lumber","2543 Whilden Dr","27713",35.946714,-78.88475600000001
"27703","Durham","NC","City Electric Supply North Durham","1500B E Club Blvd Ste B","27704",36.027073982116484,-78.86867639061677
"27704","Durham","NC","The Home Depot","1700 N Pointe Dr","27705",36.0297786924245,-78.91796261072159
"27704","Durham","NC","Lowe's","117 William Penn Plaza","27704",36.0443695,-78.8998714
"27704","Durham","NC","Sherwin-Williams Paint Store","5008 N Roxboro St","27704",36.066534000000004,-78.905591
"27704","Durham","NC","minuteKEY","117 William Penn Plz","27704",36.044538,-78.899899
"27704","Durham","NC","The Quartermaster Co","Carver St At Guess Rd","27705",36.023402145740896,-78.91714691151039
"27704","Durham","NC","Reckless Paint and Accessories","3808 Guess Rd Ste F","27705",36.058732855283665,-78.92785534932045
"27704","Durham","NC","minuteKEY","1525 Glenn School Rd","27704",36.0283299,-78.8435155
"27705","Durham","NC","D&L Appliance Parts","2414 Reichard St","27705",36.029949,-78.930573
"27705","Durham","NC","b & g builders","not_available","27712",36.082791,-78.930825
"27707","Durham","NC","The Home Depot","3701 Mt Moriah Rd","27707",35.9497333,-78.9930871
"27707","Durham","NC","Lowe's","4402 Fayetteville Road","27713",35.9412377,-78.9084378
"27707","Durham","NC","Triangle Ace Hardware","4711 Hope Vly Rd Ste 1J","27707",35.92092,-78.956421
"27707","Durham","NC","minuteKEY","5450 New Hope Commons Dr","27707",35.95452117919922,-78.99864196777344
"27707","Durham","NC","minuteKEY","4402 Fayetteville St","27713",35.941341400146484,-78.90848541259766
"27707","Durham","NC","minuteKEY","1010 Martin Luther King Pkwy","27713",35.95051193237305,-78.92483520507812
"27713","Durham","NC","Triangle Pharmacy Ace Hardware","1700 E Hwy 54","27713",35.902659,-78.902832
"27801","Rocky Mount","NC","Best Rentals","not_available","27801",35.927096,-77.804022
"27801","Rocky Mount","NC","Lowe's","700 N Wesleyan Blvd","27804",35.9649513,-77.82186
"27801","Rocky Mount","NC","Waters Brothers Contractors, Inc.","511 Instrument Dr","27804",36.002773,-77.783355
"27801","Rocky Mount","NC","Central Building Supply","not_available","27803",35.934012,-77.798227
"27801","Rocky Mount","NC","Sherwin-Williams Paint Store","1280 Independence Dr","27804",35.9708137512207,-77.80410766601562
"27801","Rocky Mount","NC","Eastern Hydraulics","600 S Washington St","27801",35.935108,-77.797776
"27801","Rocky Mount","NC","Harbor Freight","538 Sutters Creek Blvd","27804",35.971099853515625,-77.80986785888672
"27801","Rocky Mount","NC","minuteKEY","1511 Benvenue Rd","27804",35.9780654,-77.8122951
"27801","Rocky Mount","NC","Wholesale Paint Center","945 N Church St","27804",35.95366,-77.792067
"27801","Rocky Mount","NC","Tractor Supply Co.","506 Sutters Creek Rd","27804",35.96926084251451,-77.80890261271418
"27803","Rocky Mount","NC","Husqvarna US","PO Box 4426","27803",35.921775817871094,-77.84187316894531
"27803","Rocky Mount","NC","Peoples Building Supply","420 S Wesleyan Blvd","27803",35.94477462768555,-77.830810546875
"27803","Rocky Mount","NC","consolidated machine & hydralic, inc","not_available","27878",35.870506286621094,-77.82774353027344
"27805","Aulander","NC","Sherwin-Williams Paint Store","719 Memorial Dr E","27910",36.278608784486,-76.98172688484192
"27805","Aulander","NC","Hog Slat","440 NC 561","27910",36.307076,-77.03107
"27805","Aulander","NC","Tractor Supply Co.","1532 Memorial Dr East Ste A","27910",36.271537,-76.973386
"27805","Aulander","NC","Ace Hardware of Ahoskie","1405 Memorial Dr E","27910",36.2728559,-76.97198
"27807","Bailey","NC","A&J Shop","not_available","27807",35.86331558227539,-78.0888442993164
"27807","Bailey","NC","JFS Power Equipment, Inc.","4533 NC 581 Hwy","27880",35.732798,-78.11338599999999
"27808","Bath","NC","Enchanted Gardens","3200 Hwy 92 E","27889",35.491634368896484,-76.85236358642578
"27809","Battleboro","NC","Wollett Small Engine Sales & Service","8356 Red Oak Boulevard","27856",36.038537,-77.907007
"27810","Belhaven","NC","City Electric Supply","4651 Hwy 264 West","27889",35.5756902,-76.645813
"27810","Belhaven","NC","Riddick & Windley Hardware","235 Pamlico St","27810",35.538007,-76.621059
"27817","Chocowinity","NC","Shop Eze Hardware & Garden Center","32 N","not_available",35.534403,-77.025107
"27817","Chocowinity","NC","Ace Hardware-Washington","1305 John Small Ave","27889",35.545771,-77.031929
"27817","Chocowinity","NC","Mitchell Tractor & Equipment Co.","US Hwy 17","27889",35.546973,-77.058863
"27817","Chocowinity","NC","Sherwin-Williams Paint Store","680 Carolina Ave","27889",35.551414,-77.058576
"27817","Chocowinity","NC","Husqvarna US","2275 NC Highway 43","28586",35.348506927490234,-77.18608856201172
"27817","Chocowinity","NC","Chocowinity Southern States","not_available","27817",35.50113127321668,-77.11041624750973
"27818","Como","NC","Ace Home Ctr Murfreesboro","415 W Main St","27855",36.442002,-77.106183
"27822","Elm City","NC","Harbor Freight Tools","1800 Forest Hills Rd W","27893",35.721563,-77.951813
"27822","Elm City","NC","Lowe's","2501 Forest Hills Road West","27893",35.7348589,-77.9545576
"27822","Elm City","NC","P.L Woodard & Co.","not_available","27893",35.724621781115246,-77.91368524056985
"27822","Elm City","NC","Wilson Power Mower","626 Ward Blvd, Winoca Shopping Center, Wilson, NC 27893","27893",35.71440887451172,-77.93144226074219
"27822","Elm City","NC","minuteKEY","2501 Forest Hills Rd W","27893",35.73475646972656,-77.95449829101562
"27822","Elm City","NC","minuteKEY","2500 Forest Hills Rd W","27893",35.733373,-77.94862
"27822","Elm City","NC","Ferguson","3935 Lake Wilson Rd N","27896",35.773396000000005,-77.940242
"27822","Elm City","NC","Sherwin-Williams Paint Store","2628 Forest Hills Rd SW","27893",35.717838,-77.952874
"27822","Elm City","NC","Home Depot","not_available","27597",35.744377950761674,-77.92637828857667
"27822","Elm City","NC","City Electric Supply Wilson","3462 Airport Blvd NW","27896",35.764790000000005,-77.94734
"27822","Elm City","NC","Electric Supply Company","180 Ward Blvd","27893",35.708052,-77.92213100000001
"27822","Elm City","NC","Tractor Supply Co.","2380 Forest Hills Rd West","27893",35.73168102082159,-77.94949688839134
"27823","Enfield","NC","Bellamy Hardware","506 Glenview Rd","27823",36.182969,-77.675197
"27824","Engelhard","NC","R.S. SPENCER TRUE VALUE","34910 US 264 HWY","27824",35.50746536254883,-76.0013656616211
"27828","Farmville","NC","farmville hardware","not_available","27828",35.5972971623018,-77.58570876668168
"27828","Farmville","NC","Farmville Hardware Lawn & Garden","3732 West Wilson St","27828",35.597695,-77.58584367
"27830","Fremont","NC","Firehouse Equipment & Hardware","2674 NC Highway 222 E","27830",35.53888666666667,-77.8826661
"27830","Fremont","NC","Thompson Inn","not_available","27863",35.50467217492765,-77.96291481650941
"27831","Garysburg","NC","City Electric Supply Roanoke Rapids","1010 Charlotte St","27870",36.454104,-77.652377
"27831","Garysburg","NC","Sherwin-Williams Paint Store","1010 E 10th St","27870",36.452624,-77.646862
"27831","Garysburg","NC","Gaston Hardware","not_available","27832",36.484503,-77.64394
"27831","Garysburg","NC","Harbor Freight","1122 julian r allsbrook hwy","27870",36.43669,-77.64383
"27831","Garysburg","NC","Lowe's","1600 Julian Allsbrook Highway","27870",36.4346618,-77.6340332
"27831","Garysburg","NC","ProBuild","not_available","27870",36.44086438097071,-77.64197593041024
"27831","Garysburg","NC","coastal lumber co","1772 trueblood road","not_available",36.39990051518188,-77.6121030598378
"27831","Garysburg","NC","Lowes Home Improvement","1600 Julian R Allsbrook Hwy","27870",36.434661865234375,-77.63426208496094
"27831","Garysburg","NC","Tractor Supply Co.","1350 Julian Allsbrook Hwy","27870",36.435997,-77.637695
"27834","Greenville","NC","Lowe's","800 Thomas Langston Road","28590",35.5632362,-77.4086151
"27834","Greenville","NC","Lowe's","3840 East 10th Street","27858",35.5902846,-77.318704
"27834","Greenville","NC","Agri Supply","4500 Martin Luther King Jr Hwy","27834",35.64115524291992,-77.33485412597656
"27834","Greenville","NC","Sherwin-Williams Paint Store","303 E Arlington Blvd","27858",35.587475,-77.372346
"27834","Greenville","NC","Harbor Freight Tools","2323 Elaines Way Ste A","28590",35.5360286443452,-77.40794035034142
"27834","Greenville","NC","Tractor Supply Co.","3985 South Memorial Dr","28590",35.558046,-77.404635
"27834","Greenville","NC","Ferguson Plumbing Supply","3108 S Memorial Dr","27834",35.5759861538462,-77.3982989010989
"27834","Greenville","NC","Hagemeyer","1001 Howell St, Greenville, NC 27834","27834",35.598262786865234,-77.38959503173828
"27834","Greenville","NC","Sherwin-Williams Floorcovering Store","4764 Reedy Branch Rd","28590",35.535154999999996,-77.415952
"27834","Greenville","NC","Greenville TV & Appliance","200 E. Greenville Blvd","27858",35.579056,-77.378609
"27834","Greenville","NC","minuteKEY","4600 E 10th St","27858",35.580711364746094,-77.30706024169922
"27834","Greenville","NC","Handyman Heaven","3840 E 10th St","27858",35.58961868286133,-77.31892395019531
"27834","Greenville","NC","Fastenal Company","2400 United Dr","27834",35.652058000000004,-77.353959
"27834","Greenville","NC","Lawnmower Service Company!","4617 US Highway 13 S","27834",35.573749,-77.440574
"27834","Greenville","NC","That Mexican that sells pine straw at the trailor park","not_available","27858",35.548049950526426,-77.40444281660997
"27834","Greenville","NC","Electric Motor Sales Of Greenville","not_available","27834",35.608021,-77.385265
"27834","Greenville","NC","minuteKEY","210 SW Greenville Blvd","27834",35.5775599,-77.3877704
"27834","Greenville","NC","Electric Supply  Company","1511 Dickinson Ave","27834",35.603439,-77.38570899999999
"27837","Grimesland","NC","City Electric Supply Washington Nc","4561 US Highway 264 W","27889",35.5982131,-77.1102142
"27850","Littleton","NC","Lake Gaston Ace Hardware","144 Elams Rd","27850",36.53435,-77.93796
"27850","Littleton","NC","Littleton Hardware","214 Main St","27850",36.436188,-77.910342
"27856","Nashville","NC","Nashville Feed Store","not_available","27856",35.975418,-77.969697
"27856","Nashville","NC","Husqvarna US","309 S Barnes St","27856",35.9722785949707,-77.97007751464844
"27856","Nashville","NC","Bell's Small Engine & Hardware","Hwy 58 N","27856",35.99040218415532,-77.98890123161932
"27856","Nashville","NC","Nashville Building Supply","723 S Barnes St","27856",35.96927261352539,-77.97116088867188
"27858","Greenville","NC","minuteKEY","1826 E Arlington Blvd","27858",35.567054748535156,-77.35762023925781
"27874","Scotland Neck","NC","Ace Hardware","Hwy 125 South","27874",36.130141,-77.427274
"27883","Stantonsburg","NC","James Batts Distributing Co.","2146 Stantonsburg Rd SE","27893",35.700371000000004,-77.89498
"27886","Tarboro","NC","Ace Home Center","1713 N Main St","27886",35.9089079,-77.541482
"27886","Tarboro","NC","Henderson Lumber Company Inc","2206 Saint Andrew St","27886",35.91394,-77.54428
"27886","Tarboro","NC","Lowe's","111 River Oaks Drive","27886",35.8816506,-77.5469832
"27886","Tarboro","NC","Anderson & Company, Inc.","197 Thornhill Ln","27886",35.910695000000004,-77.61041999999999
"27886","Tarboro","NC","Henderson True Value","2206 St Andrews St N","27886",35.914026,-77.54428
"27889","Washington","NC","minuteKEY","570 Pamlico Plz","27889",35.560218811035156,-77.06312561035156
"27889","Washington","NC","Husqvarna US","PO Box 892","27889",35.55643844604492,-77.03595733642578
"27889","Washington","NC","Tractor Supply Co.","608 West 15th St","27889",35.560283,-77.053139
"27889","Washington","NC","Wolseley Industrial Group","600 Tranters Creek Dr","27889",35.583624,-77.09722
"27889","Washington","NC","Double T Fasteners","not_available","27889",35.61421091905433,-77.15977016792691
"27889","Washington","NC","Lowe's","1701 Carolina Avenue","27889",35.566435,-77.061144
"27892","Williamston","NC","Williamston Glass & Mirror","403 Williamston Street","27892",35.848766999999995,-77.05764
"27892","Williamston","NC","Curt's","not_available","27892",35.75041580200195,-77.13719940185547
"27892","Williamston","NC","Tractor Supply Co.","813 East Blvd Ste A","27892",35.84939956665039,-77.04598236083984
"27892","Williamston","NC","Sherwin-Williams Paint Store","708 East Blvd","27892",35.84800013916653,-77.05119341611862
"27909","Elizabeth City","NC","Lowe's","1605 W Ehringhaus St","27909",36.2905315,-76.2459205
"27909","Elizabeth City","NC","Brady Outdoor Equipment","1354 US Highway 17 S","27909",36.26409,-76.2998
"27909","Elizabeth City","NC","Harbor Freight Tools","1875 W Ehringhaus St","27909",36.28877639770508,-76.25137329101562
"27909","Elizabeth City","NC","Sherwin-Williams Paint Store","1760 City Center Blvd","27909",36.29715347290039,-76.25740051269531
"27909","Elizabeth City","NC","Tractor Supply Co.","1111 Halstead Blvd","27909",36.281838,-76.230681
"27909","Elizabeth City","NC","Norandex","not_available","27909",36.3627958675905,-76.30581868883063
"27909","Elizabeth City","NC","Griggs Lumber","109 Impact Dr","27909",36.266011999999996,-76.303653
"27909","Elizabeth City","NC","City Electric Supply Elizabeth City","1910 Weeksville Rd Ste 102","27909",36.2645028,-76.1960069
"27909","Elizabeth City","NC","Dixie Auto Parts","211 Ocean Hwy S","27944",36.1867999,-76.4668
"27909","Elizabeth City","NC","Ace Hardware of Elizabeth City","511 W Ehringhaus St","27909",36.2959469,-76.228457
"27909","Elizabeth City","NC","Electric Motor Rewinding Inc","407 N Poindexter St","27909",36.3024,-76.2192
"27909","Elizabeth City","NC","Builders Discount Center","100 Big Daddy Pkwy","27909",36.276522,-76.280956
"27909","Elizabeth City","NC","Husqvarna US","PO Box 127","27944",36.16910934448242,-76.41206359863281
"27909","Elizabeth City","NC","Fastenal Elizabeth City","1245 Old US Highway 17 S, Elizabeth City, NC 27909","27909",36.308693859128994,-76.30637288816796
"27909","Elizabeth City","NC","Sears","1503 West Ehringhaus Street","27909",36.292845,-76.243715
"27909","Elizabeth City","NC","minuteKEY","101 Tanglewood Pkwy N","27909",36.296131,-76.2983552
"27909","Elizabeth City","NC","Bear Garden Inc","760 Pitts Chapel Rd","27909",36.258832,-76.20278
"27915","Avon","NC","Ace Hardware of Avon","42000 Hwy 12","27915",35.331669,-75.508058
"27915","Avon","NC","Ace Hardware of Avon","PO Box 12","27915",35.3089,-75.511799
"27915","Avon","NC","Ace Hardware","4200 Hwy 12","27915",35.497710941643916,-75.47997221843882
"27920","Buxton","NC","Dare County Building Supply","47371 Buxton Park Rd Buxton","27920",35.26503878142597,-75.5354574498407
"27925","Columbia","NC","Acuaplace","Hollow Ground Swamp, Gum Neck, Carolina del Norte 27925","not_available",35.78899002075195,-76.25370788574219
"27925","Columbia","NC","Pledger Hardware","Main St.","27925",35.917668,-76.252614
"27927","Corolla","NC","Ace Hardware of Corolla","822 Ocean Trl","27927",36.330107213565896,-75.81714391708374
"27927","Corolla","NC","Outer Banks Ace Hardware 119","6704 Caratoke Hwy","27939",36.226253,-75.872076
"27928","Creswell","NC","Big M Parts & Sales","9870 NC Highway 94 N","27928",35.88135528564453,-76.41159057617188
"27932","Edenton","NC","Sherwin-Williams Paint Store","817 N Broad St","27932",36.070809000000004,-76.60429
"27932","Edenton","NC","Sears","211 S. Broad Street","27932",36.0592194,-76.6085519
"27932","Edenton","NC","nixon","not_available","27932",36.159969329833984,-76.66447448730469
"27932","Edenton","NC","Byrum True Value Hardware","314 S Broad St","27932",36.058478,-76.60947
"27932","Edenton","NC","W.E. Nixon Welding","Rocky Hock Rd","27932",36.199646,-76.704509
"27932","Edenton","NC","Husqvarna US","PO Box 210","27932",36.092681884765625,-76.62577819824219
"27941","Harbinger","NC","Griggs Lumber","8917 Caratoke Hwy","27964",36.0915,-75.80550699999999
"27943","Hatteras","NC","Nedo True Value Shopping Center","57866 Highway 12","27943",35.21954696,-75.69285356
"27947","Jarvisburg","NC","ABC Supply Co.","7349 Caratoke Hwy","27947",36.183319,-75.863467
"27948","Kill Devil Hills","NC","Lowe's","1500 North Croatan Highway","27948",36.0262794,-75.6698475
"27948","Kill Devil Hills","NC","Pittsburgh Paints","Hayman St","27948",36.046888526631236,-75.68148147767074
"27948","Kill Devil Hills","NC","A&L Multimedia LLC","237 Eagle Dr","27948",36.0125699,-75.71695
"27948","Kill Devil Hills","NC","minuteKEY","1500 N Croatan Hwy","27948",36.026295000000005,-75.670716
"27949","Kitty Hawk","NC","The Home Depot","5300 N Croatan Hwy","27949",36.0981939,-75.7173824
"27949","Kitty Hawk","NC","Ace Hardware of Kitty Hawk","4132 N Croatan Hwy","27949",36.073516,-75.698914
"27949","Kitty Hawk","NC","Ferguson HVAC Supply","3938 N Croatan Hwy","27949",36.0685610526316,-75.6948484210526
"27949","Kitty Hawk","NC","R.E. Michel Company","4208 N Croatan Hwy","27949",36.07488512992859,-75.69975972175598
"27949","Kitty Hawk","NC","Kellogg Supply Company -  The  Cottage Shop","1201 Duck Rd","27949",36.16562258762425,-75.75277602299235
"27949","Kitty Hawk","NC","Sherwin-Williams Paint Store","3722 N Croatan Hwy","27949",36.060854,-75.690722
"27954","Manteo","NC","Outer Banks Ace Hardware 122","300 US Highway 64","27954",35.906609,-75.675252
"27954","Manteo","NC","Kellogg Supply - Manteo","not_available","27954",35.909638,-75.681271
"27958","Moyock","NC","Taylor's Do-it Center","388-398 Caratoke Hwy","27958",36.518934,-76.172525
"27958","Moyock","NC","Sherwin-Williams Paint Store","108 Currituck Commerical Dr","27958",36.514934999999994,-76.16914200000001
"27959","Nags Head","NC","Ace Hardware of Nags Head","2718 S Croatan Hwy","27959",35.980659,-75.642409
"27959","Nags Head","NC","Gallop Roofing","not_available","27981",35.841501484313966,-75.64608146701269
"27959","Nags Head","NC","Sherwin-Williams Paint Store","6813 S Croatan Hwy","27959",35.917240142822266,-75.60299682617188
"27960","Ocracoke","NC","Blue Rhino","950 Irvin Garrish Hwy","27960",35.10771179199219,-75.9751968383789
"27972","Salvo","NC","Dare Building Supply","Hwy 12","27972",35.56604,-75.46826
"27979","Sunbury","NC","Dixie Hardware","980 Us Hwy 158 E","27979",36.44125,-76.6129
"27983","Windsor","NC","T&W Rentals","1523 S King St","27983",35.992095,-76.917553
"27983","Windsor","NC","Sentry Hardware","not_available","27983",35.996878,-76.948849
"28001","Albemarle","NC","Lowe's","814-14 NC 24-27 Bypass East","28001",35.3456482,-80.1662447
"28001","Albemarle","NC","Tractor Supply Co.","636 Nc 24  27 Bypass East Ste 24","28001",35.342747,-80.173961
"28001","Albemarle","NC","Harbor Freight","not_available","28001",35.342724,-80.171027
"28001","Albemarle","NC","Sherwin-Williams Paint Store","722 Leonard Ave","28001",35.34187472920177,-80.17792224884033
"28001","Albemarle","NC","City Electric Supply Albemarle","1941 E Main St","28001",35.3485328,-80.1620305
"28001","Albemarle","NC","Stanly Ace Hardware","401 W South St","28001",35.347751,-80.200974
"28001","Albemarle","NC","Whitleys Max-4 Landscape Supplies","2603 US Highway 52 N","28001",35.40058303434023,-80.20124454167548
"28001","Albemarle","NC","minuteKEY","781 Leonard Ave","28001",35.340486,-80.175612
"28012","Belmont","NC","Lowe's","200 Caldwell Farm Road","28012",35.2548547,-81.0378786
"28012","Belmont","NC","J Hebert Machine Tool Co. Inc.","1500 River Dr","28012",35.2367798,-81.0156748
"28012","Belmont","NC","BITSCO","R L Stowe Rd","28012",35.233553577795824,-81.03617129555896
"28012","Belmont","NC","Hardware Place","not_available","28012",35.279753,-81.046684
"28012","Belmont","NC","minuteKEY","200 Caldwell Farm Rd","28012",35.255378,-81.037736
"28012","Belmont","NC","minuteKEY","701 Hawley Ave","28012",35.254922,-81.0351419
"28012","Belmont","NC","Belmont garage doors","106 N Main St","28012",35.24493564855657,-81.03858947753905
"28016","Bessemer City","NC","Tractor Supply Co.","1630 Edgewood Rd","28016",35.257828,-81.25732
"28016","Bessemer City","NC","Ferguson Ace Hardware","2267 Lincolnton Hwy","28021",35.396696,-81.34383000000001
"28016","Bessemer City","NC","JAK Machining","not_available","28016",35.297527,-81.24297
"28018","Bostic","NC","Habitat Restore","not_available","28043",35.342584,-81.880962
"28018","Bostic","NC","Sherwin-Williams Paint Store","656 W Main St","28043",35.341921,-81.880325
"28018","Bostic","NC","Forest City Ace Hardware","171 E Main St","28043",35.3335051,-81.8628498
"28021","Cherryville","NC","Saine ace hardware.","Highway 27 west","not_available",35.45290787718326,-81.35683044082624
"28023","China Grove","NC","Total Bay Locksmith","2425 Channing Way, #B","94704",35.544204274049704,-80.55081367492676
"28023","China Grove","NC","China Grove Hardware Since 1901","not_available","28023",35.570229,-80.580292
"28023","China Grove","NC","Bill Davis Supply","1905 N Main St","28081",35.52067,-80.614745
"28023","China Grove","NC","LL Goodnight - Southern States","605 Saw Rd, China Grove, NC 28023","28023",35.562937,-80.657428
"28023","China Grove","NC","Ruehlen Supply","not_available","28088",35.53078079223633,-80.61164855957031
"28023","China Grove","NC","Outdoor Power Equipment","3242 S Main St","28147",35.638957,-80.512826
"28023","China Grove","NC","City Electric Supply Kannapolis","1901 N Main St","28081",35.5205194,-80.6145803
"28025","Concord","NC","Lowe's","3025 Dale Earnhardt Boulevard","28083",35.4689509,-80.5872738
"28025","Concord","NC","Lowe's","940 Concord Parkway North","28027",35.4261439,-80.6126104
"28025","Concord","NC","The Home Depot","3313 Cloverleaf Plaza","28083",35.4486864,-80.6053255
"28025","Concord","NC","Sears","1480 Highway 29 N","28025",35.4394454,-80.6047631
"28025","Concord","NC","Harbor Freight Tools","1034 Cloverleaf Plz","28083",35.45171023730225,-80.60665464221093
"28025","Concord","NC","Tractor Supply Co.","11855 Us Hwy 601 South","28107",35.25350450327314,-80.49957073580269
"28025","Concord","NC","Sherwin-Williams Paint Store","375 Church St N","28025",35.420512,-80.590582
"28025","Concord","NC","TRUE VALUE OF CONCORD","775 Concord Pkwy N","28027",35.420509338378906,-80.61650085449219
"28025","Concord","NC","Tractor Supply Co.","104 Commercial Parks Dr","28027",35.392577,-80.619325
"28025","Concord","NC","Spencer's Plumbing Service","13155 Pine Bluff Rd Rd-C","28107",35.24357,-80.469503
"28025","Concord","NC","CPSL","515","28025",35.38431598750932,-80.5813524381789
"28025","Concord","NC","Sears","545 Concord Parkway N","28027",35.4112963,-80.6153629
"28025","Concord","NC","Southgate Masonry And Lumber Co Inc","3535 US Highway 601 S","28025",35.31328201293945,-80.52122497558594
"28025","Concord","NC","Gulledge Building Supply","813 Fairview St","28083",35.487159729003906,-80.60970306396484
"28025","Concord","NC","City Electric Supply Concord","815 Gretel Ave NW","28027",35.426715749156145,-80.60889406745918
"28025","Concord","NC","Concord Tractor & Equipment","not_available","28027",35.397954,-80.608271
"28025","Concord","NC","minuteKEY","940 Concord Pkwy N","28027",35.42576,-80.612605
"28025","Concord","NC","minuteKEY","3025 Dale Earnhardt Blvd","28083",35.46931076049805,-80.58677673339844
"28025","Concord","NC","Sears","1480 Concord Pkwy N","28025",35.43933788,-80.60462236
"28025","Concord","NC","minuteKEY","2420 Supercenter Dr NE","28083",35.462673,-80.594171
"28025","Concord","NC","Sherwin-Williams Paint Store","2315 Coldwater Ridge Dr","28083",35.468342,-80.591669
"28025","Concord","NC","Porter Paints","2217 Roxie St NE, Kannapolis, NC 28083","28083",35.46505,-80.594957
"28025","Concord","NC","Hand Tool World","5017 Hildreth Ct","28025",35.345009,-80.564705
"28027","Concord","NC","Lowe's","8670 Concord Mills Boulevard","28027",35.375903,-80.7278927
"28027","Concord","NC","Faulk Brothers","Hwy 49","not_available",35.35199116443346,-80.69959630126395
"28027","Concord","NC","minuteKEY","8670 Concord Mills Blvd","28027",35.376013,-80.727672
"28027","Concord","NC","Cadenza - Granite & Marble","841 Biscayne Dr","28027",35.42720031738281,-80.6711196899414
"28027","Concord","NC","Christy's Nursery","2400 Concord Pkwy S","28027",35.38220730811604,-80.6476006895979
"28027","Concord","NC","POWERHOME SOLAR","270 International Dr NW","28027",35.419059,-80.653297
"28027","Concord","NC","Isenhour Cabinet Shop","520 Kiser Ave","28083",35.501041,-80.59322900000001
"28031","Cornelius","NC","Lowe's","16830 Statesville Road","28078",35.446135,-80.8644448
"28031","Cornelius","NC","The Home Depot","17111 Statesville Road","28031",35.4493695,-80.8679545
"28031","Cornelius","NC","Sherwin-Williams Paint Store","18206 Manhatten Pkwy","28031",35.48006116564913,-80.8862668275833
"28031","Cornelius","NC","Ace Hardware","20510 N Main St","28031",35.486971000000004,-80.857912
"28031","Cornelius","NC","PPG Paint Cornelius","19400 Statesville Rd","not_available",35.47819137573242,-80.87329864501953
"28031","Cornelius","NC","#1 Huntersville Garage Door Repair","16905 Northcross Dr Ste 190","28078",35.44443893432617,-80.87496185302734
"28031","Cornelius","NC","Lyfe Marine","19109 W Catawba Ave","28031",35.47386211,-80.89193763
"28031","Cornelius","NC","Hoke Lumber","not_available","28036",35.497748,-80.85699
"28031","Cornelius","NC","Davidson NC Garage Doors","452 S Main St Ste F","28036",35.49515151977539,-80.8535385131836
"28031","Cornelius","NC","Accu Vend Food Service Inc","not_available","28209",35.472728572965224,-80.8719277381897
"28031","Cornelius","NC","Soil Supply Inc","10219 Hagers Rd","28070",35.428546000000004,-80.837089
"28031","Cornelius","NC","minuteKEY","16830 Statesville Rd","28078",35.446193,-80.864612
"28031","Cornelius","NC","Lake Norman Paint & Glass","21224 Catawba Ave","28031",35.48228091666667,-80.86164313333333
"28031","Cornelius","NC","Hughes Kitchen & Bath Collection - Huntersville","16235 Northcross Dr","28078",35.437874,-80.870795
"28031","Cornelius","NC","Cornelius Garage Doors","20830 Torrence Chapel Rd Ste 201","28031",35.48696517944336,-80.87510681152344
"28032","Cramerton","NC","John Deer Store","not_available","28056",35.255077209644085,-81.08942703552292
"28034","Dallas","NC","College Building Supplies","not_available","28034",35.306216329888564,-81.18745555314105
"28034","Dallas","NC","Airgas National Welders","2433 N Chester St","28052",35.292921,-81.18871800000001
"28034","Dallas","NC","Paw's Shop","1723 Dallas Stanley Hwy","28164",35.335224,-81.122084
"28034","Dallas","NC","minuteKEY","1300 Dallas Cherryville Hwy","28034",35.317325592041016,-81.19618225097656
"28034","Dallas","NC","Southern States, Gastonia, Nc","2510 N Chester St","28052",35.293482,-81.187273
"28037","Denver","NC","Lowe's","7144 NC 73 Hwy","28037",35.448239,-81.0050722
"28037","Denver","NC","Tractor Supply Co.","285 Gillman Rd","28037",35.44206570590101,-81.00071265702593
"28037","Denver","NC","minuteKEY","7131 Highway 73","28037",35.4517383,-81.001282
"28037","Denver","NC","A.D. Mackay Inc","not_available","28037",35.48190239977109,-80.98870038986206
"28037","Denver","NC","minuteKEY","7144 Highway 73","28037",35.5316576,-81.0295793
"28037","Denver","NC","City Electric Supply Denver Nc","2477 S. North Carolina 16 Hwy","28037",35.5081142,-81.0035751
"28037","Denver","NC","Sherwin-Williams Paint Store","7413 Advance Ln","28037",35.44374114110553,-81.00021243095398
"28037","Denver","NC","Ace Hardware","1258 N Highway 16","28037",35.4769401550293,-80.99298858642578
"28037","Denver","NC","Handy Man","not_available","28673",35.545645,-80.988364
"28040","Ellenboro","NC","Six Points Store","1281 NC Hwy 120","28114",35.27924773174386,-81.74796002974485
"28043","Forest City","NC","Lowe's","184 Lowe's Boulevard","28043",35.3389157,-81.8959909
"28043","Forest City","NC","Tractor Supply Co.","1639 Us Hwy 74a Byp Ste 200","28160",35.34170913696289,-81.90652465820312
"28043","Forest City","NC","City Electric Supply Forest City","236 Withrow Rd","28043",35.343103,-81.88799200000001
"28043","Forest City","NC","minuteKEY","197 Plaza Dr","28043",35.3350726,-81.8996103
"28052","Gastonia","NC","minuteKEY","223 N Myrtle School Rd","28052",35.26102066040039,-81.2260513305664
"28052","Gastonia","NC","Gaston Rental","200 E Garrison Blvd","28054",35.253901,-81.179422
"28052","Gastonia","NC","Capital Electric","1434 Castle Ct","28052",35.277400970458984,-81.21923828125
"28052","Gastonia","NC","Roseberry Salvage","615 Davis Hrs","28052",35.193549,-81.210075
"28052","Gastonia","NC","Westend Hardware","1009 Bessemer City Rd","28052",35.269591999999996,-81.222792
"28052","Gastonia","NC","Quality Fastners","2016 Jenkins Dairy Rd","28052",35.280172,-81.226792
"28052","Gastonia","NC","Baker Distribution Co.","501 W Main Ave","28052",35.263438,-81.190039
