"zip","city","state","name","address","postalCode","lat","lon"
"98001","Auburn","WA","Lowe's","1232 A Street Northeast","98002",47.3193575,-122.2278824
"98001","Auburn","WA","Sherwin-Williams Commercial Paint Store","4210 B St NW","98001",47.345093,-122.232327
"98001","Auburn","WA","Ewing Irrigation","1805 Pike St NW","98001",47.32514325809943,-122.25253343582153
"98001","Auburn","WA","Rodda Paint","1501 15th St NW Ste 108","98001",47.322742,-122.252524
"98001","Auburn","WA","Feroy Company","not_available","not_available",47.307248,-122.22665400000001
"98001","Auburn","WA","HANSA-FLEX USA","2222 W Valley Hwy N Ste 170","98001",47.3282932,-122.2479294
"98001","Auburn","WA","Convoy","25 37th St NE","98002",47.340364,-122.229689
"98001","Auburn","WA","Ferguson Plumbing Supply","3532 B St NW","98001",47.339388118541,-122.232334864025
"98001","Auburn","WA","Platt Electric Supply","2101 R St NW Ste B","98001",47.323355527451135,-122.2540163290131
"98001","Auburn","WA","minuteKEY","762 Outlet Collection Dr SW","98001",47.2958123,-122.2414332
"98001","Auburn","WA","Cross Roads Appliance","not_available","98001",47.29493348333333,-122.28747456666666
"98001","Auburn","WA","Performance Coatings, Inc","60 37th St NE Ste A","98002",47.339689,-122.228793
"98001","Auburn","WA","minuteKEY","1232 A St NE","98002",47.31901550292969,-122.2274169921875
"98001","Auburn","WA","Heads Up, Inc","1320 26th St NW Ste 8","98001",47.330034,-122.248594
"98001","Auburn","WA","Industrial Bolt Supply Incorporated","740 Clay St NW","98001",47.314658487193476,-122.24035184661966
"98001","Auburn","WA","Fastenal","1508 O St SW #112","98001",47.294485,-122.25012
"98001","Auburn","WA","McNichols Metal","1221 29th St NW Ste A","98001",47.33397674560547,-122.2464599609375
"98001","Auburn","WA","Vallen","5230 B Street NW","98001",47.329428347823615,-122.23126888275145
"98001","Auburn","WA","PPG Paints","1220 37th St NW","98001",47.339743,-122.246529
"98001","Auburn","WA","AgriShop Auburn Ace Hardware","308 W Main St","98001",47.307136,-122.23344499999999
"98001","Auburn","WA","Ferguson Plumbing Supply","3532 B St Nw","98001",47.339388118541,-122.232334864025
"98002","Auburn","WA","Bent Bike","4337 Auburn Way N","98002",47.34613131,-122.22286837
"98002","Auburn","WA","Carpet Cleaning Auburn","31900 104th Ave SE #D304","98092",47.317447662353516,-122.20343017578125
"98002","Auburn","WA","Sherwin-Williams Paint Store","1921 Auburn Way N","98002",47.325272,-122.221923
"98003","Federal Way","WA","The Home Depot","1715 S 352nd St","98003",47.2845483,-122.3111068
"98003","Federal Way","WA","Lowe's","35425 Enchanted Parkway South","98003",47.2841681,-122.3156251
"98003","Federal Way","WA","Harbor Freight Tools","31858 Pacific Hwy S","98003",47.315680265554356,-122.31279574579092
"98003","Federal Way","WA","The Lock Shop","30819 Pacific Hwy S","98003",47.325340999999995,-122.313891
"98003","Federal Way","WA","Crystal Carpet Care","32422 7th Ave SW","98023",47.311248779296875,-122.34403228759766
"98003","Federal Way","WA","Mallory Paint Store","31853 Pacific Hwy S","98003",47.315757,-122.314053
"98003","Federal Way","WA","Sherwin-Williams Paint Store","32818 Pacific Hwy S","98003",47.307285,-122.31244099999999
"98003","Federal Way","WA","Carpet Cleaning Federal Way","31500 1st Ave S # 2-355","98003",47.32052993774414,-122.33323669433594
"98003","Federal Way","WA","Parker Paint","not_available","98003",47.306975,-122.31281399999999
"98003","Federal Way","WA","Trinity Ace Hardware","30650 Pacific Hwy S","98003",47.3263053894043,-122.31227111816406
"98003","Federal Way","WA","minuteKEY","35425 Enchanted Pkwy S","98003",47.28403854370117,-122.31558990478516
"98004","Bellevue","WA","The Home Depot","325 120th Ave NE","98005",47.61237274445053,-122.18194305896759
"98004","Bellevue","WA","True Value Hardware","7707 Se 27th St","98040",47.586095,-122.234323
"98004","Bellevue","WA","Eastside Staple & Nail","not_available","98005",47.62876402786426,-122.18124539766322
"98004","Bellevue","WA","Garage Door Repair Bellevue","11120 NE 2nd St","98004",47.612186431884766,-122.19119262695312
"98004","Bellevue","WA","minuteKEY","11959 Northup Way","98005",47.631107330322266,-122.18222045898438
"98004","Bellevue","WA","KOHLER Signature Store by Keller Supply","1018 116th Ave NE","98004",47.619067,-122.184921
"98004","Bellevue","WA","R&R Rentals","10920 Northup Way","98004",47.640557,-122.193409
"98005","Bellevue","WA","Seattle Lighting - Bellevue","14505 NE 20th St","98007",47.62740981143749,-122.14629841885156
"98005","Bellevue","WA","Dunn Lumber","2350 140th Ave NE","98005",47.63107103030451,-122.15351538060207
"98005","Bellevue","WA","Tum-a-lum","12150 Bel-Red Rd","98005",47.61799713243903,-122.18106257520984
"98005","Bellevue","WA","Sherwin-Williams Paint Store","14603 NE 20th St","98007",47.626758,-122.145046
"98005","Bellevue","WA","Platt Electric Supply","2021 130th Ave NE Ste G","98005",47.62887954711914,-122.16768646240234
"98005","Bellevue","WA","Fireside Home Solutions","13200 NE 20th St","98005",47.628558,-122.16406699999999
"98005","Bellevue","WA","Parker Paint","13500 Bel Red Rd","98005",47.62326776,-122.160866
"98005","Bellevue","WA","Pella Windows & Doors","1919 120th Ave NE","98005",47.628024833333335,-122.18107376666667
"98005","Bellevue","WA","Grainger","2221 120th Ave NE","98005",47.630272,-122.18080900000001
"98005","Bellevue","WA","Salt's","13218 NE 20th St","98005",47.629390716552734,-122.16387939453125
"98005","Bellevue","WA","Harbor Freight Tools","14506 NE 20th St Ste 1","98007",47.6286098699453,-122.14637985624955
"98005","Bellevue","WA","Rainier Garage Door","13600 NE 20th St","98005",47.628521,-122.15895800000001
"98005","Bellevue","WA","Carpet Cleaning Bellevue","12226 NE 24th St #156","98005",47.632015228271484,-122.17701721191406
"98005","Bellevue","WA","Ferguson Bath, Kitchen & Lighting Gallery","13020 Ne 20th St","98005",47.625259,-122.163678
"98005","Bellevue","WA","Miller Paints","13800 Bel Red Rd","98005",47.623903,-122.157055
"98005","Bellevue","WA","Security Safe & Lock","14115 NE 20th St","98007",47.6271504,-122.151911
"98006","Bellevue","WA","Sherwin-Williams Paint Store","3640 Factoria Blvd SE","98006",47.57748031616211,-122.16734313964844
"98006","Bellevue","WA","Carpet Cleaning Newcastle","Southeast 79th Place #B274","98059",47.53241492676778,-122.16185331344604
"98006","Bellevue","WA","Garage Door Repair Newcastle","6947 Coal Creek Pkwy SE","98059",47.538211822509766,-122.16658020019531
"98006","Bellevue","WA","Baratza Coffee Grinders","not_available","98006",47.57540512084961,-122.18008422851562
"98006","Bellevue","WA","Carpet Cleaning Renton","5021 Ripley Ln N Apt 191","98056",47.53712463378906,-122.1972885131836
"98007","Bellevue","WA","Crossroads Ace Hardware","653 B 156th Ave NE","98007",47.6156999,-122.1326
"98007","Bellevue","WA","Sears","15600 NE 8th, Ste A-2","98052",47.6174849,-122.1316446
"98008","Bellevue","WA","Pacific Plumbing","not_available","98029",47.59502056535326,-122.10315400505493
"98008","Bellevue","WA","Garage Door Repair Bellevue","Ne 2nd St","98004",47.61093702015202,-122.12331533432008
"98011","Bothell","WA","The Home Depot","18333 120th Ave NE","98011",47.75997636096452,-122.17796802520752
"98011","Bothell","WA","McLendon Hardware","17705 130th Ave NE","98072",47.75602651402825,-122.16682950366194
"98011","Bothell","WA","Grainger","11711 N Creek Pkwy S Ste 10","98011",47.762232,-122.183559
"98011","Bothell","WA","Carpet Cleaning Bothell","16125 Juanita Woodinville Way NE #346","98011",47.74616622924805,-122.1851577758789
"98011","Bothell","WA","D B Roberts","17270 Woodinville Redmond Rd NE","98072",47.752852000000004,-122.167824
"98011","Bothell","WA","Sherwin-Williams Paint Store","10042 Main St","98011",47.760186,-122.205913
"98011","Bothell","WA","CWallA","12815 NE 178th St","98072",47.755765000000004,-122.16913400000001
"98011","Bothell","WA","Carpet Cleaning Kenmore","7711 NE 175th St #C87","98028",47.755435943603516,-122.2384262084961
"98012","Bothell","WA","Lowe's","2002 132nd Street SE","98012",47.8771089,-122.2049312
"98012","Bothell","WA","Garage Door Repair Mill Creek","15704 Mill Creek Blvd","98012",47.855472564697266,-122.2192611694336
"98012","Bothell","WA","Stoneway Electric Supply","720 132nd St. DE","98204",47.87822,-122.243721
"98012","Bothell","WA","quality home improvements","19211 Filbert Rd","98012",47.82422735276941,-122.23823189735413
"98012","Bothell","WA","Sherwin-Williams Paint Store","202 164th St SW","98087",47.8490399,-122.236866
"98012","Bothell","WA","Sherwin-Williams Paint Store","20619 Bothell Everett Hwy","98012",47.810611724853516,-122.20569610595703
"98012","Bothell","WA","Monterra in Mill Creek Apartments","13401 Dumas Rd","98012",47.8787106,-122.21874113
"98012","Bothell","WA","Carpet Cleaning Mill Creek","15433 Country Club Dr #G296","98012",47.85831832885742,-122.2082290649414
"98012","Bothell","WA","Dunn Lumber","not_available","98012",47.8376648577675,-122.21183456709639
"98012","Bothell","WA","Parker Paint","not_available","98037",47.849139,-122.236923
"98012","Bothell","WA","minuteKEY","2002 132nd St SE","98012",47.87796401977539,-122.20474243164062
"98012","Bothell","WA","Lansing Building Products","18421 Bothell Everett Hwy Ste 170","98012",47.830291748046875,-122.20668029785156
"98014","Carnation","WA","Carnation Ace Hardware","4521 Tolt Avenue","98014",47.648269,-121.91439199999999
"98014","Carnation","WA","Carpet Cleaning Carnation","10734 E Lake Joy Dr NE #21","98014",47.69186019897461,-121.86453247070312
"98019","Duvall","WA","Duvall Hardware","15320 Brown Ave","98019",47.73893064937367,-121.98542042843023
"98019","Duvall","WA","Carpet Cleaning Redmond","23924 NE 115th Ln #245","98053",47.70119857788086,-122.0204086303711
"98019","Duvall","WA","Garage Door Repair Duvall","15321 Main St NE","98019",47.739349365234375,-121.98710632324219
"98020","Edmonds","WA","Edmonds Bowl Ace Hardware","550 5th Ave S","98020",47.806459000000004,-122.378576
"98020","Edmonds","WA","Garage Door Repair Edmonds","9792 Edmonds Way","98020",47.790218353271484,-122.36424255371094
"98020","Edmonds","WA","Sherwin-Williams Paint Store","22804 100th Ave W","98020",47.792163,-122.367589
"98020","Edmonds","WA","Edmonds Hardware And Paint","201 5th Ave S","98020",47.80971,-122.37757
"98020","Edmonds","WA","Marine Supply","not_available","98020",47.794761,-122.373283
"98021","Bothell","WA","Mason's Supply Company","not_available","98072",47.77959948118879,-122.15177514776536
"98021","Bothell","WA","Garage Door Repair Bothell","20804 Bothell Everett Hwy #D12","98021",47.80845667430778,-122.20792293548584
"98021","Bothell","WA","ProSource of Seattle","21312 30th Dr, SE Suite B107, Highlands Campus Tech Centre B","98021",47.8043671,-122.196018
"98022","Enumclaw","WA","Carpet Cleaning Enumclaw","McKean Court #85","98022",47.19216219325085,-122.00559854507448
"98022","Enumclaw","WA","Precision Chainsaw","not_available","98321",47.158093,-122.041772
"98022","Enumclaw","WA","Ace Hardware","830 Cole St","98022",47.197857,-121.995741
"98022","Enumclaw","WA","410 Rentals","25018 State Route 410 E","98321",47.16328,-122.09414
"98022","Enumclaw","WA","Tractor Supply Co.","911 Griffin Ave","98022",47.20263115162546,-121.98709388933922
"98022","Enumclaw","WA","Platt Electric Supply","28820 State Route 410 E","98321",47.158371,-122.045257
"98022","Enumclaw","WA","Garage Door Repair Enumclaw","718 Griffin Ave","98022",47.201334,-121.98604099999999
"98022","Enumclaw","WA","Gateway True Value Hardware","912 Griffin Ave","98022",47.201962,-121.987619
"98022","Enumclaw","WA","Arrow Hardware & Lumber","Hwy 410","not_available",47.158838,-122.050728
"98023","Federal Way","WA","minuteKEY","33702 21st Ave SW","98023",47.29830551147461,-122.35897064208984
"98023","Federal Way","WA","Northshore Ace Hardware","35419 21st Ave SW","98023",47.2841999,-122.3614
"98024","Fall City","WA","Platt Electric Supply","30200 SE 79th St Unit 100","98027",47.53090286254883,-121.94073486328125
"98024","Fall City","WA","Garage Door Repair Fall City","4240 335th Place Southeast","98024",47.56869390950649,-121.89346075057983
"98026","Edmonds","WA","Harbor Freight Tools","22111 Highway 99","98026",47.79861973925881,-122.33224955486072
"98026","Edmonds","WA","Dunn Lumber","16920 Highway 99","98037",47.845218,-122.29626999999999
"98026","Edmonds","WA","Carpet Cleaning Mukilteo","5400 Harbour Pointe Blvd #G153","98275",47.895259857177734,-122.30667114257812
"98026","Edmonds","WA","Convoy","not_available","98036",47.81393861337656,-122.31229300211088
"98026","Edmonds","WA","Carpet Cleaning Lynnwood","5620 200th St SW #A285","98036",47.81692123413086,-122.30934143066406
"98026","Edmonds","WA","Keller Supply Company","18503 Highway 99 #A","98037",47.83086013793945,-122.30560302734375
"98026","Edmonds","WA","Rich's for the Home - Lynnwood","16504 Pacific Highway","98037",47.8493407,-122.29433256
"98026","Edmonds","WA","C N C Service & Maintenance","22609 73rd Pl W","98043",47.79301,-122.33218
"98026","Edmonds","WA","Parker Paint","19402 60th Ave W","98036",47.823153999999995,-122.316625
"98026","Edmonds","WA","Rodda Paint","4419 200th St SW","98036",47.818067,-122.29468200000001
"98026","Edmonds","WA","Carpet Cleaning Mountlake Terrace","23009 Lakeview Dr #B379","98043",47.79011535644531,-122.32538604736328
"98026","Edmonds","WA","minuteKEY","4615 196th St SW","98036",47.82217788696289,-122.29554748535156
"98026","Edmonds","WA","Stoneway Electric Supply","20121 Cedar Valley Rd","98036",47.81595,-122.30107
"98026","Edmonds","WA","Platt Electric","21718 66th Ave W","98043",47.8016357421875,-122.32266998291016
"98026","Edmonds","WA","Platt Electric Supply","21718 66th Ave W Ste 106","98043",47.801625,-122.32275600000001
"98026","Edmonds","WA","Kuker-Ranken Inc.","6510 216th St SW Ste E","98043",47.80256,-122.321055
"98026","Edmonds","WA","Manor Hardware & Construction Supply","21323 68th Ave W","98036",47.80562317,-122.324524
"98026","Edmonds","WA","Nile Tile","highway 99","98036",47.809419,-122.324127
"98026","Edmonds","WA","Miller Paint Co","5009 196th St SW","98036",47.82155,-122.300898
"98027","Issaquah","WA","The Home Depot","6200 E Lke Samammish Pky","98029",47.5471068,-122.0368238
"98027","Issaquah","WA","Lowe's","1625 11th Avenue NW","98027",47.549145,-122.0565386
"98027","Issaquah","WA","The Grange Supply","145 NE Gilman Blvd","98027",47.53596,-122.03408
"98027","Issaquah","WA","Vale Apartments","995 7th Ave NW","98027",47.54012466,-122.04724501
"98027","Issaquah","WA","Sherwin-Williams Paint Store","5625 221st Pl SE","98027",47.550804138183594,-122.04602813720703
"98027","Issaquah","WA","minuteKEY","1625 11th Ave NW","98027",47.54896926879883,-122.05579376220703
"98027","Issaquah","WA","Sherwin-Williams Paint Store","3000 Issaquah Pine Lake Rd SE 1A","98075",47.582993,-122.03303000000001
"98027","Issaquah","WA","Sherwin-Williams Paint Store","710 NW Gilman Blvd","98027",47.544257,-122.04725400000001
"98027","Issaquah","WA","Issaquah Cedar & Lumber","5728 E Lake Sammamish Pkwy SE","98029",47.550242,-122.04203500000001
"98027","Issaquah","WA","Central Welding","not_available","98027",47.54002946,-122.03583822
"98027","Issaquah","WA","Parker Paint","1195 NW Gilman Blvd","98027",47.545353,-122.0563405752182
"98027","Issaquah","WA","Garage Door Repair Sammamish","2830 228th Ave SE #C","98075",47.58447265625,-122.0346908569336
"98027","Issaquah","WA","minuteKEY","6100 East Lake Sammamish prkwy SE","98027",47.54848098754883,-122.03855895996094
"98027","Issaquah","WA","Grandpas Workshop","3612 241st Ave SE","98029",47.57686233520508,-122.01830291748047
"98027","Issaquah","WA","BMC West","5210 E Lake Sammamish Pkwy SE","98029",47.55330743598123,-122.04471773846953
"98027","Issaquah","WA","Rodda Paint","1690 nw mall st","98027",47.544778,-122.061902
"98027","Issaquah","WA","Carpet Cleaning Sammamish","4317 Issaquah Pine Lake Rd SE #368","98075",47.568260192871094,-122.02879333496094
"98028","Kenmore","WA","Plywood Supply","6805-7003 NE 175th St","98028",47.757308,-122.245658
"98028","Kenmore","WA","Evergreen Topsoil, Sand & Gravel","17455 68th Ave NE Ste 303","98028",47.7573968,-122.2503162
"98028","Kenmore","WA","Sherwin-Williams Paint Store","6410 NE Bothell Way","98028",47.759046999999995,-122.256056
"98030","Kent","WA","The Home Depot","26120 104th Ave SE","98030",47.367132384247356,-122.20093206994056
"98030","Kent","WA","Sherwin-Williams Paint Store","25934 104th Ave SE","98030",47.370158,-122.200474
"98030","Kent","WA","Garage Door Repair Kent","10216 SE 256th St","98030",47.373113864228436,-122.20303058624266
"98030","Kent","WA","Rodda Paint","104th","98030",47.371600739224284,-122.20393062602743
"98030","Kent","WA","Forrest Paint Co","1741 Central Ave S","98032",47.363752000000005,-122.230502
"98030","Kent","WA","Sears","26019 104th Ave SE Ste 101","98030",47.36833259777086,-122.20229750806804
"98030","Kent","WA","Miller Paint Co","26023 104th Ave SE","98030",47.367802000000005,-122.20303799999999
"98030","Kent","WA","Kentox Equipment","640 Central Ave S","98032",47.37540817260742,-122.22969818115234
"98031","Kent","WA","Tractor Supply Co","8420 South 228th St","98031",47.398179,-122.226739
"98031","Kent","WA","McLendon Hardware","23662 104th Ave SE","98031",47.38849048535257,-122.20088871183816
"98031","Kent","WA","Tacoma Screw Products, Inc.","22123 84th Ave S","98032",47.403153393650335,-122.22898290315213
"98031","Kent","WA","Platt Electric Supply","7604 S 212th St","98032",47.412,-122.23
"98031","Kent","WA","Dowell Co","not_available","98031",47.38938541901998,-122.23056670280936
"98031","Kent","WA","Stusser Electric Co.","21520 84th Pl S","98031",47.409549,-122.22630600000001
"98031","Kent","WA","H&E Equipment Services","8810 S 208th St","98031",47.416804,-122.22273100000001
"98032","Kent","WA","Lowe's","24050 Pacific Highway South","98032",47.3856447,-122.2943599
"98032","Kent","WA","Harbor Freight Tools","18128 E Valley Hwy","98032",47.43947268868602,-122.22101704245304
"98032","Kent","WA","HD Supply","not_available","98032",47.414704992606794,-122.26217477034426
"98032","Kent","WA","GTS Interior Supply","8212 South 196th Street","98032",47.426722999999996,-122.23141100000001
"98032","Kent","WA","GraybaR","21804 64th Ave S","98032",47.40650177001953,-122.25325012207031
"98032","Kent","WA","Trivantage","18417 Cascade Ave S","98188",47.435232,-122.250317
"98032","Kent","WA","Sears","18340 - 18350 Olympic Ave S","98188",47.43816342684223,-122.25040007382631
"98032","Kent","WA","Tool Town","not_available","98198",47.389169,-122.296067
"98032","Kent","WA","T & A Supply","6800-7000 S 217th St","98032",47.40813064575195,-122.24784851074219
"98032","Kent","WA","minuteKEY","24050 Pacific Hwy S","98032",47.3855094909668,-122.2947769165039
"98032","Kent","WA","HD Supply White Cap","7820 S 210th St","98032",47.414657,-122.234417
"98032","Kent","WA","White Cap Construction Supply","7820 S 210th St Ste 101","98032",47.41425704956055,-122.23432922363281
"98032","Kent","WA","Sherwin-Williams Paint Store","23250 Pacific Hwy S","98032",47.392523,-122.294892
"98032","Kent","WA","Oliver Machinery","6902 S 194th St","98032",47.429165999999995,-122.248056
"98033","Kirkland","WA","Town Center Hardware","6613 132nd Ave NE","98033",47.66503409762103,-122.16567250115307
"98033","Kirkland","WA","Sherwin-Williams Paint Store","10609 NE 68th St","98033",47.665795,-122.198108
"98033","Kirkland","WA","Crescent Lighting","11251 120th Ave NE","98033",47.701212,-122.18184199999999
"98033","Kirkland","WA","The Integrated Group, Inc.","8259 122nd Ave NE","98033",47.67850709422023,-122.17835426330566
"98033","Kirkland","WA","Tacoma Screw Products, Inc.","11200 120th Ave NE","98033",47.700324,-122.180654
"98033","Kirkland","WA","Garage Door Repair Kirkland","11251 120th Ave NE #334","98033",47.70111846923828,-122.18173217773438
"98033","Kirkland","WA","West Coast Paint Supply","12016 NE 85th St","98033",47.68067,-122.179429
"98033","Kirkland","WA","Ewing Irrigation","815 8th St","98033",47.6819658882639,-122.19358697534972
"98033","Kirkland","WA","Mallory Paint Store","12629 NE 85th St","98033",47.679834,-122.17189599999999
"98033","Kirkland","WA","GTS Interior Supply","10819 120th Avenue Northeast","98033",47.69746,-122.18316
"98034","Kirkland","WA","Dunn Lumber","11835 120th Ave NE","98034",47.706879528422824,-122.1820251688736
"98034","Kirkland","WA","Pacific Power Batteries","not_available","98034",47.710982,-122.16383
"98034","Kirkland","WA","Carpet Cleaning Kirkland","10009 NE 120th Ln Apt B285","98034",47.70899963378906,-122.20702362060547
"98034","Kirkland","WA","minuteKEY","12221 120th Ave NE","98034",47.70835876464844,-122.18419647216797
"98034","Kirkland","WA","Sherwin-Williams Paint Store","12731 NE 124th St","98034",47.709959999999995,-122.170754
"98034","Kirkland","WA","Stoneway Electric","13424 NE 126th Pl","98034",47.71455,-122.15971699999999
"98036","Lynnwood","WA","Lowe's","3100 196th SW","98036",47.8197856,-122.27656
"98036","Lynnwood","WA","Ace Hardware","22803 44th Ave W","98043",47.791383388495,-122.291717733139
"98036","Lynnwood","WA","Sherwin-Williams Paint Store","4201 196th St SW","98036",47.821555,-122.289449
"98036","Lynnwood","WA","Western Tool & Supply","19029 36th Ave W Ste A","98036",47.82585144042969,-122.27994537353516
"98036","Lynnwood","WA","PROTECTIVE SYSTEMS OF WASHINGTON","19009 33rd Ave W #330","98036",47.82611083984375,-122.27691650390625
"98037","Lynnwood","WA","minuteKEY","164th St SW","98087",47.8499718,-122.2672792
"98037","Lynnwood","WA","Glenn's Welding","16515 Alderwood Mall Pkwy","98037",47.84883117675781,-122.27019500732422
"98037","Lynnwood","WA","Fiberglass Mart","12619 Washington 99","98204",47.84813,-122.27327
"98037","Lynnwood","WA","minuteKEY","2902 164th St S.W.","98037",47.8481104,-122.2721693
"98038","Maple Valley","WA","Johnsons Home And Garden","23290 SE Kent Kangley Rd","98038",47.36274048487983,-122.02305127285877
"98038","Maple Valley","WA","Garage Door Repair Maple Valley","23832 SE Kent Kangley Rd","98038",47.36116754211261,-122.02252864837646
"98038","Maple Valley","WA","Sherwin-Williams Paint Store","27012 Maple Valley Black Diamond Rd SE","98038",47.359722,-122.018391
"98038","Maple Valley","WA","Carpet Cleaning Covington","20216 SE 258th St #12","98042",47.37105941772461,-122.07183074951172
"98038","Maple Valley","WA","Carpet Cleaning Maple Valley","213th Place Southeast #187","98038",47.361182076994965,-122.05561637878418
"98038","Maple Valley","WA","Maple Crossing Apartments","21900 Southeast Wax Road","98038",47.39072913,-122.05075261
"98040","Mercer Island","WA","Carpet Cleaning Mercer Island","2980 76th Ave SE #395","98040",47.58212661743164,-122.2374267578125
"98042","Kent","WA","The Home Depot","27027 185th Ave SE","98042",47.359812146735166,-122.09740787744522
"98042","Kent","WA","Mallory Paint Store","16929 SE 270th Pl # B1221","98042",47.35857009887695,-122.1153564453125
"98042","Kent","WA","Sherwin-Williams Paint Store","17709 SE 272nd St","98042",47.357523,-122.105566
"98043","Mountlake Terrace","WA","The 205 Apartments","1795 NE 205th St","98155",47.7772836,-122.30990029
"98045","North Bend","WA","NORTH BEND ACE HARDWARE","330 Main Ave S","98045",47.493025,-121.78752
"98045","North Bend","WA","Ace Hardware","330 Main","98045",47.453388574540114,-121.71210877539315
"98045","North Bend","WA","Carmichael's","8150 Falls Ave S E","98065",47.52728668,-121.823361
"98045","North Bend","WA","Stihl","352 E. North Bend Way","not_available",47.493446350097656,-121.78218841552734
"98047","Pacific","WA","Manke Lumber Co.","13702 Stewart Rd","98390",47.24602508544922,-122.24510192871094
"98052","Redmond","WA","The Home Depot","17777 NE 76th St","98052",47.6696929,-122.1031172
"98052","Redmond","WA","Ewing Irrigation Supply","not_available","98052",47.68125823,-122.1406497
"98052","Redmond","WA","Fastened","9125 Willows Rd NE","98052",47.683818,-122.144814
"98052","Redmond","WA","Avrio Surfaces","9289 151st Avenue NE","98052",47.6846267785235,-122.139374765101
"98052","Redmond","WA","Rodda Paint","17836 NE 65th St","98052",47.664484,-122.102777
"98052","Redmond","WA","Sherwin-Williams Paint Store","18014 Redmond Way","98052",47.66551741396583,-122.09889650344847
"98052","Redmond","WA","Pollardwater","17515 Ne 67th Ct","98052",47.6652463316583,-122.106434321608
"98052","Redmond","WA","Keller Kitchen & Bath Showcase Redmond","18317 NE 76th St","98052",47.671594,-122.096397
"98052","Redmond","WA","United Pipe & Supply","14515 NE 87th St","98052",47.68008699,-122.14623412
"98052","Redmond","WA","Sherwin-Williams Commercial Paint Store","15340 NE 92nd St Ste C1","98052",47.684488,-122.14328799999998
"98053","Redmond","WA","Mallory Paint Store","not_available","98074",47.6148694882768,-122.03408490479444
"98055","Renton","WA","McLendon Hardware","440 Rainier Ave S","98057",47.47787233588359,-122.21477926317621
"98055","Renton","WA","Lumber Market","not_available","98057",47.455302,-122.21741499999999
"98056","Renton","WA","Lowe's","1000 Garden Ave N","98057",47.5002609,-122.1990762
"98056","Renton","WA","Sherwin-Williams Paint Store","206 Wells Ave S","98057",47.480297,-122.20499699999999
"98056","Renton","WA","Dunn Lumber","120 Factory Ave N","98057",47.485181,-122.197643
"98056","Renton","WA","Central Welding Supploes","1200 Union Ave NE","98059",47.503088,-122.164198
"98056","Renton","WA","Keller Supply","925 Houser Way N","98057",47.5011,-122.198149
"98056","Renton","WA","Miller Paint Co","350 Sunset Blvd N Ste C","98057",47.488006,-122.194043
"98056","Renton","WA","Parker Paint","206 Wells Ave","not_available",47.481011,-122.205158
"98056","Renton","WA","Platt Electric Supply","801 Houser Way N Ste B","98057",47.497391,-122.19620400000001
"98057","Renton","WA","The Home Depot","6810 S 180th St","98188",47.443232985016465,-122.24837064743042
"98057","Renton","WA","Lowe's","101 Andover Park East","98188",47.4605468,-122.2509428
"98057","Renton","WA","Mallory Paint Store","339 Tukwila Parkway","98188",47.461009000000004,-122.253231
"98057","Renton","WA","Ferguson Fire & Fabrication","700 Sw 41st St","98057",47.444346,-122.226841
"98057","Renton","WA","E.J. Bartells Insulation","700 Powell Ave SW","98057",47.472876,-122.23016499999999
"98057","Renton","WA","Garage Door Repair Tukwila","100 Andover Park W #150","98188",47.459999084472656,-122.25332641601562
"98057","Renton","WA","Sherwin-Williams Commercial Paint Store","16650 W Valley Hwy","98188",47.453644,-122.242828
"98057","Renton","WA","minuteKEY","101 Andover Park E","98188",47.460330963134766,-122.25154876708984
"98057","Renton","WA","Carpet Cleaning Tukwila","15335 Sunwood Blvd Apt C291","98188",47.46460723876953,-122.25747680664062
"98057","Renton","WA","Bryant's Tractor","not_available","98055",47.46850153731464,-122.2211088074234
"98057","Renton","WA","Reliable Parts","1051 Andover Park W","98188",47.447031,-122.25485706666667
"98058","Renton","WA","Fairwood Ace Hardware","14100 SE Petrovitsky Rd","98058",47.445323,-122.15273
"98059","Renton","WA","Highlands Ace Hardware","4601 NE Sunset Blvd","98059",47.5055219,-122.15703
"98059","Renton","WA","Sherwin-Williams Paint Store","not_available","98059",47.504999,-122.158291
"98070","Vashon","WA","Island Home Center And Lumber","17633 97th Pl SW","98070",47.446419,-122.458701
"98070","Vashon","WA","Vashon Ace Hardware","9750 SW Bank Rd","98070",47.448144,-122.45981499999999
"98072","Woodinville","WA","Carpet Cleaning Woodinville","14124 NE 181st Pl #H348","98072",47.7591552734375,-122.15193939208984
"98072","Woodinville","WA","Washington State Closets","8425 219th St SE","98072",47.79867,-122.1198665
"98072","Woodinville","WA","Mallory Paint Store","13320 NE 175th St","98072",47.755608,-122.161296
"98072","Woodinville","WA","Locksmith Woodinville","14124 NE 181st Pl #11","98072",47.7591552734375,-122.15193939208984
"98072","Woodinville","WA","Platt Electric Supply","20103 Woodinville Snohomish Rd NE","98072",47.772954999999996,-122.15441000000001
"98072","Woodinville","WA","Ferguson Waterworks","24025 Snohomish-Woodinville Rd","98072",47.778814389421726,-122.1477879597101
"98072","Woodinville","WA","Garage Door Repair Woodinville","17530 132nd Ave NE #B16","98072",47.75529098510742,-122.16268920898438
"98072","Woodinville","WA","Sherwin-Williams Paint Store","14041 NE Woodinville Duvall Rd","98072",47.753192999999996,-122.15053999999999
"98072","Woodinville","WA","Foundation Building Materials","21415 87th Avenue Southeast","98072",47.80266844,-122.11464147
"98072","Woodinville","WA","Garage Door Repair Woodinville","17260 NE Woodinville Duvall Rd","98077",47.76161353418927,-122.1091318130493
"98087","Lynnwood","WA","Ace Hardware","12680 Mukilteo Speedway","98275",47.8832,-122.2806
"98087","Lynnwood","WA","Ferguson Plumbing Supply","1012 132nd Sw","98204",47.878172,-122.24758500000002
"98087","Lynnwood","WA","Sherwin-Williams Floorcovering Store","12512 Beverly Park Rd","98087",47.8851318359375,-122.27896881103516
"98087","Lynnwood","WA","American Building & Roofing (ABR)","12807 Washington 99","98204",47.881339000000004,-122.26453799999999
"98087","Lynnwood","WA","A New Door Supply","12413 Washington 99","98204",47.88662142,-122.2609637
"98087","Lynnwood","WA","Sherwin-Williams Commercial Store","12122 Mukilteo Speedway","98275",47.88792037963867,-122.28436279296875
"98087","Lynnwood","WA","H&E Equipment Services","12406 Mukilteo Speedway","98275",47.885551,-122.28285600000001
"98087","Lynnwood","WA","Sherwin-Williams Paint Store","12502 Mukilteo Speedway","98275",47.88438415527344,-122.2815933227539
"98087","Lynnwood","WA","Swift Tool Company","Washington 99 # 3","98204",47.886143,-122.262924
"98087","Lynnwood","WA","Carpet Cleaning Everett","12419 4th Ave W #5124","98204",47.884639739990234,-122.23802185058594
"98087","Lynnwood","WA","Larry's Plumbing Supply","1624 Grove St","98270",48.0609858,-122.1742407
"98101","Seattle","WA","Hero Ace Hardware","1915 4th Ave","98101",47.612399,-122.33893
"98101","Seattle","WA","State Roofing","815 1st Ave #261","98104",47.603538513183594,-122.33550262451172
"98101","Seattle","WA","Seattle Plumbing","1000 2nd Ave #506","98104",47.605729024417265,-122.33532786369324
"98101","Seattle","WA","Alchemy Collections","2111 1st Avenue","98121",47.611897,-122.344499
"98101","Seattle","WA","Alta Floors and Tile","391 Spring St","98154",47.60698767090499,-122.33349323272705
"98101","Seattle","WA","Greene's Hardware","909 Western Ave","98104",47.60369873046875,-122.33712005615234
"98101","Seattle","WA","Fastenal Belltown","7th","98121",47.617058,-122.341447
"98101","Seattle","WA","monkeys ball bustin factory","not_available","98121",47.614609992426495,-122.34496615480693
"98101","Seattle","WA","Elliott Bicycle Hardware","2315 Western Ave","98121",47.612850189208984,-122.34818267822266
"98102","Seattle","WA","Where They Build The Future","40210th Ave E","98102",47.62125313282013,-122.32001781463623
"98102","Seattle","WA","Marine Sanitation","not_available","98103",47.647456,-122.33444399999999
"98103","Seattle","WA","Greenwood Hardware","7201 Greenwood Ave N","98103",47.68094188861832,-122.35548259278455
"98103","Seattle","WA","Stoneway Hardware & Supply","4318 Stone Way N","98103",47.6597138,-122.3418523
"98103","Seattle","WA","Dunn Lumber Seattle","3801 Latona Ave NE","98105",47.65376166646746,-122.32595221479997
"98103","Seattle","WA","Tweedy And Popp Hardware","1815 N 45th St","98103",47.66129266389,-122.33553873214382
"98103","Seattle","WA","Aurora Rents - Green Lake","8800 Aurora Ave N","98103",47.6926459294704,-122.34415391369802
"98103","Seattle","WA","Northwest Metals & Salvage Service, Inc.","9607 Aurora Ave N","98103",47.699049,-122.345047
"98103","Seattle","WA","Daly's","3525 Stone Way N","98103",47.650278654338976,-122.34296271674376
"98103","Seattle","WA","Morgan's Kitchen and PLumbing","3627 Stone Way N","98103",47.651489,-122.343213
"98103","Seattle","WA","Life Time Garage Door","513 N 36th St #B","98103",47.65051529631947,-122.34960794448853
"98103","Seattle","WA","Stoneway Electric Supply","3665 Stone Way N","98103",47.652383,-122.342974
"98103","Seattle","WA","Northwest Caster & Equipment","4111 Aurora Ave N, Seattle, WA 98103","98103",47.65462639683865,-122.34944294515934
"98103","Seattle","WA","PNA Tool Library","6615 Dayton Ave N","98103",47.677398681640625,-122.35279083251953
"98103","Seattle","WA","8825 Rental","8825 Wallingford Ave N","98103",47.693164,-122.33683
"98103","Seattle","WA","Ace Garage Door","7900 E Green Lake Dr N #103","98103",47.68661136315257,-122.3399305343628
"98103","Seattle","WA","W.L. May Co.","9801 Aurora Ave N","98103",47.700598,-122.344894
"98103","Seattle","WA","Ace Hardware","1815 N 45th St Ste 112","98103",47.661557,-122.33475
"98103","Seattle","WA","Aurora Lawnmower","7323 Aurora Ave N","98103",47.68284590450746,-122.34573662508147
"98103","Seattle","WA","Michaelo Espresso","3801 Stone Way N","98103",47.65272,-122.342338
"98104","Seattle","WA","Aarons Copier & Printer Service","999 E Cherry St","98122",47.60789489746094,-122.3197250366211
"98104","Seattle","WA","Space Key Lock Services","212 12th Ave S","98144",47.60051345825195,-122.31685638427734
"98104","Seattle","WA","FlashDrivePros LLC","#552","98122",47.61189176311884,-122.3195457458496
"98104","Seattle","WA","Metroline Flats","915 E Spruce St","98122",47.60328307,-122.31981373
"98105","Seattle","WA","City People Sandpoint True Value","5440 Sandpoint Way Ne","98105",47.66817546761758,-122.27608982041204
"98105","Seattle","WA","Hardwick's Hardware","4214 Roosevelt Way NE","98105",47.65871118866236,-122.31757944595266
"98105","Seattle","WA","Lee's Keys & Locks","2617 NE University Village St","98105",47.662986755371094,-122.29927062988281
"98105","Seattle","WA","Sherwin-Williams Paint Store","2909 NE Blakeley St","98105",47.6655851993061,-122.29657315549818
"98105","Seattle","WA","Elite Garage door","4730 University Way NE #104","98105",47.665763077511414,-122.31310844421387
"98106","Seattle","WA","The Home Depot","7345 Delridge Way SW","98106",47.53639525495371,-122.36387729644775
"98106","Seattle","WA","The Home Depot","2701 Utah Ave South","98134",47.5789404,-122.3359326
"98106","Seattle","WA","Rejuvenation Hardware","2910 1st Ave S","98134",47.57735659932203,-122.33398978459859
"98106","Seattle","WA","Crosscut Hardwoods","4100 1st Ave S","98134",47.566884,-122.3336
"98106","Seattle","WA","Sherwin-Williams Paint Store","7305 Delridge Way SW","98106",47.53734592558488,-122.36198633909225
"98106","Seattle","WA","Crosscut","Dakota St","98134",47.56705322215043,-122.33359736804363
"98106","Seattle","WA","West Seattle Tool Library","4408 Delridge Way SW","98106",47.564049218864795,-122.3628704996091
"98106","Seattle","WA","Seattle Primier Garage Door Repair","Seattle","98106",47.534790845999176,-122.3557448387146
"98106","Seattle","WA","Old Aspen Paint Factory","1128 SW Spokane St","98134",47.572023,-122.351324
"98106","Seattle","WA","Lumber Liquidators, Inc.","3300 1st Ave S Ste 200","98134",47.5740938260715,-122.33356172636303
"98106","Seattle","WA","Habitat for Humanity Home Improvement Outlet","21 S Nevada St","98134",47.565409,-122.341631
"98106","Seattle","WA","Seattle Stone","2909 1st Ave S","98134",47.577309,-122.334183
"98106","Seattle","WA","Sears","4798 1st Ave S","98134",47.558369,-122.333228
"98106","Seattle","WA","Berg Scaffolding","not_available","98126",47.582379,-122.373066
"98106","Seattle","WA","Dong Vinh","3201 Utah Ave S","98134",47.575256,-122.33561200000001
"98106","Seattle","WA","Omni Packing & Seal Co.","132 S Orcas St","98108",47.55209033292973,-122.33279846029785
"98106","Seattle","WA","Western Waterproofing Company","4429 S Oregpn St","98134",47.56317,-122.33914196491241
"98106","Seattle","WA","Ferguson Plumbing Supply","4100 W Marginal Way Sw","98106",47.567007755564404,-122.35287628955986
"98106","Seattle","WA","Mallory Safety & Supply Co.","5510 E Marginal Way S","98134",47.553037961989425,-122.33630646039894
"98106","Seattle","WA","Ecohaus","4121 1st Ave S","98134",47.567324,-122.33523999999998
"98106","Seattle","WA","Windows101","7900 Occidental Ave S #4","98108",47.531369,-122.333793
"98106","Seattle","WA","Sharp Shop","128 S Lucile St","98108",47.553707,-122.33270700000001
"98107","Seattle","WA","Stoneway Hardware","5000 15th Ave NW","98107",47.66473599863736,-122.37577397795697
"98107","Seattle","WA","Sherwin-Williams Paint Store","5500 14th Ave NW","98107",47.668957,-122.37313999999999
"98107","Seattle","WA","Pavingstone Supply, Inc.","4401 11th Ave NW","98107",47.66101820814218,-122.37096447424322
"98107","Seattle","WA","Limback Lumber","5598 26th Ave. NW","98107",47.668764,-122.3903456
"98107","Seattle","WA","Tacoma Screw Products, Inc.","3920 Leary Way NW","98107",47.653830238569086,-122.35954280648723
"98107","Seattle","WA","Sherwin-Williams Paint Store","1436 NW Leary Way","98107",47.664031,-122.37528999999999
"98107","Seattle","WA","Ballard Hardware","4749 Ballard Ave NW","98107",47.66359,-122.38061599999999
"98107","Seattle","WA","Davey Jones' School for Wayward Sailors","4512 14th Ave NW","98107",47.661861419677734,-122.373291015625
"98107","Seattle","WA","Redden Marine Supply","1080 W Ewing St","98119",47.656014,-122.369251
"98107","Seattle","WA","HD Supply White Cap","4121 6th Ave NW","98107",47.657421,-122.363849
"98107","Seattle","WA","Home Builders Center","1110 W Nickerson St","98119",47.655336,-122.37195600000001
"98107","Seattle","WA","Miller Paint Co","1500 NW Leary Way","98107",47.664117,-122.37665600000001
"98107","Seattle","WA","Hjorth Consulting","4601 Leary Way NW","98107",47.66217,-122.368539
"98107","Seattle","WA","Platt Electric Supply","4601 11th Ave NW","98107",47.662427,-122.37116599999999
"98107","Seattle","WA","Consolidated  Plumbing Supply","not_available","98107",47.657961,-122.366225
"98107","Seattle","WA","Sure Marine Service","5320 28th Ave NW","98107",47.667713,-122.39256699999999
"98107","Seattle","WA","NautilusNet.com","803 NW Market St","98107",47.668386,-122.36664499999999
"98107","Seattle","WA","American Hose and Fittings inc.","1121 NW 45th St, Seattle, WA 98107","98107",47.6607780456543,-122.37222290039062
"98107","Seattle","WA","Nebar Hose & Fittings","4478 Shilshole Ave NW","98107",47.66447540857787,-122.38112684284418
"98108","Seattle","WA","Harbor Freight Tools","6205 Corson Ave S","98108",47.547012352568714,-122.32204187329054
"98108","Seattle","WA","Pental Granite & Marble","713 S Fidalgo St","98108",47.54930963315409,-122.32405856738052
"98108","Seattle","WA","Rodda","not_available","98134",47.568661999999996,-122.328547
"98108","Seattle","WA","Master Wholesale Inc.","520 S Front St","98108",47.548515,-122.327697
"98108","Seattle","WA","Grainger Industrial Supply","6141 4th Ave S","98108",47.557686,-122.33021000000001
"98108","Seattle","WA","DMH Electric / KJM Electric Co","521 S Monroe St","98108",47.531051,-122.327001
"98108","Seattle","WA","Sherman Supply Co","300 S Lucile St","98108",47.55362319946289,-122.33064270019531
"98108","Seattle","WA","marine lumber","not_available","98108",47.531952013633806,-122.32629430515394
"98108","Seattle","WA","Miller Paint Co.","5959 Corson Ave S","98108",47.549107,-122.32181100000001
"98108","Seattle","WA","Sherwin-Williams Product Finishes","9530 10th Ave S","98108",47.51791000366211,-122.31951904296875
"98108","Seattle","WA","MI Controls","6516 5th Pl S","98108",47.545437,-122.327204
"98108","Seattle","WA","West Coast Wire Rope and Rigging","7777 7th Ave S","98108",47.533041,-122.32601299999999
"98108","Seattle","WA","McGuire Bearing Company","780 S Michigan St","98108",47.547795,-122.323086
"98108","Seattle","WA","Pacific Rubber","6720 E Marginal Way S.","98108",47.543418,-122.327855
"98108","Seattle","WA","Kelly Moore Paints","6101 Airport Way S","98108",47.548107,-122.315696
"98108","Seattle","WA","Fasteners Of Seattle, WA","309 S Cloverdale St Ste A1","98108",47.5255443,-122.3303027
"98108","Seattle","WA","Coast Construction Supply","5914 Maynard Ave S","98108",47.5536,-122.32583400000001
"98108","Seattle","WA","Fittings, Inc.","5979 4th Ave S","98108",47.548213,-122.33006699999999
"98109","Seattle","WA","Accurate Safe & Lock","512 1/2 2nd Ave W","98119",47.62592252642954,-122.35842235807085
"98110","Bainbridge Island","WA","Bainbridge Island Ace Hardware","635 High School Rd NE","98110",47.63562,-122.51354
"98110","Bainbridge Island","WA","Carpet Cleaning Bainbridge Island","145 Ferncliff Ave NE #D523","98110",47.62554931640625,-122.51069641113281
"98110","Bainbridge Island","WA","The Chandlery Marine at Winslow Wharf","133 Parfitt Way SW","98110",47.622126,-122.5214
"98110","Bainbridge Island","WA","Dsc Inc","3203 NE Totten Rd Ste F","98370",47.706912,-122.59938899999999
"98110","Bainbridge Island","WA","Schmidt Appliance And Sleep Center","not_available","98110",47.632521416221465,-122.51590059697234
"98110","Bainbridge Island","WA","Builders FirstSource","1365 Wintergreen Lane NE","98110",47.63858496145179,-122.51454500454786
"98110","Bainbridge Island","WA","Garage Door Repair Bainbridge Island","911 Hildebrand Ln NE","98110",47.632799,-122.517596
"98112","Seattle","WA","City People's Garden Store","2939 E Madison St","98112",47.62450105854662,-122.29438083222391
"98112","Seattle","WA","Madison Park Hardware","1837 42nd Ave E","98112",47.635711,-122.2788
"98115","Seattle","WA","Ace Hardware","9000 Roosevelt Way NE","98115",47.69419369677463,-122.31739706369416
"98115","Seattle","WA","Plus Garage Door","8072 Lake City Way NE #A","98115",47.687889099121094,-122.31134033203125
"98116","Seattle","WA","Junction True Value Hardware","4747 44th Ave Sw","98116",47.55964,-122.38857
"98116","Seattle","WA","J & m remodel and repair","4701 SW Admiral Way","98116",47.580875396728516,-122.39208221435547
"98117","Seattle","WA","Stanley Garage Door","7358 15th Ave NW #101","98117",47.68312,-122.37650900000001
"98117","Seattle","WA","Morgan Electric & Plumbing","8055 15th Ave NW","98117",47.688265,-122.37718500000001
"98117","Seattle","WA","Ballard Lock & Key","not_available","98117",47.68292304945676,-122.36135510863942
"98117","Seattle","WA","Cunningham Hardware","9999 Holman Rd NW","98117",47.70194625854492,-122.36383056640625
"98117","Seattle","WA","Crown Hill Hardware","7759 15th Ave NW","98117",47.686737,-122.37713000000001
"98117","Seattle","WA","Windorco","1201 NW 92d","98117",47.696079,-122.371394
"98118","Seattle","WA","Sherwin-Williams Paint Store","8824 Rainier Ave S","98118",47.523695000000004,-122.26961499999999
"98118","Seattle","WA","Garage Door Repair Seattle","3703 S Edmunds St","98118",47.55854034423828,-122.28588104248047
"98118","Seattle","WA","Soreano's Plumbing","not_available","98118",47.558076,-122.28589699999999
"98118","Seattle","WA","Burdicks security","4700 Rainier Ave S","98118",47.56050266101166,-122.2864922389162
"98118","Seattle","WA","Steeler, Inc.","10023 Martin Luther King Jr Way S","98178",47.50982209674327,-122.27882163751796
"98118","Seattle","WA","GTS Interior Supply","9830 40th Avenue South","98118",47.5125699,-122.28120146
"98119","Seattle","WA","Sherwin-Williams Paint Store","2500 15th Ave W","98119",47.640952,-122.37588799999999
"98119","Seattle","WA","Five Corners Hardware","305 W McGraw St","98119",47.6358999,-122.36579
"98119","Seattle","WA","Blackstock Lumber","1039 Elliott Ave W","98119",47.627952,-122.37101399999999
"98119","Seattle","WA","Builder's Hardware & Supply","1516 15th Ave W","98119",47.63291243757553,-122.37572248722388
"98122","Seattle","WA","Pacific Supply Co.","1417 12th Ave","98122",47.61347985647471,-122.31705133568504
"98122","Seattle","WA","Perkins Glass & Mirror","1420 Broadway","98122",47.613566,-122.320348
"98122","Seattle","WA","Carpet Cleaning Seattle","1520 15th Ave #128","98122",47.6148681640625,-122.31253051757812
"98122","Seattle","WA","Royal Lock&Key LLC","1605 12th Ave #14","98122",47.6155891418457,-122.31714630126953
"98122","Seattle","WA","Best Garage Door","1918 E Yesler Way #C","98122",47.60164906554275,-122.30813026428223
"98122","Seattle","WA","Seattle best garage door repair Inc.","Seattle","98122",47.61218107572823,-122.30585575103761
"98125","Seattle","WA","Tweedy & Popp Lake City Ace Hardware","3040 NE 127th St","98125",47.7212,-122.2954
"98125","Seattle","WA","Pro-Wide Glass Inc","14317 Lake City Way NE","98125",47.7326354,-122.2929395
"98125","Seattle","WA","Hansen Light And Shade","not_available","98125",47.706968,-122.30129
"98125","Seattle","WA","Giant Garage Door","543 NE Northgate Way #K","98125",47.708072662353516,-122.3214111328125
"98125","Seattle","WA","minuteKEY","13000 Lake City Way NE","98125",47.72370529174805,-122.29232788085938
"98125","Seattle","WA","Sherwin-Williams Paint Store","13318 Lake City Way NE","98125",47.72521574817691,-122.29211211204527
"98125","Seattle","WA","Rockler Woodworking","832 NE Northgate Way","not_available",47.709821000000005,-122.320027
"98125","Seattle","WA","Aurora Rents - Lake City","12558 Lake City Way NE","98125",47.721165,-122.293632
"98126","Seattle","WA","Alki Lumber","4422 36th Ave SW","98126",47.563683000000005,-122.376998
"98133","Seattle","WA","The Home Depot","11616 Aurora Ave N","98133",47.7140634,-122.3429597
"98133","Seattle","WA","Lowe's","12525 Aurora Avenue North","98133",47.720581,-122.346878
"98133","Seattle","WA","The Home Depot","1335 N 205th St","98133",47.7761441,-122.3418464
"98133","Seattle","WA","Sherwin-Williams Paint Store","15242 Aurora Ave N","98133",47.739835,-122.34378999999998
"98133","Seattle","WA","Pioneer Builders Supply","924 N 137th St","98133",47.729209999999995,-122.34693999999999
"98133","Seattle","WA","Tweed & Pop Ace Hardware","626 NW Richmond Beach Rd","98177",47.765952,-122.36441699999999
"98133","Seattle","WA","Miller Paint Co","12012 Aurora Ave N","98133",47.716319,-122.344296
"98133","Seattle","WA","minuteKEY","12525 Aurora Ave N","98133",47.720542907714844,-122.34700775146484
"98133","Seattle","WA","Sherwin-Williams Paint Store","10342 Aurora Ave N","98133",47.704503,-122.344226
"98133","Seattle","WA","Parker Paint","not_available","98133",47.73325006,-122.3452829
"98133","Seattle","WA","Garage Door Repair Shoreline","15507 Westminster Way N","98133",47.742785999999995,-122.349998
"98133","Seattle","WA","Mallory Paint Store Shoreline","18811 Aurora Ave N","98133",47.765341,-122.34656299999999
"98133","Seattle","WA","Anderson's Door Company","12714 Aurora Ave N","98133",47.721788000000004,-122.34454199999999
"98133","Seattle","WA","Benjamin Moore Paint","18811 Aurora Ave N","not_available",47.765107,-122.34639465808868
"98133","Seattle","WA","Ferguson Plumbing Supply","16340 Aurora Ave N","98133",47.748214000000004,-122.34493799999998
"98133","Seattle","WA","Aurora Rents - Shoreline","17460 Aurora Ave N","98133",47.75570017,-122.345083
"98133","Seattle","WA","Carpet Cleaning Shoreline","18910 8th Ave NW Apt 217","98177",47.765817999999996,-122.365954
"98133","Seattle","WA","Sears","15711 1/2 Aurora Avenue N","98133",47.7433319,-122.3471644
"98134","Seattle","WA","GS Building Supply Inc.","3200 4th Ave S","98134",47.575266,-122.328395
"98134","Seattle","WA","Keller Supply","737 S Stacy St","98134",47.581540999999994,-122.324122
"98134","Seattle","WA","Stoneway Electrical Supply","1924 4th Ave S","98134",47.585136999999996,-122.328253
"98134","Seattle","WA","Pacific Iron & Metal","2230 4th Ave S","98134",47.58269182567467,-122.32882058963442
"98134","Seattle","WA","Sherwin-Williams Commercial Paint Store","2940 6th Ave S","98134",47.57647705078125,-122.3255844116211
"98134","Seattle","WA","Greendepot","1950 6th Ave S","98134",47.584449768066406,-122.32552337646484
"98134","Seattle","WA","Platt Electrical Supply","2757 6th Ave S","98134",47.578276,-122.32670800000001
"98134","Seattle","WA","Mallory Paint Store","2933 4th Ave S","98134",47.57672946490781,-122.3296031929087
"98134","Seattle","WA","Parker Paint - SODO","2924 4th Ave S","98134",47.5770106,-122.32854898
"98134","Seattle","WA","Specialty Bottle Supply","3434 4th Ave S","98134",47.572992,-122.328203
"98134","Seattle","WA","Commercial Filter Sales","2715 6th Ave S","98134",47.579389,-122.32694199999999
"98144","Seattle","WA","Lowe's","2700 Rainier Avenue South","98144",47.5797254,-122.2977626
"98144","Seattle","WA","Stewart Lumber & Hardware Co.","1761 Rainier Ave S","98144",47.587289,-122.305432
"98144","Seattle","WA","KDL Hardware Supply","850 Poplar Pl S","98144",47.594256,-122.311393
"98144","Seattle","WA","Royal Glass","1214 S Weller St","98144",47.597792,-122.316446
"98144","Seattle","WA","Davis Door","2021 S Grand St","98144",47.58659098998083,-122.30577769533275
"98144","Seattle","WA","minuteKEY","2700 Rainier Ave S","98144",47.579566955566406,-122.29737091064453
"98146","Seattle","WA","McLendon Hardware","10210 16th Ave SW","98146",47.51169019558085,-122.3546521091375
"98148","Seattle","WA","Burien Ace Hardware","14903 4th Ave SW Ste 100","98166",47.47032,-122.3402
"98148","Seattle","WA","Dunn Lumber Normandy Park","17635 1st Ave S","98148",47.443983,-122.335527
"98148","Seattle","WA","Burien Sand And Gravel","18203 Des Moines Memorial Dr S","98148",47.439691,-122.324352
"98148","Seattle","WA","Ace Hardware","19901 1st Ave S Ste 402","98148",47.42393,-122.33713300000001
"98148","Seattle","WA","Sherwin-Williams Paint Store","15833 1st Ave S","98148",47.460504,-122.33441
"98155","Seattle","WA","Town Center Hardware","17171 Bothell Way NE-A241","98155",47.7539,-122.2792
"98155","Seattle","WA","Frank's Door Store","17727 15th Ave NE","98155",47.75837,-122.31415
"98155","Seattle","WA","Ace Hardware","17171 Bothell Way NE # NE-A241","98155",47.754668242086964,-122.278960256954
"98155","Seattle","WA","North City Lumber","not_available","98155",47.755500883018684,-122.31342077640475
"98155","Seattle","WA","American Hardwood Floors","20324 19th Ave NE Ste D","98155",47.77695862635756,-122.30849504470825
"98155","Seattle","WA","Northcity Mower & Saw, inc.","910 NE 185th St","98155",47.763545989990234,-122.3194808959961
"98155","Seattle","WA","Garage Door Repair Shorline","20126 Ballinger Way NE","98155",47.776619000000004,-122.310675
"98166","Seattle","WA","Miller Paint","636 SW 152nd St","98166",47.467090999999996,-122.34341699999999
"98166","Seattle","WA","Carpet Cleaning Burien","611 SW 154th St #85","98166",47.46476745605469,-122.34233856201172
"98168","Seattle","WA","Dunn Lumber Boulevard Park","11455 Des Moines Memorial Dr S","98168",47.498819,-122.307132
"98168","Seattle","WA","Bay Valve Service Inc","4385 S 133rd St","98168",47.48474,-122.27884
"98188","Seattle","WA","Ace Sea-Tac Hardware","15848 Tukwila International Blvd","98188",47.461022,-122.29143
"98188","Seattle","WA","Brook Furniture Rental, Seattle-PNW","5822 S 196th St","98032",47.42713769999999,-122.261269
"98188","Seattle","WA","Grainger","6725 S Todd Blvd, Tukwila, WA 98188","98188",47.435696,-122.25115
"98188","Seattle","WA","Ingersoll Rand NW Customer Center","20121 72nd Ave S","98032",47.4217414855957,-122.24500274658203
"98198","Seattle","WA","Garage Door Repair Des Moines","22220 10th Ave S","98198",47.40265655517578,-122.32032012939453
"98198","Seattle","WA","Carpet Cleaning Kent","21929 42nd Ave S #231","98032",47.40476989746094,-122.28140258789062
"98198","Seattle","WA","Carpet Cleaning Des Moines","23415 18th Ave S #56","98198",47.39168930053711,-122.310546875
"98199","Seattle","WA","Magnolia Ace Hardware","2420 32nd Ave W","98199",47.63982,-122.39843
"98199","Seattle","WA","Nebar","5105 Ballard Ave NW4778 Shilshole Ave. NW.","98107",47.663949,-122.381243
"98201","Everett","WA","Harbor Marine","1032 W Marine View Dr","98201",48.00361251831055,-122.21427154541016
"98201","Everett","WA","Lowe's","2505 Pacific Avenue","98201",47.977949,-122.197006
"98201","Everett","WA","Sherwin-Williams Commercial Paint Store","2115 Pacific Ave","98201",47.976968,-122.200759
"98201","Everett","WA","Miller Paint Co","4302 Rucker Ave","98203",47.960491999999995,-122.211193
"98201","Everett","WA","Martin True Value Lumber & Hardware","2730 Broadway","98201",47.98089,-122.20153
"98201","Everett","WA","Consolidated Supply","3414 B","not_available",47.979856,-122.18387
"98201","Everett","WA","Applied Industrial Tech Inc","2922 W Marine View Dr","98201",47.978532,-122.21476899999999
"98201","Everett","WA","RSC Equipment Rental","not_available","98201",47.98008,-122.18631599999999
"98201","Everett","WA","Everett Steel Inc","3126 Hill Ave","98201",47.975359000000005,-122.19596299999999
"98201","Everett","WA","Buse Timber and Sales Inc.","3812-28th Place NE","98205",48.01992271270437,-122.17518098591476
"98201","Everett","WA","Manor Hardware","2814 Rucker Ave","98201",47.979921999999995,-122.211898
"98201","Everett","WA","Hatloes Carpet One Floor & Home","3701 Rucker Ave","98201",47.96826,-122.21048600000002
"98201","Everett","WA","INDUSTRIAL SUPPLY INC","3500 Everett Ave","98201",47.98138427734375,-122.18362426757812
"98201","Everett","WA","Siskun Power Equipment","California Street","98201",47.980247,-122.20106
"98201","Everett","WA","North Sound Hose & Fittings Inc","3520 Paine Ave","98201",47.9708291,-122.1987668
"98201","Everett","WA","Pacific Star Gutter Service - Seattle","2807 Highland Ave","98201",47.979915999999996,-122.18491599999999
"98201","Everett","WA","Ewing Irrigation","3732 Smith Ave","98201",47.967765394874704,-122.19729334115982
"98201","Everett","WA","minuteKEY","2505 Pacific Ave","98201",47.977948,-122.197042
"98201","Everett","WA","Stellar Industrial Supply","2201 Pacific Ave","98201",47.977243,-122.199545
"98201","Everett","WA","Garage Door Repair Everett","Pacific Ave","98201",47.97756991032816,-122.20120668411255
"98201","Everett","WA","Platt Electric Supply","3620 McDougall Ave","98201",47.969235999999995,-122.20008100000001
"98201","Everett","WA","Love's Bird and Garden","2815 Baker Ave","98201",47.9798033,-122.19547575
"98201","Everett","WA","GREENSHIELDS INDUSTRIAL SUPPLY","710 N Broadway","98201",48.00808486928549,-122.19479084014893
"98203","Everett","WA","Harbor Freight Tools","5231 Evergreen Way","98203",47.94887471226004,-122.21328303509993
"98203","Everett","WA","SNBL Warehouse","not_available","98203",47.937981,-122.266628
"98203","Everett","WA","Ace Hardware","4835 Evergreen Way","98203",47.9423999,-122.2249
"98203","Everett","WA","GTS Interior Supply","2010 West Casino Road","98204",47.921068,-122.26116999999999
"98203","Everett","WA","Rodda Paint","7815 Evergreen Way","98203",47.926736,-122.22220700000001
"98203","Everett","WA","Dunn Lumber","425 E Casino Rd","98208",47.922319,-122.226176
"98204","Everett","WA","The Home Depot","11915 Highway 99","98204",47.8887751,-122.2564075
"98204","Everett","WA","Tacoma Screw Products, Inc","11630 Airport Rd","98204",47.891984,-122.261576
"98204","Everett","WA","J2 Building Consultants","8425 44th Ave W","98275",47.92114486,-122.29275294
"98204","Everett","WA","Garage Door Repair Mukilteo","10924 Mukilteo Speedway","98275",47.89866256713867,-122.29203033447266
"98204","Everett","WA","minuteKEY","11400 Highway 99","98204",47.894513,-122.255812
"98204","Everett","WA","Total Rental Center","9217 Evergreen Way","98204",47.9139865,-122.2348407
"98204","Everett","WA","Lumber Liquidators, Inc.","11338 Mukilteo Speedway","98275",47.89445040338224,-122.28965362703417
"98204","Everett","WA","Mallory Paint Store","12 SW Everett Mall Way","98204",47.906515999999996,-122.233878
"98208","Everett","WA","Sears","1302 SE Everett Mall Way","98208",47.910149,-122.21480262
"98208","Everett","WA","Glacier Hardware","not_available","98208",47.915731,-122.190413
"98208","Everett","WA","minuteKEY","1605 SE Everett Mall Way","98208",47.91402053833008,-122.21356964111328
"98208","Everett","WA","Hardware Closet","711 100th St SE","98208",47.90774154663086,-122.22193908691406
"98208","Everett","WA","Ace Hardware of Silver Lk","11014 19th Ave SE Ste100","98208",47.898258209228516,-122.20832061767578
"98208","Everett","WA","Garage Door Repair Everett","615 112th St SE","98208",47.896902000000004,-122.22365
"98208","Everett","WA","Metal Supermarkets","715 100th St SE Ste C3","98208",47.90810012817383,-122.22171020507812
"98208","Everett","WA","Sherwin-Williams Paint Store","1606 SE Everett Mall Way","98208",47.913047,-122.21186599999999
"98221","Anacortes","WA","Ace Hardware of Anacortes","1720 Q Ave","98221",48.5070929,-122.61114
"98221","Anacortes","WA","Painter's Alley Anacortes","2615 Commercial Ave","98221",48.50079,-122.61234
"98221","Anacortes","WA","Sebo's","not_available","98221",48.513221740722656,-122.613647
"98221","Anacortes","WA","Anchor Signs & Awnings","8142 S March Point Rd","98221",48.462836,-122.567703
"98221","Anacortes","WA","Sherwin-Williams Paint Store","1001 Commercial Ave","98221",48.514087520314206,-122.61230159500842
"98223","Arlington","WA","The Home Depot","9310 Quil Ceda Blvd","98271",48.0806034,-122.1875405
"98223","Arlington","WA","Platt Electric Supply","16215 Smokey Point Blvd","98271",48.143875,-122.18227900000001
"98223","Arlington","WA","Arlington Hardware & Lbr Inc","215 N Olympic Ave","98223",48.193998,-122.126062
"98223","Arlington","WA","Top Secret Coating","58th Ave NE Bldg #43","98223",48.16701567115252,-122.15302348136902
"98223","Arlington","WA","HD Supply White Cap","3525 136th St NE","98271",48.1199627,-122.18380239
"98223","Arlington","WA","Lowe's","3300 169th Place NE","98223",48.1494951,-122.1863576
"98223","Arlington","WA","minuteKEY","3300 169th Pl NE","98223",48.149384999999995,-122.18629299999999
"98223","Arlington","WA","Sherwin-Williams Paint Store","3707 172nd St NE","98223",48.15273802134696,-122.17943251132964
"98223","Arlington","WA","Carpet Cleaning Marysville","8507 74th Dr NE #45","98270",48.07270431518555,-122.12957763671875
"98223","Arlington","WA","minuteKEY","8924 Quilceda Blvd.","98270",48.087661,-122.1859601
"98223","Arlington","WA","Glen's Rentals","310 N Alder Ave","98252",48.085504805922355,-121.96426572831592
"98223","Arlington","WA","R-Factor","3800 136th St NE","98271",48.11786137226781,-122.17878288151752
"98223","Arlington","WA","Platt Electric","not_available","98223",48.14391326904297,-122.18209075927734
"98223","Arlington","WA","Ace Hardware","108 S Granite Ave","98252",48.0829452659865,-121.969548680811
"98223","Arlington","WA","Builders FirstSource","20815 67th Ave NE","98223",48.18337819373975,-122.13504731655121
"98223","Arlington","WA","Atlas Copco Rental","18930 66th Ave NE","98223",48.1683752400835,-122.14215517044067
"98223","Arlington","WA","Harbor Freight","not_available","98271",48.09859,-122.174311
"98223","Arlington","WA","Rex's Rentals Sales & Equipment, Inc.","525 N West Ave","98223",48.197965,-122.127866
"98223","Arlington","WA","Tractor Supply Co.","17020 Smokey Point Blvd Ste A, Ste A","98223",48.151215,-122.18519099999999
"98223","Arlington","WA","Fasteners Of Marysville, WA","14608 Smokey Point Blvd Ste 1","98271",48.128586,-122.184181
"98223","Arlington","WA","Fastenal","3803 132nd Pl NE","98271",48.115474700927734,-122.17935943603516
"98225","Bellingham","WA","The Home Depot","420 Telegraph Rd","98226",48.7856059,-122.479742
"98225","Bellingham","WA","Hardware Sales, Inc.","2034 James St","98225",48.7574,-122.46458
"98225","Bellingham","WA","Bellingham Country Store","3500 Meridian St","98225",48.777573226011484,-122.48557943196647
"98225","Bellingham","WA","Chs Northwest Fairhaven True Value","3125 Old Fairhaven Parkway","98225",48.71499566,-122.4769173
"98225","Bellingham","WA","Ferguson Plumbing Supply","4318 Pacific Hwy","98226",48.797634,-122.52766100000001
"98225","Bellingham","WA","Overhead Door","202 Ohio St","98225",48.754791,-122.47333700000001
"98225","Bellingham","WA","Hardware Sales Rental Tools","not_available","98225",48.75689938719751,-122.46359109825005
"98225","Bellingham","WA","Sherwin-Williams Commercial Paint Store","714 Ohio St","98225",48.754791,-122.46536299999998
"98225","Bellingham","WA","Stockton's Paint","1413 Railroad Ave","98225",48.75077,-122.47628
"98225","Bellingham","WA","Sherwin-Williams Paint Store","1401 N State St","98225",48.749860999999996,-122.47566599999999
"98225","Bellingham","WA","Fastener's Of Bellingham, WA","2121 Iron St","98225",48.758524,-122.46686000000001
"98225","Bellingham","WA","Platt Electric Supply","1825 Ellis St","98225",48.754713,-122.47283200000001
"98225","Bellingham","WA","Fastenal","1726 Franklin St","98225",48.753289,-122.470371
"98225","Bellingham","WA","Sherwin-Williams Paint Store","122 W Stuart Rd","98226",48.801228,-122.487257
"98225","Bellingham","WA","Praxair","430 Ohio St","98225",48.754802000000005,-122.4697
"98225","Bellingham","WA","Industrial Electric and Machine","1030 C St","98225",48.75249481201172,-122.48680877685547
"98226","Bellingham","WA","CB Wholesale","1991 Division St","98226",48.78228893585696,-122.45185887887219
"98226","Bellingham","WA","Lowe's","1050 East Sunset Drive","98226",48.7703971,-122.4609909
"98226","Bellingham","WA","GTS Interior Supply","5180 Industrial Place","98248",48.82923063,-122.55533053
"98226","Bellingham","WA","Ferndale True Value Hardware","2000 Main St","98248",48.8463465,-122.5898406
"98226","Bellingham","WA","Fastenal","1975 Midway Ln","98226",48.786671000000005,-122.45101499999998
"98226","Bellingham","WA","Ferndale Ace Hardware","5715 Fourth Ave","98248",48.8491519,-122.59435
"98226","Bellingham","WA","Bellingham Millwork Supply Co.","3879 Hannegan Road","98226",48.784136,-122.443056
"98226","Bellingham","WA","Grizzly Industrial, Inc.","1821 Valencia St","98229",48.7539081,-122.4475812
"98226","Bellingham","WA","CHS FERNDALE","1720 Labounty Dr","98248",48.84933090209961,-122.59429931640625
"98226","Bellingham","WA","Portal Way Farm And Garden","6100 Portal Way","98248",48.862281799316406,-122.58421325683594
"98226","Bellingham","WA","Bellingham Millwork","3878 Hannegan Road","98226",48.78849882898552,-122.4152589041723
"98226","Bellingham","WA","Best Tools and Equipment","2012 Moore St","98229",48.757169,-122.46016599999999
"98226","Bellingham","WA","Western Forest Products","not_available","98226",48.78178024291992,-122.44518280029297
"98229","Bellingham","WA","Windsor Plywood","not_available","98229",48.75639064864033,-122.45756001110487
"98230","Blaine","WA","Pacific Building Center & True Value Hardware","2677 Bell Rd","98230",48.97426307,-122.7284828
"98230","Blaine","WA","Pacific Building Center","not_available","98230",48.974029,-122.729331
"98230","Blaine","WA","Platt Electric Supply","2750 Peace Portal Dr Ste C","98230",48.973533630371094,-122.72381591796875
"98230","Blaine","WA","Blaine Ace Hardware","1733 H St","98230",48.9925921,-122.731924
"98230","Blaine","WA","Builders FirstSource","5880 Portal Way","98248",48.8549919128418,-122.5877456665039
"98230","Blaine","WA","RCH Hardware","8420 Portal Way Ste G2","98230",48.9473262,-122.6833996
"98233","Burlington","WA","The Home Depot","2001 Market Place Drive","98233",48.448142,-122.3384051
"98233","Burlington","WA","Country Store","1276 S Burlington Blvd","98233",48.461706,-122.335146
"98233","Burlington","WA","Marty's Paints","not_available","98233",48.475761999999996,-122.33126499999999
"98233","Burlington","WA","Rodda Paint","1043 Goldenrod Rd Ste 102","98233",48.465654,-122.34279199999999
"98233","Burlington","WA","Ferguson Plumbing Supply","465 N Hill Blvd","98233",48.4921409454242,-122.329978923612
"98233","Burlington","WA","Ferguson Waterworks","471 N Hill Blvd","98233",48.49256,-122.32839399999999
"98233","Burlington","WA","Mutual Materials","1912","98233",48.450156,-122.33457
"98233","Burlington","WA","Ekrem Hardware Do-It center","237 E Fairhaven Ave","98233",48.475777,-122.33273
"98236","Clinton","WA","Jim's Hardware","11042 State Route 525 Ste 117","98236",47.9912153,-122.3943476
"98236","Clinton","WA","Sebo's Do It Center","5809 Bayview Rd","98236",47.9995002746582,-122.46125793457031
"98237","Concrete","WA","Cascade Supply Do It Best Hardware","45900 Main St","98237",48.538639068603516,-121.74666595458984
"98241","Darrington","WA","Darrington Do It Best Hardware","1220 State Route 530 NE","98241",48.256833783501584,-121.6110936435864
"98245","Eastsound","WA","island hardware and supply","not_available","98245",48.677969510724246,-122.93922000998307
"98245","Eastsound","WA","Ace Hardware","421 N Beach Rd","98245",48.69734191894531,-122.90664672851562
"98245","Eastsound","WA","Orcas Rental & Saw","208 Enchanted Forest Rd","98245",48.699678000000006,-122.911064
"98245","Eastsound","WA","Smith & Speed Mercantile","294 A St","98245",48.69619372405678,-122.90674639166963
"98248","Ferndale","WA","Terry's Paints","176 Birch Bay Lynden Rd","98264",48.935586,-122.48978
"98248","Ferndale","WA","Fasteners Inc.","111 Pacific Hwy","98248",48.82758486236516,-122.5559357498111
"98248","Ferndale","WA","CHS NOOKSACK","102 Nooksack Ave","98276",48.84658432006836,-122.58985137939453
"98248","Ferndale","WA","Brim Tractor","350 Duffner Drive","98264",48.93661,-122.48879
"98249","Freeland","WA","Ace Hardware","1609 Main St","98249",48.010681927731646,-122.52960521812214
"98249","Freeland","WA","Frontier Building Supply","1800 Main St","98249",48.00870895385742,-122.51988220214844
"98249","Freeland","WA","Country Store Freeland Store #5","5463 Cameron Rd","98249",48.011753303446454,-122.53991063893386
"98250","Friday Harbor","WA","Ace Hardware","not_available","98250",48.533266,-123.01684399999999
"98250","Friday Harbor","WA","Sears","535 Market St Ste C","98250",48.52972467127114,-123.02192663558196
"98250","Friday Harbor","WA","Sunset Hardware","not_available","98261",48.493416,-122.90061
"98250","Friday Harbor","WA","Sunset Builders Supply","4194 Center Rd","98261",48.49409103393555,-122.89984893798828
"98258","Lake Stevens","WA","Ace Hardware","303 91st Ave NE Ste B200","98258",47.9990999,-122.1082
"98258","Lake Stevens","WA","Sherwin-Williams Paint Store","303 91st Ave NE","98258",48.00074139,-122.1069887
"98258","Lake Stevens","WA","Carpet Cleaning Lake Stevens","9126 1st Pl NE #78","98258",47.997802734375,-122.10799407958984
"98264","Lynden","WA","CHS LYNDEN","415 Depot Rd","98264",48.939815521240234,-122.46916961669922
"98264","Lynden","WA","Chs Northwest Fairway True Value","119 17th St","98264",48.940639000000004,-122.470669
"98264","Lynden","WA","Ace Hardware","1736 Front St","98264",48.940123,-122.471251
"98264","Lynden","WA","Tractor Supply Co.","1898 Front St","98264",48.940645,-122.479822
"98264","Lynden","WA","Fishtrap Creek Interiors","1899 Kok Rd","98264",48.93514,-122.480131
"98264","Lynden","WA","Vander Griend Lumber","8461 Depot Rd","98264",48.94827651977539,-122.45270538330078
"98270","Marysville","WA","Marysville Co-Op Cenex","8251 State Ave","98270",48.07147277128754,-122.1761150511494
"98270","Marysville","WA","Carr's Hardware","1514 3rd St","98270",48.050639000000004,-122.176202
"98270","Marysville","WA","Sears","1340 State Ave","98271",48.0660274,-122.1755303
"98270","Marysville","WA","Sherwin-Williams","1105 State Ave","98270",48.060753,-122.177049
"98270","Marysville","WA","E & E Lumber","1364 State Ave","98270",48.06699373310842,-122.17581446004776
"98270","Marysville","WA","Frank Lumber & Hardware","1046 Cedar Ave","98270",48.05897333988354,-122.17985543119991
"98270","Marysville","WA","Marysville Paint","1717 Grove St","98270",48.06154,-122.172066
"98272","Monroe","WA","Lowe's","19393 Tjerne Place SE","98272",47.8629684,-121.9713441
"98272","Monroe","WA","Harbor Freight","19139 Lenton Pl SE","98272",47.861086,-121.974096
"98272","Monroe","WA","Tractor Supply Co.","13650 Roosevelt Rd Southeast","98272",47.87327,-122.00867
"98272","Monroe","WA","Mallory Paint Store","19829 State Route 2","98272",47.859278,-121.965219
"98272","Monroe","WA","minuteKEY","19191 N Kelsey St","98272",47.86556625366211,-121.97252655029297
"98272","Monroe","WA","Sherwin-Williams Paint Store","317 Butler Ave","98272",47.857561,-121.967747
"98272","Monroe","WA","N.C. Machinery","14597 169th Dr SE","98272",47.86473784983101,-122.00344929915016
"98272","Monroe","WA","Platt Electric Supply","16726 146th St SE Ste 197","98272",47.86408233642578,-122.00630187988281
"98272","Monroe","WA","Ag Supply Ace Hardware","207 Hwy 2","98294",47.861471,-121.81825
"98272","Monroe","WA","Barmon Lumber","32823-33199 Stevens Pass Hwy","98294",47.86696653131198,-121.78703103089947
"98272","Monroe","WA","minuteKEY","19393 Tjerne Pl SE","98272",47.863468170166016,-121.97096252441406
"98272","Monroe","WA","Garage Door Repair Monroe","19030 Lenton Pl SE","98272",47.86109161376953,-121.97550201416016
"98272","Monroe","WA","Coastal Farm","19881 State Route 2","98272",47.85700225830078,-121.96142578125
"98273","Mount Vernon","WA","Lowe's","1717 Freeway Drive","98273",48.436796,-122.3452353
"98273","Mount Vernon","WA","Lefeber Turf Farm","15195 State Route 536","98273",48.44304,-122.4156
"98273","Mount Vernon","WA","minuteKEY","1717 Freeway Dr","98273",48.436763,-122.34520800000001
"98273","Mount Vernon","WA","Northern Lights Gardening","1524 Riverside Dr","98273",48.434796,-122.333533
"98273","Mount Vernon","WA","Platt Electric Supply","2301 Market St Ste 105","98273",48.442,-122.338219
"98273","Mount Vernon","WA","Sherwin-Williams Paint Store","1526 Riverside Dr","98273",48.434768,-122.334774
"98273","Mount Vernon","WA","Tractor Supply Co. ","310 East College Way","98273",48.434102,-122.336927
"98273","Mount Vernon","WA","Kaptein Ace Hardware","1420 Riverside Dr","98273",48.433859999999996,-122.33469
"98273","Mount Vernon","WA","Harbor Freight Tools","2400 Riverside Dr","98273",48.441971,-122.334312
"98273","Mount Vernon","WA","United Furniture Warehouse","300 Valley Mall Way","98273",48.4323294,-122.3371904
"98277","Oak Harbor","WA","The Home Depot","31800 Sr 20","98277",48.29341206287929,-122.6541405916214
"98277","Oak Harbor","WA","frontier building supply","33860 State Route 20, Oak Harbor, WA 98277","98277",48.31655142142026,-122.63070454972093
"98277","Oak Harbor","WA","Tractor Supply Co.","32165 State Route 20 Unit 1, Unit 1","98277",48.29700292,-122.6553948
"98277","Oak Harbor","WA","Country Store Farmer's Supply","31686 State Route 20","98277",48.290914890473175,-122.65727201370504
"98277","Oak Harbor","WA","Sherwin-Williams Paint Store","32209 State Route 20","98277",48.29811404894629,-122.65455633401871
"98277","Oak Harbor","WA","Ace Hardware","150 SE Pioneer Way","98277",48.2877885703308,-122.65590264836433
"98277","Oak Harbor","WA","NAS self help","not_available","98277",48.33474349975586,-122.66790008544922
"98277","Oak Harbor","WA","Sears","230 SE Pioneer Way","98277",48.2880216,-122.6550644
"98281","Point Roberts","WA","Nielson's Building Center","Tyee Drive","98281",48.988526,-123.068343
"98282","Camano Island","WA","Camano Plaza Ace Hardware","370 NE Camano Dr","98282",48.22526168823242,-122.47454071044922
"98282","Camano Island","WA","Hamilton Lumber","9718 271st St NW","98292",48.24186,-122.36489
"98282","Camano Island","WA","Stanwood Hardware","27008 90th Nw","98292",48.240973,-122.354964
"98284","Sedro Woolley","WA","Woods Logging Supply","not_available","98284",48.50273276826812,-122.24025635086558
"98284","Sedro Woolley","WA","Skagit Log and Construction Inc.","29632 Lyman Hamilton Hwy","98284",48.52626,-122.1039
"98284","Sedro Woolley","WA","Ace Hardware","915 Moore St","98284",48.509884,-122.22453
"98284","Sedro Woolley","WA","Sedro Woolley True Value Hardware & Garden","100 Ferry St","98284",48.50585,-122.23967900000001
"98290","Snohomish","WA","The Home Depot","2601 Bickford Avenue","98290",47.9421751,-122.1058408
"98290","Snohomish","WA","McDaniel's Do It Center","510 2nd St","98290",47.91338515576772,-122.08829080977749
"98290","Snohomish","WA","Bartell Drugs True Value","1115 13th St","98290",47.92646396703863,-122.09572105370995
"98290","Snohomish","WA","Chinook Lumber","17606 SR 9","98296",47.837158203125,-122.12655639648438
"98290","Snohomish","WA","Snohomish Grind and Thread Roll, Inc.","617 1st St","98290",47.91014334887841,-122.09130048751831
"98290","Snohomish","WA","H.B. Jaeger","PO Box 1516","98291",47.93156759394511,-122.10814414680354
"98290","Snohomish","WA","Sherwin-Williams Paint Store","602 2nd St","98290",47.91297852,-122.0894457
"98290","Snohomish","WA","SnoGro Indoor Gardening Supply","502 Maple Ave","98290",47.91751,-122.088983
"98290","Snohomish","WA","Clearview True Value Hardware","16510 State Route 9 Se","98296",47.84714171,-122.1190732
"98292","Stanwood","WA","Stanwood Ace Hardware","26477 72nd Avenue NW","98292",48.236082,-122.3302
"98296","Snohomish","WA","Woodinville Saws & Mowers","18026 State HWY  9 C","98296",47.83332799618765,-122.12698415941242
"98296","Snohomish","WA","Parker Paint","not_available","98290",47.913161863304914,-122.08844669616073
"98296","Snohomish","WA","Emerald City Products","502 1st St Ste 102","98290",47.9098014831543,-122.0897216796875
"98310","Bremerton","WA","Lowe's","5600 State Highway 303 NE","98311",47.6131984,-122.625958
"98310","Bremerton","WA","Ag Supply Ace Hardware","3506 Kitsap Way","98312",47.571744,-122.663303
"98310","Bremerton","WA","Wilco Farm Store- Bremerton","4330 Wheaton Way","98310",47.605652,-122.62693
"98310","Bremerton","WA","Tacoma Screw","5241 5th st","98312",47.566404999999996,-122.682957
"98310","Bremerton","WA","Habitat For Humanity","3405 11th St","98312",47.570386,-122.660602
"98310","Bremerton","WA","Red's Electric Motors Inc","2300 6th St","98312",47.567592,-122.649376
"98310","Bremerton","WA","Builders Bargains","3401 11th St","98312",47.57033920288086,-122.6607666015625
"98310","Bremerton","WA","Platt Electrical","not_available","98312",47.566015038668205,-122.68208464102797
"98310","Bremerton","WA","Platt Electric Supply","5233 Auto Center Way","98312",47.56578826904297,-122.68203735351562
"98310","Bremerton","WA","Premier Rentals","3912 Kitsap Way","98312",47.569915771484375,-122.66443634033203
"98310","Bremerton","WA","Kelly Moore Paints","not_available","98311",47.60804947210729,-122.62845223013
"98311","Bremerton","WA","The Home Depot","10991 Silverdale Way NW","98383",47.6636011,-122.6865387
"98311","Bremerton","WA","Lowe's","2221 NW Myhre Road","98383",47.6585004,-122.6794087
"98311","Bremerton","WA","Sherwin-Williams Paint Store","9165 Ridgetop Blvd NW","98383",47.654334999999996,-122.68656000000001
"98311","Bremerton","WA","Tractor Supply Co.","2222 Nw Bucklin Hill Rd Unit 110","98383",47.651311,-122.679651
"98311","Bremerton","WA","Sears","10315 Silverdale Way NW","98383",47.6556382,-122.69104134
"98311","Bremerton","WA","Locksmith Silverdale","9669 Long Point Ln NW #R678","98383",47.65115737915039,-122.6650161743164
"98311","Bremerton","WA","Garage Door Repair Silverdale","2916 NW Bucklin Hill Rd","98383",47.65187072753906,-122.6906509399414
"98311","Bremerton","WA","Sears Craftsman Tool Section","not_available","98383",47.65546235978036,-122.69078509729732
"98312","Bremerton","WA","Lowe's","150 SW Sedgwick Rd","98367",47.4985581,-122.6455028
"98312","Bremerton","WA","Kitsap","450 National Ave S","98312",47.55840301513672,-122.66735076904297
"98312","Bremerton","WA","Ferguson Plumbing Supply","1441 Lumsden Rd","98367",47.52521,-122.669852705882
"98312","Bremerton","WA","Kitsap Lumber","450 S National Ave","98312",47.55927190148885,-122.66750065285393
"98312","Bremerton","WA","Carpet Cleaning Bremerton","1760 W Sunn Fjord Ln #F312","98312",47.547080993652344,-122.6778335571289
"98312","Bremerton","WA","Small Engine Clinic","7775 NW Eldorado Blvd","98312",47.634845,-122.725295
"98312","Bremerton","WA","Tool Liquidators","3476 W Belfair Valley Rd","98312",47.529614,-122.697282
"98312","Bremerton","WA","Farmland Pets & Feed","9000 Silverdale Way NW","98383",47.644754,-122.69886
"98312","Bremerton","WA","mutual materials","not_available","98366",47.526022999999995,-122.66881599999999
"98321","Buckley","WA","Sherwin-Williams Paint Store","21507 State Route 410 E","98391",47.168496689196125,-122.14264578114106
"98321","Buckley","WA","Carpet Cleaning Buckley","185 2th Avenue Court East  #185","98321",47.15915426637123,-122.1350312232971
"98321","Buckley","WA","Renew Bathtub & Sink Refinishing","not_available","98391",47.14753899970401,-122.13346481323242
"98321","Buckley","WA","Carpet Cleaning Bonney Lake","21507 104th Street Ct E #152","98391",47.16120529174805,-122.14217376708984
"98325","Chimacum","WA","Hadlock True Value Building Supply","901 Ness Corner Rd","98339",48.03246656,-122.7625376
"98325","Chimacum","WA","1Olympic Equipment Rentals","972 Ness Corner Rd","98339",48.03188,-122.7617
"98328","Eatonville","WA","911 Home Improvement","34122 32nd Ave E","98328",46.945655,-122.387331
"98331","Forks","WA","Forks Outfitters","950 S Forks Ave","98331",47.94134,-124.386983
"98331","Forks","WA","True Value","10 Forks Ave S","98331",47.94155149,-124.3857442
"98331","Forks","WA","DECKER CITY HARDWARE","10 S Forks Ave","98331",47.9500846862793,-124.38577270507812
"98331","Forks","WA","Jerry's Saw Shop","not_available","98331",47.93983748574809,-124.38650452698697
"98332","Gig Harbor","WA","The Home Depot","5120 Borgen Blvd","98332",47.3574258,-122.6070222
"98332","Gig Harbor","WA","Carpet Cleaning Gig Harbor","7409 Hill Ave #56","98335",47.32570266723633,-122.5821762084961
"98332","Gig Harbor","WA","Purdy Topsoil","not_available","98332",47.37889384299407,-122.61748804999435
"98332","Gig Harbor","WA","Gig Harbor Ace Hardware","3104 Judson St","98335",47.327326,-122.58023700000001
"98332","Gig Harbor","WA","Chs Gig Harbor","15824 66th Ave Nw","98332",47.402489,-122.62686299999999
"98332","Gig Harbor","WA","Purdy Topsoil & Gravel","5819 133rd St NW","98332",47.3800126,-122.6172927
"98333","Fox Island","WA","Carpet Cleaning University Place","4601 Grandview Dr W #187R","98466",47.21430969238281,-122.56591033935547
"98335","Gig Harbor","WA","Wilco Farm Stores - Gig Harbor","3408 Hunt St NW","98335",47.315891236798755,-122.5838763071846
"98335","Gig Harbor","WA","Miller Paint Co","6876 Kimball Dr","98335",47.321358000000004,-122.587826
"98335","Gig Harbor","WA","Sherwin-Williams Paint Store","5119 Point Fosdick Dr NW","98335",47.305119,-122.578185
"98335","Gig Harbor","WA","Rodda Paint","4909 33rd Avenue Ct NW","98335",47.302238,-122.582711
"98335","Gig Harbor","WA","Gig Harbor Ace Hardware","4816 Point Fosdick Dr NW","98335",47.30962,-122.58054
"98335","Gig Harbor","WA","Builders FirstSource","5522 Point Fosdick Rd NW","98335",47.30895,-122.580571
"98338","Graham","WA","Builders FirstSource","20810 Meridian Ave E","98338",47.067169189453125,-122.2961654663086
"98338","Graham","WA","Graham Ace Hardware","9807 224th St E Suite 118","98338",47.0533369,-122.30005
"98338","Graham","WA","Carpet Cleaning Spanaway","22416 40th Ave E #26","98387",47.05256271362305,-122.37722778320312
"98338","Graham","WA","Carpet Cleaning Puyallup","10113 186th St E #295","98375",47.088218688964844,-122.29419708251953
"98338","Graham","WA","Capital Lumber","26419 Mountain Hwy E","98387",47.01722717285156,-122.36824035644531
"98346","Kingston","WA","Kingston Lumber","10900 N E State Hwy. 104","98346",47.80351666590073,-122.57369809236899
"98346","Kingston","WA","Henery Hardware","10978 NE State Highway 104","98346",47.78982014327753,-122.52381724674655
"98349","Lakebay","WA","Lowes- Lakewood town center","Main St","not_available",47.28575033540949,-122.78457641601562
"98354","Milton","WA","Hometown Hardware","900 Meridian E","98354",47.246673583984375,-122.29582214355469
"98357","Neah Bay","WA","WASHBURN GENERAL STORE","1450 Bayview Ave","98357",48.365535736083984,-124.60778045654297
"98360","Orting","WA","Carpet Cleaning Orting","20524 197th Ave E #76","98360",47.071285247802734,-122.16853332519531
"98361","Packwood","WA","Packwood Ace Hardware","104 Rainier Ave","98361",46.606931,-121.66977
"98362","Port Angeles","WA","Swain's General Store","602 E 1st St","98362",48.11498,-123.424268
"98362","Port Angeles","WA","Hartnagel Building Supply Inc","3111 E Highway 101","98362",48.1059684753418,-123.37136840820312
"98362","Port Angeles","WA","CED","11 Prospect Pl","98362",48.10029602050781,-123.34542083740234
"98362","Port Angeles","WA","Sunset Do it Best Hardware","518 Marine Dr","98363",48.12150955200195,-123.44332885742188
"98362","Port Angeles","WA","Thurman's","1807 East Front Street Port Angeles, WA 98362-4930","98362",48.10817337036133,-123.4027099609375
"98362","Port Angeles","WA","Sunset Hardware","not_available","98362",48.12137990899049,-123.44204668432741
"98362","Port Angeles","WA","Sears","520 South Lincoln Street","98362",48.1142454,-123.4356228
"98362","Port Angeles","WA","Platt Electric Supply","3414 E Highway 101","98362",48.1082878112793,-123.36241912841797
"98362","Port Angeles","WA","Ferguson Plumbing Supply","73 Ruths Pl","98382",48.087964,-123.168985
"98362","Port Angeles","WA","Foundation Building Materials","301 Business Park Loop","98382",48.0895021,-123.169373
"98362","Port Angeles","WA","Sears","232 Valley Center PL.","98382",48.0776909,-123.1677273
"98362","Port Angeles","WA","Angeles Millwork","not_available","98363",48.11368513373875,-123.46301443681612
"98366","Port Orchard","WA","Scott Mclendon's Ace Hdw","1692 SE Mile Hill Dr","98366",47.534362,-122.62655
"98366","Port Orchard","WA","Tractor Supply Co.","1415 Olney Ave Southeast","98366",47.535115000000005,-122.60748000000001
"98366","Port Orchard","WA","Sherwin-Williams Paint Store","1382 SE Lund Ave","98366",47.518683,-122.633729
"98366","Port Orchard","WA","minuteKEY","3497 Bethel Rd SE","98366",47.516719818115234,-122.62824249267578
"98367","Port Orchard","WA","Nicholson Drilling Inc","7245 Bethel Burley Rd SE","98367",47.48343,-122.63079
"98368","Port Townsend","WA","Henery Do It Best Hardware","218 W Sims Way","98368",48.108441,-122.779619
"98368","Port Townsend","WA","Andersen Machine Shop","2702 Washington St","98368",48.108619689941406,-122.77526092529297
"98368","Port Townsend","WA","Vintage Hardware & Lighting","2000 W Sims Way","98368",48.10316531616457,-122.79993242178278
"98370","Poulsbo","WA","The Home Depot","21750 Market Pl NW","98370",47.7603730376205,-122.66309380531311
"98370","Poulsbo","WA","Vern's Organic Topsoil","22622 Bond Rd NE","98370",47.768108000000005,-122.609995
"98370","Poulsbo","WA","Sherwin-Williams","not_available","98370",47.734109,-122.636114
"98370","Poulsbo","WA","James Lumber and Ace Hardware","19801 Viking Ave NW","98370",47.74287414550781,-122.65824890136719
"98370","Poulsbo","WA","All County Operations","1289 NE Hoffs Dr","98370",47.691398,-122.634887
"98370","Poulsbo","WA","GTS Interior Supply","383 Equestrian Drive","98370",47.77552494,-122.65275475
"98370","Poulsbo","WA","CED","4503 Auto Center Way","98312",47.73179844414991,-122.64169974457164
"98370","Poulsbo","WA","Sherwin-Williams Paint Store","18836 State Highway 305 NE","98370",47.733764,-122.637098
"98370","Poulsbo","WA","Carpet Cleaning Silverdale","1319 NW Slate Ln #177","98383",47.681556701660156,-122.66709899902344
"98370","Poulsbo","WA","Suquamish Maintenance Shop","not_available","98392",47.72784423828125,-122.56017303466797
"98370","Poulsbo","WA","Chs Paulsbo","20370 Viking Ave Nw","98370",47.747768,-122.65418100000001
"98370","Poulsbo","WA","Coast Do It Best","19472 7th Ave NE","98370",47.73957943333333,-122.63936821666667
"98371","Puyallup","WA","Tractor Supply Co.","621 River Rd","98371",47.201818,-122.300943
"98371","Puyallup","WA","Airefco","not_available","98424",47.221608,-122.335662
"98371","Puyallup","WA","Ag Supply Ace Hardware","517 S Meridian","98371",47.187334,-122.29288999999999
"98371","Puyallup","WA","Timco Inc.","6722 20th St E Ste F-100","98424",47.2386849,-122.339539
"98371","Puyallup","WA","Builders FirstSource","5519 20Th St E","98424",47.23940658569336,-122.35498809814453
"98371","Puyallup","WA","CWallA","2203 Spencer Rd","98372",47.21025460377477,-122.29165077209473
"98371","Puyallup","WA","Weather Guard Building Products","3011 70th Ave E","98424",47.22876739501953,-122.33354187011719
"98372","Puyallup","WA","The Home Depot","303 35th Ave SE","98374",47.158942642279364,-122.28906190703128
"98372","Puyallup","WA","Washington Tractor","2700 136th Avenue Ct E","98390",47.233242537420495,-122.24883717434386
"98372","Puyallup","WA","McLendon Hardware","1111 Fryar Ave","98390",47.20455752780094,-122.24306902801182
"98372","Puyallup","WA","Trident Waterworks","2203 ""A""","not_available",47.19149490738389,-122.25493361342245
"98372","Puyallup","WA","Puyallup heating & air conditioning","130 15th St SE","98372",47.190598,-122.274409
"98372","Puyallup","WA","minuteKEY","310 31st Ave SE","98374",47.16121292114258,-122.28955078125
"98372","Puyallup","WA","Carpet Cleaning Sumner","7425 144th Ave E #85","98390",47.18885803222656,-122.2376708984375
"98372","Puyallup","WA","Tarp World","not_available","98047",47.21138136107675,-122.24839687421672
"98372","Puyallup","WA","Puget Sound Windows & Doors","13708","98390",47.20214221091002,-122.23601907491684
"98372","Puyallup","WA","Sumner Animal Grub","800 Traffic Ave","98390",47.20077868160291,-122.2462507374382
"98373","Puyallup","WA","McLendon Hardware","11307 Canyon Rd E","98373",47.15367003693643,-122.35665008756338
"98373","Puyallup","WA","Harbor Freight Tools","not_available","98374",47.157869,-122.290892
"98373","Puyallup","WA","Rodda Paint","4621 S Meridian","98373",47.148099,-122.291195
"98373","Puyallup","WA","Sherwin-Williams Paint Store","10109 128th St E","98373",47.14045423,-122.2940104
"98373","Puyallup","WA","Sherwin-Williams Paint Store","12314 Meridian E","98373",47.14429938245155,-122.2937981694382
"98373","Puyallup","WA","GTS Interior Supply","11319 58th Avenue East","98373",47.153929,-122.351104
"98373","Puyallup","WA","Platt Electric Supply","5520 112th St E Ste A","98373",47.15318148660904,-122.35482662095997
"98373","Puyallup","WA","Miller Paint Co","14207 Meridian E Ste 103","98373",47.12679,-122.292382
"98373","Puyallup","WA","Pro Tool Supply","not_available","98373",47.14217364699866,-122.29340313663171
"98373","Puyallup","WA","Parker Paint","10023 128th St E","98373",47.140625,-122.29444885253906
"98374","Puyallup","WA","Lowe's","3511 5th Street SE","98374",47.1575271,-122.286065
"98374","Puyallup","WA","Discount Appliance","not_available","98375",47.119510650634766,-122.29369354248047
"98374","Puyallup","WA","minuteKEY","3511 5th St SE","98374",47.157554626464844,-122.2854232788086
"98375","Puyallup","WA","Exotic Knife Scales: Rundle Woodworks","17221 89th Avenue Ct E","98375",47.09868240356445,-122.31233978271484
"98376","Quilcene","WA","Henery Hardware","39-527 W Columbia St","98376",47.82756452568842,-122.87956091404318
"98382","Sequim","WA","The Home Depot","1145 W Washington St","98382",48.0769281,-123.1306619
"98382","Sequim","WA","Sherwin-Williams Paint Store","1400 W Washington St","98382",48.078199,-123.136877
"98382","Sequim","WA","The Co-Op Farm And Garden True Value","216 E Washington","98382",48.079925537109375,-123.0989761352539
"98382","Sequim","WA","Rodda Paint","271 S 7th Ave","98382",48.07868,-123.119
"98382","Sequim","WA","Peninsula Paint Company","154 W Washington St","98382",48.07990646362305,-123.1042251586914
"98382","Sequim","WA","The Blind Store by McCrorie","649 West Washington Street","98382",48.0794287,-123.1181922
"98387","Spanaway","WA","The Home Depot","121 Military Rd East","98445",47.1209441,-122.4314193
"98387","Spanaway","WA","Tractor Supply Co.","15615 Pacific Ave South","98444",47.115213,-122.433261
"98387","Spanaway","WA","South End Ace Hardware","18707 Pacific Ave S","98387",47.087128,-122.43431899999999
"98387","Spanaway","WA","G & L Bark","not_available","98580",47.088595638890574,-122.43456426375526
"98387","Spanaway","WA","North West Wood","not_available","98446",47.126877,-122.36814
"98387","Spanaway","WA","G & L Bark  & Supply, Inc.","18515 Pacific Ave S","98387",47.088793,-122.43448000000001
"98387","Spanaway","WA","Len's Mower Shop","14103 Pacific Ave S","98444",47.12925338745117,-122.43394470214844
"98387","Spanaway","WA","Pro Desk At The Home Depot","121 Military Rd E","98445",47.120794288466314,-122.43093076319207
"98387","Spanaway","WA","Builders FirstSource","1331 208th St SE","98387",47.06894874572754,-122.41208732128143
"98387","Spanaway","WA","Ace Hardware","15615 Pacific Ave S","98444",47.11544418334961,-122.4334487915039
"98388","Steilacoom","WA","Angeline Electric","2309 Oak Dr","98388",47.16144,-122.59217
"98390","Sumner","WA","Northwest Sheds","16303 64th St E","98390",47.19935607910156,-122.21200561523438
"98391","Bonney Lake","WA","Lowe's","19911 South Prairie Road East","98391",47.1667116,-122.1647287
"98391","Bonney Lake","WA","The Home Depot","9602 214th Ave East","98391",47.17020538191422,-122.14614629745483
"98404","Tacoma","WA","North Coast Electric","not_available","98421",47.2404134323121,-122.41351412492325
"98404","Tacoma","WA","Superior Air Services, LLC","3910 28th Ave E Apt B","98404",47.22174072265625,-122.39201354980469
"98404","Tacoma","WA","Munnell & Sherrill","3204 20th St E","98424",47.238751,-122.38473400000001
"98405","Tacoma","WA","Lowe's","2701 South Orchard Street","98466",47.2364399,-122.5034224
"98405","Tacoma","WA","Gray Lumber","3800 6th Ave","98406",47.255045,-122.486857
"98405","Tacoma","WA","AgriShop Tacoma Ace Hdwe","2012 S 12th St","98405",47.2498999,-122.4633
"98405","Tacoma","WA","Installed Sales Office","not_available","98409",47.236746077558635,-122.50357063299494
"98405","Tacoma","WA","minuteKEY","2701 S Orchard St","98466",47.23646926879883,-122.50264739990234
"98405","Tacoma","WA","Tool Town","1601 Center St","98409",47.234039,-122.455479
"98405","Tacoma","WA","Pacific Welding Supply","2902 S M St","98409",47.233558,-122.450966
"98405","Tacoma","WA","Tacoma Screw Products","2001 Center St","98409",47.23414336842197,-122.46311991566215
"98405","Tacoma","WA","Lawn Equipment Repair of Tacoma","3519 1/2 6th Ave","98406",47.25544,-122.48333999999998
"98405","Tacoma","WA","HD Supply White Cap","3037 Center St","98409",47.23406421,-122.47580318
"98405","Tacoma","WA","Sherwin-Williams Paint Store","4806 Center St","98409",47.233626,-122.50183200000001
"98405","Tacoma","WA","minuteKEY","1965 S Union Ave","98405",47.23989486694336,-122.47920989990234
"98406","Tacoma","WA","McLendon Hardware","1015 N Pearl St","98406",47.259508105201775,-122.51467668397753
"98406","Tacoma","WA","Westgate Ace Hardware","2675 N Pearl St","98407",47.274,-122.5145
"98406","Tacoma","WA","Harbor Freight Tools","5401 6th Ave #B407","98406",47.25670738956465,-122.5091875513492
"98406","Tacoma","WA","Sears","5401 6th Avenue, Suite 515","98406",47.25690435910389,-122.50805972023772
"98406","Tacoma","WA","Nortbest LLC","2522 N Proctor St","98409",47.270790000000005,-122.4892
"98406","Tacoma","WA","Carpet Cleaning Tacoma","1372 Bel Air Rd #98","98406",47.26487731933594,-122.52555084228516
"98406","Tacoma","WA","True Value","not_available","98406",47.268775,-122.512119
"98406","Tacoma","WA","Hard Wares","not_available","98407",47.270240489329304,-122.48993114765183
"98408","Tacoma","WA","United Lamp Supply, Inc.","215 S 50th St","98408",47.212035,-122.43498600000001
"98408","Tacoma","WA","Sherwin-Williams Paint Store","6111 Tacoma Mall Blvd","98409",47.200691,-122.462418
"98409","Tacoma","WA","The Home Depot","4602 Center Street","98409",47.2328159,-122.4985283
"98409","Tacoma","WA","The Home Depot","7050 Tacoma Mall Blvd","98409",47.1924495,-122.4648395
"98409","Tacoma","WA","Lincoln Hardware","3726 S G St","98418",47.223432,-122.441119
"98409","Tacoma","WA","Fastenal","2628 South Tacoma Way","98409",47.229631428934276,-122.47279741575542
"98409","Tacoma","WA","Tacoma Habitat for Humanity Store","4824 S Tacoma Way","98409",47.21274211419336,-122.48429222012862
"98409","Tacoma","WA","Platt Electric Supply","3602 S Cedar St","98409",47.225763,-122.47714599999999
"98409","Tacoma","WA","Ewing Irrigation","2901 South Tacoma Way","98409",47.22999710567347,-122.47394219042235
"98409","Tacoma","WA","Rich's for the Home - Tacoma","6626 Tacoma Mall Blvd","98409",47.196618,-122.464425
"98409","Tacoma","WA","PPG Paints","2719 South Tacoma Way","98409",47.230125427246094,-122.47317504882812
"98409","Tacoma","WA","Mill Outlet Discount Lumber","4811 S Tyler","98409",47.213497585176206,-122.4936163509343
"98409","Tacoma","WA","Budget Plumbing & Drain","4001 S Pine St","98413",47.219970703125,-122.4725570678711
"98409","Tacoma","WA","Northwest Steel & Pipe Inc","4802 S Proctor St","98409",47.2120976,-122.4896848
"98409","Tacoma","WA","Lumber Liquidators","3001 S Huson St Ste A1","98409",47.23298156904003,-122.50279773923472
"98418","Tacoma","WA","Reliable Parts","3727 S G St","98418",47.22357,-122.440271
"98421","Tacoma","WA","Ferguson Plumbing Supply","3517 Pacific Hwy E","98424",47.24354194489272,-122.38138430571827
"98421","Tacoma","WA","Stellar Industrial Supply","711 E 11th St","98421",47.256787,-122.425844
"98421","Tacoma","WA","Motion Industries","1011 East E Street","98421",47.256296,-122.430201
"98421","Tacoma","WA","Paramount Supply Company","2367 Lincoln Ave","98421",47.26212410000001,-122.3985509
"98421","Tacoma","WA","Steeler inc","540 E 15th St","98421",47.250107,-122.425478
"98421","Tacoma","WA","Platt Electric Supply","1924 Port of Tacoma Rd","98421",47.262536,-122.397972
"98421","Tacoma","WA","Grainger","2802 Pacific Hwy E","98424",47.24285311283591,-122.39200473258404
"98421","Tacoma","WA","Wingfoot Commercial Tire","3101 Pacific Hwy E","98424",47.24361801147461,-122.38710021972656
"98421","Tacoma","WA","Pental Granite & Marble","3900 Industry Dr E Ste A","98424",47.236133,-122.37517199999999
"98421","Tacoma","WA","Fastenal","2519 Pacific Hwy E Ste D","98424",47.243812561035156,-122.39580535888672
"98422","Tacoma","WA","Ace Brown's Point Hardware","1000 Town Ctr-Suite 180","98422",47.3008,-122.4348
"98433","Tacoma","WA","Rainier Supply","not_available","98499",47.143433,-122.513423
"98438","Mcchord Afb","WA","Carpet Cleaning Lakewood","4707 127th Street Ct SW #E85","98499",47.141998291015625,-122.50006866455078
"98438","Mcchord Afb","WA","627 CES Material Acquisition","Building 541","not_available",47.12573765303437,-122.49317502994676
"98439","Lakewood","WA","Manor Hardware And Construction Supply","11317 Steele St S Ste 103","98444",47.153629,-122.467362
"98439","Lakewood","WA","Ferguson Waterworks","2042 112th St S","98444",47.154466,-122.464755
"98439","Lakewood","WA","Manor Hardware","11317 Steele St S, Tacoma, WA 98444","98444",47.153656005859375,-122.46722412109375
"98444","Tacoma","WA","Rodda Paint","2510 84th St S","98499",47.18030548095703,-122.47064971923828
"98444","Tacoma","WA","Ace Hardware","105 112th St S","98444",47.156235,-122.43209
"98444","Tacoma","WA","Brookdale Lbr Tv Hardware","13602 Pacific Ave S","98444",47.13313674926758,-122.43506622314453
"98444","Tacoma","WA","Kb Kitchen & Bath","12716 Pacific Ave S","98444",47.14139175415039,-122.43506622314453
"98444","Tacoma","WA","Stoneway","not_available","98444",47.15961,-122.42981
"98444","Tacoma","WA","Foundation Building Materials - Drywall Tools and Fasteners","10506 Steele Street South","98499",47.16193619,-122.46778367
"98445","Tacoma","WA","Ferguson Plumbing Supply","1815 112th St E","98445",47.15557861328125,-122.4052505493164
"98445","Tacoma","WA","Final Touch","12430 Aqueduct Dr E","98445",47.14278,-122.40412
"98466","Tacoma","WA","Washington Architectural Hardware","4409 S Orchard St","98466",47.217353454630306,-122.50322719459699
"98467","University Place","WA","minuteKEY","7001 Bridgeport Way W","98499",47.1936091,-122.5170431
"98467","University Place","WA","American Veterans Paint","7811 Custer Rd W","98499",47.186036,-122.51906699999999
"98498","Lakewood","WA","Oakbrook Ace Hardware","8123 Steilacoom Blvd SW","98498",47.1801999,-122.5433
"98499","Lakewood","WA","Lowe's","5115 100th Street SW Lake","98499",47.1675289,-122.5044591
"98499","Lakewood","WA","Lakewood Hardware & Paint, Inc.","9020 Lakewood Dr SW","98499",47.175114,-122.508435
"98499","Lakewood","WA","GTS Interior Supply","9217 Lakeview Ave SW","98499",47.173722,-122.49145
"98499","Lakewood","WA","Fastenal","Lakeview","not_available",47.1725137160439,-122.49265214116703
"98499","Lakewood","WA","Lindsay Windows Washington","11101 S Tacoma Way","98499",47.15683,-122.48207
"98499","Lakewood","WA","Builders FirstSource","9311 47th Ave SW, Bldg 13","98496",47.172692477754936,-122.49786972999573
"98499","Lakewood","WA","Commercial Hardware & Specialties","9508 Front St S","98499",47.17106,-122.473528
"98499","Lakewood","WA","Hull Floors","9220 South Tacoma Way","98499",47.173248291015625,-122.48458099365234
"98499","Lakewood","WA","Tractor Supply Co. - Lakewood Distribution Center","9314 47Th Ave Sw Bldg 10","98499",47.17211,-122.50171667
"98501","Olympia","WA","The Home Depot","1101 Kingswood Dr SW","98512",46.99122353847023,-122.92007625102997
"98501","Olympia","WA","Lowe's","4230 Martin Way East","98516",47.0494629,-122.8311604
"98501","Olympia","WA","The Home Depot","1325 Fones Rd SE","98501",47.03683408379596,-122.85018378499444
"98501","Olympia","WA","Lowe's","5610 Corporate Center Lane SE","98503",46.9973739,-122.8265349
"98501","Olympia","WA","Olympia Supply & True Value Hardware","625 Columbia St Sw","98501",47.04252736513065,-122.90266309961777
"98501","Olympia","WA","Tractor Supply Co.","4141 Martin Way East Ste 105","98516",47.047405,-122.831611
"98501","Olympia","WA","Platt Electric Supply","1303 Fones Rd SE","98501",47.038037,-122.84745
"98501","Olympia","WA","J & I Power Equipment","3729 Pacific Ave SE","98501",47.040374244426864,-122.84117774672856
"98501","Olympia","WA","Harbor Freight Tools","4520 Lacey Blvd SE #30","98503",47.03693525111533,-122.82477282100224
"98501","Olympia","WA","Sears","651 Sleater Kinney Rd SE","98503",47.0440421,-122.83670031
"98501","Olympia","WA","510 Interiors","510 Waterstreet","98501",47.04360475,-122.9026092
"98501","Olympia","WA","minuteKEY","5610 Corporate Center Ln SE","98503",46.99748229980469,-122.82675170898438
"98501","Olympia","WA","Parker Paint","4404 Martin Way E","98516",47.04891365168066,-122.82649613196979
"98501","Olympia","WA","Ferguson Waterworks","810 79th Ave Se","98501",46.97325134277344,-122.89161682128906
"98501","Olympia","WA","Sherwin-Williams Paint Store","2303 Harrison Ave NW","98502",47.045797,-122.92888
"98501","Olympia","WA","Curtis Lumber","not_available","98506",47.046227578007525,-122.86839854985487
"98501","Olympia","WA","Southgate Ace Hardware","5203 Capitol Blvd SW","98501",47.001414000000004,-122.909921
"98501","Olympia","WA","South Puget Sound Habitat for Humanity ReStore","415 Olympia Ave NE","98501",47.046681,-122.89738500000001
"98501","Olympia","WA","Rodda Paint","not_available","98503",47.037065000000005,-122.824852
"98501","Olympia","WA","C & S Enterprises","347 93rd Ave SE","98501",46.950590000000005,-122.902151
"98501","Olympia","WA","BJS' Paint","6528 Capitol Blvd SE","98501",46.989318,-122.906629
"98501","Olympia","WA","Chadwick Industries","1221 Mottman Rd SW","98512",47.02419662475586,-122.91890716552734
"98501","Olympia","WA","Sherwin-Williams Paint Store","3949 Martin Way E","98506",47.04697413673761,-122.8397011756897
"98501","Olympia","WA","minuteKEY","5110 Yelm Hwy SE","98503",46.997265999999996,-122.81884
"98501","Olympia","WA","minuteKEY","4230 Martin Way E","98516",47.049468994140625,-122.83143615722656
"98501","Olympia","WA","Carpet Cleaning Lacey","3808 12th Ave SE #256","98503",47.038021087646484,-122.83799743652344
"98502","Olympia","WA","Olympia Ace Hardware","400 Cooper Point Rd SW","98502",47.049019,-122.94105
"98502","Olympia","WA","Lew Rents West","405 McPhee Rd SW","98502",47.046634000000005,-122.953538
"98502","Olympia","WA","Trimtek","1212 Black Lake Blvd SW","98502",47.036834999999996,-122.934206
"98502","Olympia","WA","fastenal","not_available","98512",47.023494720458984,-122.94709777832031
"98502","Olympia","WA","Builders FirstSource","1830 SW Black Lake Blvd","98512",47.03085500281868,-122.94070108110866
"98502","Olympia","WA","Hardel Do It Best Builders Center, Inc.","2321 Harrison Ave NW","98502",47.04573,-122.93008300000001
